$GPGGA,033358.00,3030.67468079,N,11424.15947106,E,4,10,0.7,36.980,M,-12.681,M,1.0,0000*55
$GPGGA,033359.00,3030.67467734,N,11424.15947441,E,4,10,0.7,36.986,M,-12.681,M,1.0,0000*55
$GPGGA,033400.00,3030.67467679,N,11424.15947318,E,4,10,0.7,36.979,M,-12.681,M,1.0,0000*5D
$GPGGA,033401.00,3030.67467736,N,11424.15947300,E,4,10,0.7,36.978,M,-12.681,M,1.0,0000*5E
$GPGGA,033402.00,3030.67467785,N,11424.15947256,E,4,10,0.7,36.982,M,-12.681,M,1.0,0000*52
$GPGGA,033403.00,3030.67467963,N,11424.15947441,E,4,10,0.7,36.966,M,-12.681,M,1.0,0000*5F
$GPGGA,033404.00,3030.67467808,N,11424.15947403,E,4,10,0.7,36.976,M,-12.681,M,2.0,0000*50
$GPGGA,033405.00,3030.67467992,N,11424.15947361,E,4,10,0.7,36.985,M,-12.681,M,1.0,0000*5F
$GPGGA,033406.00,3030.67467872,N,11424.15947305,E,4,10,0.7,36.976,M,-12.681,M,1.0,0000*5D
$GPGGA,033407.00,3030.67468026,N,11424.15947376,E,4,10,0.7,36.970,M,-12.681,M,1.0,0000*58
$GPGGA,033408.00,3030.67467783,N,11424.15947475,E,4,10,0.7,36.992,M,-12.681,M,1.0,0000*58
$GPGGA,033409.00,3030.67467851,N,11424.15947502,E,4,10,0.7,36.986,M,-12.681,M,1.0,0000*5D
$GPGGA,033410.00,3030.67467954,N,11424.15947579,E,4,10,0.7,36.976,M,-12.681,M,1.0,0000*52
$GPGGA,033411.00,3030.67467848,N,11424.15947336,E,4,10,0.7,36.982,M,-12.681,M,1.0,0000*59
$GPGGA,033412.00,3030.67467728,N,11424.15947663,E,4,10,0.7,36.975,M,-12.681,M,1.0,0000*5E
$GPGGA,033413.00,3030.67467723,N,11424.15947496,E,4,10,0.7,36.990,M,-12.681,M,2.0,0000*54
$GPGGA,033414.00,3030.67467804,N,11424.15947846,E,4,10,0.7,36.979,M,-12.681,M,2.0,0000*5F
$GPGGA,033415.00,3030.67467969,N,11424.15947757,E,4,10,0.7,36.974,M,-12.681,M,1.0,0000*55
$GPGGA,033416.00,3030.67467985,N,11424.15947688,E,4,10,0.7,36.977,M,-12.681,M,2.0,0000*57
$GPGGA,033417.00,3030.67467565,N,11424.15947806,E,4,10,0.7,36.978,M,-12.681,M,1.0,0000*50
$GPGGA,033418.00,3030.67467537,N,11424.15947948,E,4,09,0.7,36.981,M,-12.681,M,2.0,0000*5E
$GPGGA,033419.00,3030.67467770,N,11424.15947371,E,4,10,0.7,36.979,M,-12.681,M,1.0,0000*52
$GPGGA,033420.00,3030.67467698,N,11424.15947466,E,4,10,0.7,36.981,M,-12.681,M,2.0,0000*5A
$GPGGA,033421.00,3030.67467697,N,11424.15947927,E,4,10,0.7,36.984,M,-12.681,M,2.0,0000*59
$GPGGA,033422.00,3030.67467427,N,11424.15948178,E,4,10,0.7,36.979,M,-12.681,M,2.0,0000*5C
$GPGGA,033423.00,3030.67467711,N,11424.15947723,E,4,10,0.7,36.978,M,-12.681,M,1.0,0000*5E
$GPGGA,033424.00,3030.67467722,N,11424.15947851,E,4,10,0.7,36.973,M,-12.681,M,1.0,0000*58
$GPGGA,033425.00,3030.67467662,N,11424.15947792,E,4,10,0.7,36.980,M,-12.681,M,2.0,0000*53
$GPGGA,033426.00,3030.67467708,N,11424.15947783,E,4,10,0.7,36.983,M,-12.681,M,2.0,0000*5E
$GPGGA,033427.00,3030.67467916,N,11424.15947763,E,4,10,0.7,36.971,M,-12.681,M,2.0,0000*5D
$GPGGA,033428.00,3030.67468036,N,11424.15947767,E,4,09,0.7,36.971,M,-12.681,M,1.0,0000*59
$GPGGA,033429.00,3030.67467751,N,11424.15947773,E,4,09,0.7,36.984,M,-12.681,M,1.0,0000*5E
$GPGGA,033430.00,3030.67467660,N,11424.15947724,E,4,09,0.7,36.987,M,-12.681,M,2.0,0000*57
$GPGGA,033431.00,3030.67467845,N,11424.15947689,E,4,09,0.7,36.976,M,-12.681,M,2.0,0000*57
$GPGGA,033432.00,3030.67467647,N,11424.15948087,E,4,09,0.7,36.977,M,-12.681,M,1.0,0000*5D
$GPGGA,033433.00,3030.67468007,N,11424.15947671,E,4,09,0.7,36.961,M,-12.681,M,1.0,0000*56
$GPGGA,033434.00,3030.67467916,N,11424.15947777,E,4,09,0.7,36.968,M,-12.681,M,2.0,0000*5A
$GPGGA,033435.00,3030.67467560,N,11424.15947933,E,4,09,0.7,36.986,M,-12.681,M,2.0,0000*58
$GPGGA,033436.00,3030.67467613,N,11424.15947876,E,4,09,0.7,36.988,M,-12.681,M,2.0,0000*52
$GPGGA,033437.00,3030.67467538,N,11424.15947852,E,4,09,0.7,36.989,M,-12.681,M,2.0,0000*5E
$GPGGA,033438.00,3030.67467450,N,11424.15947952,E,4,09,0.7,36.993,M,-12.681,M,3.0,0000*55
$GPGGA,033439.00,3030.67467527,N,11424.15947721,E,4,09,0.7,36.981,M,-12.681,M,3.0,0000*5C
$GPGGA,033440.00,3030.67467702,N,11424.15947799,E,4,09,0.7,36.982,M,-12.681,M,2.0,0000*56
$GPGGA,033441.00,3030.67467884,N,11424.15947845,E,4,10,0.7,36.978,M,-12.681,M,2.0,0000*55
$GPGGA,033442.00,3030.67467903,N,11424.15947759,E,4,10,0.7,36.975,M,-12.681,M,1.0,0000*54
$GPGGA,033443.00,3030.67467868,N,11424.15947929,E,4,10,0.7,36.973,M,-12.681,M,2.0,0000*55
$GPGGA,033444.00,3030.67467388,N,11424.15947997,E,4,10,0.7,36.982,M,-12.681,M,2.0,0000*5C
$GPGGA,033445.00,3030.67467773,N,11424.15947884,E,4,10,0.7,36.976,M,-12.681,M,2.0,0000*55
$GPGGA,033446.00,3030.67467763,N,11424.15947985,E,4,10,0.7,36.959,M,-12.681,M,2.0,0000*5A
$GPGGA,033447.00,3030.67467669,N,11424.15948306,E,4,10,0.7,36.984,M,-12.681,M,1.0,0000*5D
$GPGGA,033448.00,3030.67467566,N,11424.15948192,E,4,10,0.7,36.984,M,-12.681,M,2.0,0000*52
$GPGGA,033449.00,3030.67467150,N,11424.15948321,E,4,10,0.7,36.993,M,-12.681,M,2.0,0000*5E
$GPGGA,033450.00,3030.67468041,N,11424.15947833,E,4,10,0.7,36.954,M,-12.681,M,1.0,0000*57
$GPGGA,033451.00,3030.67468060,N,11424.15947845,E,4,10,0.7,36.955,M,-12.681,M,2.0,0000*56
$GPGGA,033452.00,3030.67467904,N,11424.15948236,E,4,10,0.7,36.964,M,-12.681,M,2.0,0000*52
$GPGGA,033453.00,3030.67467658,N,11424.15947820,E,4,10,0.7,36.973,M,-12.681,M,1.0,0000*52
$GPGGA,033454.00,3030.67467735,N,11424.15947715,E,4,10,0.7,36.971,M,-12.681,M,2.0,0000*57
$GPGGA,033455.00,3030.67467352,N,11424.15948276,E,4,10,0.7,36.985,M,-12.681,M,2.0,0000*57
$GPGGA,033456.00,3030.67468129,N,11424.15948057,E,4,10,0.7,36.968,M,-12.681,M,2.0,0000*57
$GPGGA,033457.00,3030.67467686,N,11424.15948189,E,4,10,0.7,36.975,M,-12.681,M,2.0,0000*55
$GPGGA,033458.00,3030.67467661,N,11424.15948334,E,4,10,0.7,36.976,M,-12.681,M,1.0,0000*57
$GPGGA,033459.00,3030.67467611,N,11424.15948252,E,4,10,0.7,36.982,M,-12.681,M,2.0,0000*58
$GPGGA,033500.00,3030.67468047,N,11424.15948254,E,4,10,0.7,36.956,M,-12.681,M,1.0,0000*53
$GPGGA,033501.00,3030.67468050,N,11424.15948333,E,4,10,0.7,36.951,M,-12.681,M,2.0,0000*50
$GPGGA,033502.00,3030.67467507,N,11424.15948508,E,4,10,0.7,36.984,M,-12.681,M,2.0,0000*5D
$GPGGA,033503.00,3030.67467983,N,11424.15948283,E,4,10,0.7,36.957,M,-12.681,M,1.0,0000*55
$GPGGA,033504.00,3030.67467898,N,11424.15948400,E,4,10,0.7,36.965,M,-12.681,M,2.0,0000*56
$GPGGA,033505.00,3030.67467925,N,11424.15948583,E,4,10,0.7,36.963,M,-12.681,M,1.0,0000*5F
$GPGGA,033506.00,3030.67467831,N,11424.15948516,E,4,10,0.7,36.973,M,-12.681,M,2.0,0000*56
$GPGGA,033507.00,3030.67467660,N,11424.15948538,E,4,10,0.7,36.976,M,-12.681,M,1.0,0000*57
$GPGGA,033508.00,3030.67467733,N,11424.15948321,E,4,10,0.7,36.980,M,-12.681,M,2.0,0000*5B
$GPGGA,033509.00,3030.67467275,N,11424.15948730,E,4,10,0.7,37.000,M,-12.681,M,2.0,0000*59
$GPGGA,033510.00,3030.67467944,N,11424.15948421,E,4,10,0.7,36.968,M,-12.681,M,1.0,0000*5E
$GPGGA,033511.00,3030.67467847,N,11424.15948513,E,4,10,0.7,36.961,M,-12.681,M,1.0,0000*54
$GPGGA,033512.00,3030.67467749,N,11424.15948461,E,4,10,0.7,36.966,M,-12.681,M,2.0,0000*56
$GPGGA,033513.00,3030.67467665,N,11424.15948175,E,4,10,0.7,36.975,M,-12.681,M,2.0,0000*5A
$GPGGA,033514.00,3030.67467953,N,11424.15948491,E,4,10,0.7,36.965,M,-12.681,M,2.0,0000*59
$GPGGA,033515.00,3030.67467847,N,11424.15948471,E,4,10,0.7,36.972,M,-12.681,M,1.0,0000*57
$GPGGA,033516.00,3030.67467783,N,11424.15948376,E,4,10,0.7,36.971,M,-12.681,M,2.0,0000*53
$GPGGA,033517.00,3030.67467704,N,11424.15948811,E,4,10,0.7,36.954,M,-12.681,M,2.0,0000*50
$GPGGA,033518.00,3030.67467763,N,11424.15948502,E,4,10,0.7,36.956,M,-12.681,M,2.0,0000*53
$GPGGA,033519.00,3030.67467956,N,11424.15948386,E,4,10,0.7,36.963,M,-12.681,M,1.0,0000*55
$GPGGA,033520.00,3030.67468168,N,11424.15948263,E,4,10,0.7,36.954,M,-12.681,M,1.0,0000*5B
$GPGGA,033521.00,3030.67468155,N,11424.15948252,E,4,10,0.7,36.957,M,-12.681,M,2.0,0000*56
$GPGGA,033522.00,3030.67467960,N,11424.15948215,E,4,10,0.7,36.960,M,-12.681,M,2.0,0000*53
$GPGGA,033523.00,3030.67467780,N,11424.15948477,E,4,10,0.7,36.958,M,-12.681,M,2.0,0000*5B
$GPGGA,033524.00,3030.67468209,N,11424.15948436,E,4,10,0.7,36.959,M,-12.681,M,2.0,0000*53
$GPGGA,033525.00,3030.67467948,N,11424.15948337,E,4,10,0.7,36.950,M,-12.681,M,2.0,0000*5C
$GPGGA,033526.00,3030.67467918,N,11424.15948781,E,4,10,0.7,36.959,M,-12.681,M,2.0,0000*5A
$GPGGA,033527.00,3030.67468134,N,11424.15948455,E,4,10,0.7,36.954,M,-12.681,M,2.0,0000*55
$GPGGA,033528.00,3030.67467539,N,11424.15948684,E,4,10,0.7,36.966,M,-12.681,M,1.0,0000*50
$GPGGA,033529.00,3030.67467461,N,11424.15948586,E,4,10,0.7,36.972,M,-12.681,M,2.0,0000*5A
$GPGGA,033530.00,3030.67468068,N,11424.15948057,E,4,10,0.7,36.944,M,-12.681,M,2.0,0000*5C
$GPGGA,033531.00,3030.67467718,N,11424.15948701,E,4,10,0.7,36.962,M,-12.681,M,2.0,0000*52
$GPGGA,033532.00,3030.67467709,N,11424.15948535,E,4,10,0.7,36.962,M,-12.681,M,1.0,0000*57
$GPGGA,033533.00,3030.67467990,N,11424.15948209,E,4,10,0.7,36.942,M,-12.681,M,1.0,0000*52
$GPGGA,033534.00,3030.67467897,N,11424.15948384,E,4,10,0.7,36.942,M,-12.681,M,2.0,0000*54
$GPGGA,033535.00,3030.67468084,N,11424.15948243,E,4,10,0.7,36.961,M,-12.681,M,1.0,0000*58
$GPGGA,033536.00,3030.67468071,N,11424.15948191,E,4,10,0.7,36.960,M,-12.681,M,2.0,0000*5F
$GPGGA,033537.00,3030.67467750,N,11424.15948669,E,4,10,0.7,36.960,M,-12.681,M,2.0,0000*55
$GPGGA,033538.00,3030.67467599,N,11424.15948709,E,4,10,0.7,36.972,M,-12.681,M,2.0,0000*59
$GPGGA,033539.00,3030.67468015,N,11424.15948611,E,4,10,0.7,36.956,M,-12.681,M,2.0,0000*58
$GPGGA,033540.00,3030.67468399,N,11424.15948357,E,4,10,0.7,36.941,M,-12.681,M,2.0,0000*50
$GPGGA,033541.00,3030.67467938,N,11424.15948332,E,4,10,0.7,36.954,M,-12.681,M,2.0,0000*58
$GPGGA,033542.00,3030.67467503,N,11424.15948418,E,4,10,0.7,36.981,M,-12.681,M,2.0,0000*58
$GPGGA,033543.00,3030.67467406,N,11424.15948639,E,4,10,0.7,36.983,M,-12.681,M,1.0,0000*5D
$GPGGA,033544.00,3030.67467852,N,11424.15948300,E,4,10,0.7,36.956,M,-12.681,M,1.0,0000*50
$GPGGA,033545.00,3030.67467601,N,11424.15948396,E,4,10,0.7,36.966,M,-12.681,M,1.0,0000*55
$GPGGA,033546.00,3030.67467503,N,11424.15948442,E,4,10,0.7,36.971,M,-12.681,M,2.0,0000*5C
$GPGGA,033547.00,3030.67467810,N,11424.15948274,E,4,10,0.7,36.955,M,-12.681,M,1.0,0000*54
$GPGGA,033548.00,3030.67467926,N,11424.15948073,E,4,10,0.7,36.955,M,-12.681,M,2.0,0000*59
$GPGGA,033549.00,3030.67469821,N,11424.15921797,E,4,10,0.7,36.685,M,-12.681,M,1.0,0000*53
$GPGGA,033550.00,3030.67469751,N,11424.15921748,E,4,10,0.7,36.688,M,-12.681,M,2.0,0000*5F
$GPGGA,033551.00,3030.67469893,N,11424.15923791,E,4,10,0.7,36.694,M,-12.681,M,1.0,0000*57
$GPGGA,033552.00,3030.67469837,N,11424.15923620,E,4,10,0.7,36.692,M,-12.681,M,1.0,0000*57
$GPGGA,033553.00,3030.67469952,N,11424.15923631,E,4,10,0.7,36.689,M,-12.681,M,2.0,0000*5D
$GPGGA,033554.00,3030.67469985,N,11424.15923507,E,4,10,0.7,36.690,M,-12.681,M,2.0,0000*5E
$GPGGA,033555.00,3030.67469827,N,11424.15923679,E,4,10,0.7,36.707,M,-12.681,M,2.0,0000*53
$GPGGA,033556.00,3030.67469771,N,11424.15923639,E,4,10,0.7,36.691,M,-12.681,M,1.0,0000*55
$GPGGA,033557.00,3030.67469939,N,11424.15923486,E,4,10,0.7,36.687,M,-12.681,M,1.0,0000*57
$GPGGA,033558.00,3030.67469763,N,11424.15923632,E,4,10,0.7,36.699,M,-12.681,M,1.0,0000*5B
$GPGGA,033559.00,3030.67470019,N,11424.15923681,E,4,10,0.7,36.677,M,-12.681,M,1.0,0000*50
$GPGGA,033600.00,3030.67470063,N,11424.15923734,E,4,10,0.7,36.674,M,-12.681,M,2.0,0000*5D
$GPGGA,033601.00,3030.67469776,N,11424.15923896,E,4,10,0.7,36.692,M,-12.681,M,2.0,0000*58
$GPGGA,033602.00,3030.67469840,N,11424.15923538,E,4,10,0.7,36.689,M,-12.681,M,1.0,0000*51
$GPGGA,033603.00,3030.67469805,N,11424.15923674,E,4,10,0.7,36.684,M,-12.681,M,1.0,0000*57
$GPGGA,033604.00,3030.67469631,N,11424.15923660,E,4,10,0.7,36.686,M,-12.681,M,2.0,0000*5D
$GPGGA,033605.00,3030.67469854,N,11424.15923679,E,4,10,0.7,36.698,M,-12.681,M,1.0,0000*55
$GPGGA,033606.00,3030.67469874,N,11424.15923727,E,4,10,0.7,36.693,M,-12.681,M,2.0,0000*56
$GPGGA,033607.00,3030.67469625,N,11424.15923331,E,4,10,0.7,36.690,M,-12.681,M,2.0,0000*5D
$GPGGA,033608.00,3030.67469804,N,11424.15923257,E,4,10,0.7,36.695,M,-12.681,M,2.0,0000*5B
$GPGGA,033609.00,3030.67469503,N,11424.15923683,E,4,10,0.7,36.702,M,-12.681,M,2.0,0000*52
$GPGGA,033610.00,3030.67469639,N,11424.15923454,E,4,10,0.7,36.701,M,-12.681,M,1.0,0000*58
$GPGGA,033611.00,3030.67469520,N,11424.15923292,E,4,10,0.7,36.699,M,-12.681,M,1.0,0000*5E
$GPGGA,033612.00,3030.67469541,N,11424.15923370,E,4,10,0.7,36.712,M,-12.681,M,1.0,0000*55
$GPGGA,033613.00,3030.67469563,N,11424.15923388,E,4,10,0.7,36.715,M,-12.681,M,2.0,0000*57
$GPGGA,033614.00,3030.67469710,N,11424.15923449,E,4,10,0.7,36.697,M,-12.681,M,1.0,0000*54
$GPGGA,033615.00,3030.67469657,N,11424.15923472,E,4,10,0.7,36.702,M,-12.681,M,2.0,0000*51
$GPGGA,033616.00,3030.67469560,N,11424.15923376,E,4,10,0.7,36.708,M,-12.681,M,2.0,0000*5C
$GPGGA,033617.00,3030.67469767,N,11424.15923298,E,4,10,0.7,36.703,M,-12.681,M,2.0,0000*52
$GPGGA,033618.00,3030.67469523,N,11424.15923594,E,4,10,0.7,36.713,M,-12.681,M,2.0,0000*55
$GPGGA,033619.00,3030.67469886,N,11424.15923508,E,4,10,0.7,36.699,M,-12.681,M,1.0,0000*53
$GPGGA,033620.00,3030.67469748,N,11424.15923557,E,4,10,0.7,36.694,M,-12.681,M,2.0,0000*50
$GPGGA,033621.00,3030.67469737,N,11424.15923410,E,4,10,0.7,36.702,M,-12.681,M,1.0,0000*56
$GPGGA,033622.00,3030.67469725,N,11424.15923501,E,4,10,0.7,36.700,M,-12.681,M,2.0,0000*56
$GPGGA,033623.00,3030.67469464,N,11424.15923256,E,4,10,0.7,36.702,M,-12.681,M,1.0,0000*55
$GPGGA,033624.00,3030.67469513,N,11424.15923125,E,4,10,0.7,36.699,M,-12.681,M,2.0,0000*54
$GPGGA,033625.00,3030.67469528,N,11424.15923726,E,4,10,0.7,36.702,M,-12.681,M,2.0,0000*5B
$GPGGA,033626.00,3030.67469479,N,11424.15923672,E,4,10,0.7,36.706,M,-12.681,M,2.0,0000*59
$GPGGA,033627.00,3030.67469553,N,11424.15923482,E,4,10,0.7,36.707,M,-12.681,M,2.0,0000*5D
$GPGGA,033628.00,3030.67469509,N,11424.15923415,E,4,10,0.7,36.702,M,-12.681,M,1.0,0000*55
$GPGGA,033629.00,3030.67469537,N,11424.15923470,E,4,10,0.7,36.699,M,-12.681,M,2.0,0000*5A
$GPGGA,033630.00,3030.67469727,N,11424.15923290,E,4,10,0.7,36.693,M,-12.681,M,2.0,0000*53
$GPGGA,033631.00,3030.67469425,N,11424.15923389,E,4,10,0.7,36.718,M,-12.681,M,2.0,0000*58
$GPGGA,033632.00,3030.67469528,N,11424.15923376,E,4,10,0.7,36.691,M,-12.681,M,2.0,0000*57
$GPGGA,033633.00,3030.67469650,N,11424.15923378,E,4,10,0.7,36.689,M,-12.681,M,1.0,0000*5E
$GPGGA,033634.00,3030.67469584,N,11424.15923334,E,4,10,0.7,36.686,M,-12.681,M,2.0,0000*57
$GPGGA,033635.00,3030.67469581,N,11424.15923418,E,4,10,0.7,36.696,M,-12.681,M,1.0,0000*58
$GPGGA,033636.00,3030.67469465,N,11424.15923524,E,4,10,0.7,36.697,M,-12.681,M,2.0,0000*5C
$GPGGA,033637.00,3030.67469422,N,11424.15923453,E,4,10,0.7,36.695,M,-12.681,M,2.0,0000*5D
$GPGGA,033638.00,3030.67469434,N,11424.15923396,E,4,10,0.7,36.690,M,-12.681,M,3.0,0000*5F
$GPGGA,033639.00,3030.67469492,N,11424.15923556,E,4,10,0.7,36.706,M,-12.681,M,3.0,0000*56
$GPGGA,033640.00,3030.67469592,N,11424.15923354,E,4,10,0.7,36.700,M,-12.681,M,2.0,0000*5A
$GPGGA,033641.00,3030.67469574,N,11424.15923289,E,4,10,0.7,36.688,M,-12.681,M,2.0,0000*53
$GPGGA,033642.00,3030.67469567,N,11424.15923336,E,4,10,0.7,36.694,M,-12.681,M,2.0,0000*5A
$GPGGA,033643.00,3030.67469793,N,11424.15923048,E,4,10,0.7,36.678,M,-12.681,M,1.0,0000*59
$GPGGA,033644.00,3030.67469649,N,11424.15923179,E,4,10,0.7,36.691,M,-12.681,M,1.0,0000*5C
$GPGGA,033645.00,3030.67469728,N,11424.15923079,E,4,10,0.7,36.689,M,-12.681,M,1.0,0000*53
$GPGGA,033646.00,3030.67469666,N,11424.15923129,E,4,10,0.7,36.690,M,-12.681,M,2.0,0000*54
$GPGGA,033647.00,3030.67469516,N,11424.15922967,E,4,10,0.7,36.682,M,-12.681,M,2.0,0000*51
$GPGGA,033648.00,3030.67469612,N,11424.15922995,E,4,10,0.7,36.689,M,-12.681,M,2.0,0000*5F
$GPGGA,033649.00,3030.67469672,N,11424.15923278,E,4,10,0.7,36.694,M,-12.681,M,1.0,0000*5E
$GPGGA,033650.00,3030.67469717,N,11424.15923386,E,4,10,0.7,36.684,M,-12.681,M,1.0,0000*55
$GPGGA,033651.00,3030.67469703,N,11424.15923201,E,4,10,0.7,36.681,M,-12.681,M,2.0,0000*59
$GPGGA,033652.00,3030.67469645,N,11424.15923394,E,4,10,0.7,36.698,M,-12.681,M,1.0,0000*5F
$GPGGA,033653.00,3030.67469692,N,11424.15923428,E,4,10,0.7,36.696,M,-12.681,M,2.0,0000*59
$GPGGA,033654.00,3030.67469704,N,11424.15923355,E,4,10,0.7,36.701,M,-12.681,M,1.0,0000*51
$GPGGA,033655.00,3030.67469739,N,11424.15923372,E,4,10,0.7,36.701,M,-12.681,M,2.0,0000*58
$GPGGA,033656.00,3030.67469824,N,11424.15923095,E,4,10,0.7,36.684,M,-12.681,M,2.0,0000*5E
$GPGGA,033657.00,3030.67469732,N,11424.15923194,E,4,10,0.7,36.683,M,-12.681,M,1.0,0000*53
$GPGGA,033658.00,3030.67469440,N,11424.15923599,E,4,10,0.7,36.700,M,-12.681,M,1.0,0000*59
$GPGGA,033659.00,3030.67469437,N,11424.15923547,E,4,10,0.7,36.699,M,-12.681,M,2.0,0000*59
$GPGGA,033700.00,3030.67469631,N,11424.15923280,E,4,10,0.7,36.704,M,-12.681,M,2.0,0000*59
$GPGGA,033701.00,3030.67469703,N,11424.15923337,E,4,10,0.7,36.699,M,-12.681,M,2.0,0000*50
$GPGGA,033702.00,3030.67469806,N,11424.15923297,E,4,10,0.7,36.689,M,-12.681,M,1.0,0000*50
$GPGGA,033703.00,3030.67469769,N,11424.15923366,E,4,10,0.7,36.692,M,-12.681,M,2.0,0000*51
$GPGGA,033704.00,3030.67469739,N,11424.15923234,E,4,10,0.7,36.684,M,-12.681,M,2.0,0000*52
$GPGGA,033705.00,3030.67469641,N,11424.15923373,E,4,10,0.7,36.705,M,-12.681,M,1.0,0000*54
$GPGGA,033706.00,3030.67469654,N,11424.15923305,E,4,10,0.7,36.706,M,-12.681,M,2.0,0000*52
$GPGGA,033707.00,3030.67469707,N,11424.15922987,E,4,10,0.7,36.690,M,-12.681,M,2.0,0000*5B
$GPGGA,033708.00,3030.67469745,N,11424.15923367,E,4,10,0.7,36.703,M,-12.681,M,2.0,0000*5C
$GPGGA,033709.00,3030.67469805,N,11424.15923079,E,4,10,0.7,36.682,M,-12.681,M,2.0,0000*52
$GPGGA,033710.00,3030.67469644,N,11424.15923420,E,4,10,0.7,36.700,M,-12.681,M,1.0,0000*51
$GPGGA,033711.00,3030.67469792,N,11424.15923138,E,4,10,0.7,36.703,M,-12.681,M,2.0,0000*56
$GPGGA,033712.00,3030.67469667,N,11424.15923477,E,4,10,0.7,36.684,M,-12.681,M,1.0,0000*5D
$GPGGA,033713.00,3030.67469909,N,11424.15923241,E,4,10,0.7,36.681,M,-12.681,M,1.0,0000*5D
$GPGGA,033714.00,3030.67469651,N,11424.15923265,E,4,10,0.7,36.693,M,-12.681,M,1.0,0000*5D
$GPGGA,033715.00,3030.67469638,N,11424.15923158,E,4,10,0.7,36.698,M,-12.681,M,2.0,0000*56
$GPGGA,033716.00,3030.67469724,N,11424.15923376,E,4,10,0.7,36.709,M,-12.681,M,2.0,0000*5E
$GPGGA,033717.00,3030.67469678,N,11424.15923526,E,4,10,0.7,36.697,M,-12.681,M,2.0,0000*52
$GPGGA,033718.00,3030.67469714,N,11424.15923324,E,4,10,0.7,36.691,M,-12.681,M,1.0,0000*57
$GPGGA,033719.00,3030.67469844,N,11424.15923556,E,4,10,0.7,36.689,M,-12.681,M,1.0,0000*56
$GPGGA,033720.00,3030.67469578,N,11424.15923259,E,4,10,0.7,36.703,M,-12.681,M,1.0,0000*55
$GPGGA,033721.00,3030.67469771,N,11424.15923418,E,4,10,0.7,36.698,M,-12.681,M,1.0,0000*5F
$GPGGA,033722.00,3030.67469855,N,11424.15923454,E,4,10,0.7,36.700,M,-12.681,M,1.0,0000*5D
$GPGGA,033723.00,3030.67469515,N,11424.15923423,E,4,10,0.7,36.697,M,-12.681,M,1.0,0000*5A
$GPGGA,033724.00,3030.67469447,N,11424.15923494,E,4,10,0.7,36.696,M,-12.681,M,2.0,0000*55
$GPGGA,033725.00,3030.67469693,N,11424.15923582,E,4,10,0.7,36.688,M,-12.681,M,2.0,0000*56
$GPGGA,033726.00,3030.67469739,N,11424.15923479,E,4,10,0.7,36.684,M,-12.681,M,2.0,0000*5D
$GPGGA,033727.00,3030.67469652,N,11424.15923374,E,4,10,0.7,36.693,M,-12.681,M,1.0,0000*5F
$GPGGA,033728.00,3030.67469455,N,11424.15923421,E,4,10,0.7,36.704,M,-12.681,M,1.0,0000*5D
$GPGGA,033729.00,3030.67469415,N,11424.15923497,E,4,10,0.7,36.705,M,-12.681,M,2.0,0000*57
$GPGGA,033730.00,3030.67469497,N,11424.15923444,E,4,10,0.7,36.698,M,-12.681,M,1.0,0000*5D
$GPGGA,033731.00,3030.67469684,N,11424.15923457,E,4,10,0.7,36.690,M,-12.681,M,1.0,0000*56
$GPGGA,033732.00,3030.67469758,N,11424.15923424,E,4,10,0.7,36.687,M,-12.681,M,2.0,0000*54
$GPGGA,033733.00,3030.67469614,N,11424.15923243,E,4,10,0.7,36.682,M,-12.681,M,2.0,0000*5E
$GPGGA,033734.00,3030.67469656,N,11424.15923534,E,4,10,0.7,36.683,M,-12.681,M,2.0,0000*59
$GPGGA,033735.00,3030.67469577,N,11424.15923427,E,4,10,0.7,36.694,M,-12.681,M,2.0,0000*5D
$GPGGA,033736.00,3030.67469503,N,11424.15923426,E,4,10,0.7,36.691,M,-12.681,M,1.0,0000*5A
$GPGGA,033737.00,3030.67469485,N,11424.15923584,E,4,10,0.7,36.699,M,-12.681,M,1.0,0000*55
$GPGGA,033738.00,3030.67469368,N,11424.15923595,E,4,10,0.7,36.707,M,-12.681,M,1.0,0000*58
$GPGGA,033739.00,3030.67469361,N,11424.15923442,E,4,10,0.7,36.704,M,-12.681,M,2.0,0000*5B
$GPGGA,033740.00,3030.67469623,N,11424.15923175,E,4,10,0.7,36.697,M,-12.681,M,1.0,0000*5F
$GPGGA,033741.00,3030.67469600,N,11424.15923497,E,4,10,0.7,36.695,M,-12.681,M,1.0,0000*54
$GPGGA,033742.00,3030.67469644,N,11424.15923271,E,4,10,0.7,36.692,M,-12.681,M,1.0,0000*5E
$GPGGA,033743.00,3030.67469637,N,11424.15923403,E,4,10,0.7,36.706,M,-12.681,M,1.0,0000*54
$GPGGA,033744.00,3030.67469335,N,11424.15923560,E,4,10,0.7,36.702,M,-12.681,M,1.0,0000*54
$GPGGA,033745.00,3030.67469358,N,11424.15923567,E,4,10,0.7,36.703,M,-12.681,M,2.0,0000*5B
$GPGGA,033746.00,3030.67469607,N,11424.15923193,E,4,10,0.7,36.698,M,-12.681,M,2.0,0000*5B
$GPGGA,033747.00,3030.67469477,N,11424.15923383,E,4,09,0.7,36.710,M,-12.681,M,2.0,0000*55
$GPGGA,033748.00,3030.67469541,N,11424.15923425,E,4,09,0.7,36.697,M,-12.681,M,2.0,0000*5B
$GPGGA,033749.00,3030.67469683,N,11424.15923313,E,4,09,0.7,36.679,M,-12.681,M,1.0,0000*56
$GPGGA,033750.00,3030.67469730,N,11424.15923344,E,4,09,0.7,36.676,M,-12.681,M,2.0,0000*59
$GPGGA,033751.00,3030.67469864,N,11424.15923183,E,4,09,0.7,36.671,M,-12.681,M,1.0,0000*5B
$GPGGA,033752.00,3030.67469807,N,11424.15923240,E,4,09,0.7,36.667,M,-12.681,M,2.0,0000*55
$GPGGA,033753.00,3030.67469720,N,11424.15923421,E,4,09,0.7,36.691,M,-12.681,M,1.0,0000*55
$GPGGA,033754.00,3030.67469638,N,11424.15923418,E,4,09,0.7,36.690,M,-12.681,M,2.0,0000*52
$GPGGA,033755.00,3030.67469511,N,11424.15923382,E,4,09,0.7,36.695,M,-12.681,M,2.0,0000*5A
$GPGGA,033756.00,3030.67469508,N,11424.15923678,E,4,09,0.7,36.700,M,-12.681,M,2.0,0000*5C
$GPGGA,033757.00,3030.67469616,N,11424.15923334,E,4,09,0.7,36.682,M,-12.681,M,1.0,0000*54
$GPGGA,033758.00,3030.67469658,N,11424.15923314,E,4,09,0.7,36.689,M,-12.681,M,1.0,0000*58
$GPGGA,033759.00,3030.67469536,N,11424.15923646,E,4,09,0.7,36.679,M,-12.681,M,1.0,0000*5F
$GPGGA,033800.00,3030.67469607,N,11424.15923516,E,4,09,0.7,36.676,M,-12.681,M,2.0,0000*57
$GPGGA,033801.00,3030.67469444,N,11424.15923516,E,4,09,0.7,36.694,M,-12.681,M,1.0,0000*5C
$GPGGA,033802.00,3030.67469707,N,11424.15923578,E,4,09,0.7,36.690,M,-12.681,M,1.0,0000*57
$GPGGA,033803.00,3030.67469635,N,11424.15923553,E,4,09,0.7,36.689,M,-12.681,M,2.0,0000*54
$GPGGA,033804.00,3030.67469580,N,11424.15923261,E,4,09,0.7,36.690,M,-12.681,M,2.0,0000*50
$GPGGA,033805.00,3030.67469675,N,11424.15923254,E,4,09,0.7,36.685,M,-12.681,M,2.0,0000*5A
$GPGGA,033806.00,3030.67469514,N,11424.15923603,E,4,09,0.7,36.693,M,-12.681,M,2.0,0000*5C
$GPGGA,033807.00,3030.67469619,N,11424.15923544,E,4,09,0.7,36.691,M,-12.681,M,1.0,0000*52
$GPGGA,033808.00,3030.67469633,N,11424.15923496,E,4,09,0.7,36.692,M,-12.681,M,1.0,0000*58
$GPGGA,033809.00,3030.67469597,N,11424.15923620,E,4,09,0.7,36.700,M,-12.681,M,1.0,0000*51
$GPGGA,033810.00,3030.67469654,N,11424.15923253,E,4,09,0.7,36.690,M,-12.681,M,1.0,0000*5D
$GPGGA,033811.00,3030.67469722,N,11424.15923166,E,4,10,0.7,36.687,M,-12.681,M,2.0,0000*54
$GPGGA,033812.00,3030.67469667,N,11424.15923301,E,4,10,0.7,36.679,M,-12.681,M,1.0,0000*56
$GPGGA,033813.00,3030.67469729,N,11424.15923432,E,4,10,0.7,36.677,M,-12.681,M,2.0,0000*56
$GPGGA,033814.00,3030.67469666,N,11424.15923408,E,4,10,0.7,36.690,M,-12.681,M,1.0,0000*58
$GPGGA,033815.00,3030.67469662,N,11424.15923377,E,4,10,0.7,36.687,M,-12.681,M,2.0,0000*57
$GPGGA,033816.00,3030.67469764,N,11424.15923256,E,4,10,0.7,36.686,M,-12.681,M,2.0,0000*50
$GPGGA,033817.00,3030.67469829,N,11424.15923346,E,4,10,0.7,36.684,M,-12.681,M,2.0,0000*55
$GPGGA,033818.00,3030.67469686,N,11424.15923581,E,4,10,0.7,36.691,M,-12.681,M,2.0,0000*58
$GPGGA,033819.00,3030.67469375,N,11424.15923588,E,4,10,0.7,36.700,M,-12.681,M,2.0,0000*50
$GPGGA,033820.00,3030.67469792,N,11424.15923528,E,4,10,0.7,36.690,M,-12.681,M,1.0,0000*56
$GPGGA,033821.00,3030.67469688,N,11424.15923575,E,4,10,0.7,36.694,M,-12.681,M,2.0,0000*52
$GPGGA,033822.00,3030.67469256,N,11424.15923643,E,4,10,0.7,36.711,M,-12.681,M,2.0,0000*5C
$GPGGA,033823.00,3030.67469702,N,11424.15923341,E,4,10,0.7,36.686,M,-12.681,M,2.0,0000*51
$GPGGA,033824.00,3030.67469540,N,11424.15923535,E,4,10,0.7,36.699,M,-12.681,M,1.0,0000*5A
$GPGGA,033825.00,3030.67469618,N,11424.15923486,E,4,10,0.7,36.699,M,-12.681,M,2.0,0000*5F
$GPGGA,033826.00,3030.67469493,N,11424.15923585,E,4,10,0.7,36.707,M,-12.681,M,2.0,0000*59
$GPGGA,033827.00,3030.67469724,N,11424.15923556,E,4,10,0.7,36.686,M,-12.681,M,1.0,0000*52
$GPGGA,033828.00,3030.67469763,N,11424.15923436,E,4,10,0.7,36.691,M,-12.681,M,2.0,0000*5C
$GPGGA,033829.00,3030.67469665,N,11424.15923699,E,4,10,0.7,36.694,M,-12.681,M,1.0,0000*5B
$GPGGA,033830.00,3030.67469671,N,11424.15923670,E,4,09,0.7,36.697,M,-12.681,M,2.0,0000*59
$GPGGA,033831.00,3030.67469294,N,11424.15923815,E,4,09,0.7,36.703,M,-12.681,M,2.0,0000*56
$GPGGA,033832.00,3030.67469787,N,11424.15923517,E,4,09,0.7,36.680,M,-12.681,M,1.0,0000*54
$GPGGA,033833.00,3030.67469813,N,11424.15923595,E,4,09,0.7,36.682,M,-12.681,M,2.0,0000*5C
$GPGGA,033834.00,3030.67469573,N,11424.15923811,E,4,09,0.7,36.697,M,-12.681,M,2.0,0000*55
$GPGGA,033835.00,3030.67469668,N,11424.15923534,E,4,09,0.7,36.685,M,-12.681,M,2.0,0000*54
$GPGGA,033836.00,3030.67469655,N,11424.15923591,E,4,09,0.7,36.680,M,-12.681,M,2.0,0000*53
$GPGGA,033837.00,3030.67469896,N,11424.15923450,E,4,09,0.7,36.687,M,-12.681,M,2.0,0000*58
$GPGGA,033838.00,3030.67469795,N,11424.15923463,E,4,09,0.7,36.686,M,-12.681,M,2.0,0000*5A
$GPGGA,033839.00,3030.67469625,N,11424.15923446,E,4,09,0.7,36.686,M,-12.681,M,3.0,0000*57
$GPGGA,033840.00,3030.67469564,N,11424.15923577,E,4,09,0.7,36.684,M,-12.681,M,3.0,0000*5E
$GPGGA,033841.00,3030.67469761,N,11424.15923531,E,4,09,0.7,36.688,M,-12.681,M,2.0,0000*57
$GPGGA,033842.00,3030.67469695,N,11424.15923600,E,4,09,0.7,36.681,M,-12.681,M,2.0,0000*56
$GPGGA,033843.00,3030.67469601,N,11424.15923558,E,4,09,0.7,36.682,M,-12.681,M,2.0,0000*57
$GPGGA,033844.00,3030.67469893,N,11424.15923620,E,4,09,0.7,36.682,M,-12.681,M,1.0,0000*5A
$GPGGA,033845.00,3030.67469903,N,11424.15923593,E,4,09,0.7,36.674,M,-12.681,M,2.0,0000*52
$GPGGA,033846.00,3030.67469894,N,11424.15923341,E,4,09,0.7,36.679,M,-12.681,M,2.0,0000*5A
$GPGGA,033847.00,3030.67469810,N,11424.15923459,E,4,09,0.7,36.682,M,-12.681,M,2.0,0000*5D
$GPGGA,033848.00,3030.67469599,N,11424.15923603,E,4,09,0.7,36.684,M,-12.681,M,1.0,0000*56
$GPGGA,033849.00,3030.67469677,N,11424.15923411,E,4,09,0.7,36.687,M,-12.681,M,1.0,0000*56
$GPGGA,033850.00,3030.67469622,N,11424.15923451,E,4,09,0.7,36.694,M,-12.681,M,2.0,0000*5B
$GPGGA,033851.00,3030.67469632,N,11424.15923434,E,4,09,0.7,36.690,M,-12.681,M,2.0,0000*5C
$GPGGA,033852.00,3030.67469822,N,11424.15923182,E,4,09,0.7,36.676,M,-12.681,M,2.0,0000*50
$GPGGA,033853.00,3030.67469803,N,11424.15923290,E,4,09,0.7,36.686,M,-12.681,M,1.0,0000*5E
$GPGGA,033854.00,3030.67469808,N,11424.15923186,E,4,09,0.7,36.682,M,-12.681,M,2.0,0000*51
$GPGGA,033855.00,3030.67469556,N,11424.15923427,E,4,09,0.7,36.688,M,-12.681,M,2.0,0000*52
$GPGGA,033856.00,3030.67469631,N,11424.15923438,E,4,09,0.7,36.689,M,-12.681,M,1.0,0000*5F
$GPGGA,033857.00,3030.67469779,N,11424.15923448,E,4,09,0.7,36.682,M,-12.681,M,1.0,0000*5F
$GPGGA,033858.00,3030.67469706,N,11424.15923527,E,4,09,0.7,36.693,M,-12.681,M,1.0,0000*50
$GPGGA,033859.00,3030.67469786,N,11424.15923489,E,4,09,0.7,36.691,M,-12.681,M,2.0,0000*5D
$GPGGA,033900.00,3030.67469669,N,11424.15923528,E,4,09,0.7,36.691,M,-12.681,M,2.0,0000*5A
$GPGGA,033901.00,3030.67469575,N,11424.15923346,E,4,09,0.7,36.682,M,-12.681,M,2.0,0000*59
$GPGGA,033902.00,3030.67469558,N,11424.15923489,E,4,09,0.7,36.688,M,-12.681,M,2.0,0000*5B
$GPGGA,033903.00,3030.67469578,N,11424.15923539,E,4,09,0.7,36.684,M,-12.681,M,2.0,0000*5E
$GPGGA,033904.00,3030.67469602,N,11424.15923336,E,4,09,0.7,36.687,M,-12.681,M,2.0,0000*5D
$GPGGA,033905.00,3030.67469695,N,11424.15923451,E,4,09,0.7,36.681,M,-12.681,M,1.0,0000*51
$GPGGA,033906.00,3030.67469722,N,11424.15923257,E,4,09,0.7,36.672,M,-12.681,M,1.0,0000*53
$GPGGA,033907.00,3030.67469728,N,11424.15923369,E,4,09,0.7,36.674,M,-12.681,M,1.0,0000*52
$GPGGA,033908.00,3030.67469757,N,11424.15923482,E,4,09,0.7,36.672,M,-12.681,M,2.0,0000*52
$GPGGA,033909.00,3030.67469742,N,11424.15923136,E,4,09,0.7,36.675,M,-12.681,M,2.0,0000*5A
$GPGGA,033910.00,3030.67469714,N,11424.15923194,E,4,09,0.7,36.685,M,-12.681,M,2.0,0000*56
$GPGGA,033911.00,3030.67469600,N,11424.15923431,E,4,09,0.7,36.684,M,-12.681,M,1.0,0000*5B
$GPGGA,033912.00,3030.67469665,N,11424.15923390,E,4,09,0.7,36.675,M,-12.681,M,2.0,0000*5A
$GPGGA,033913.00,3030.67469628,N,11424.15923396,E,4,09,0.7,36.681,M,-12.681,M,2.0,0000*5F
$GPGGA,033914.00,3030.67469639,N,11424.15923208,E,4,09,0.7,36.678,M,-12.681,M,2.0,0000*58
$GPGGA,033915.00,3030.67469491,N,11424.15923268,E,4,09,0.7,36.684,M,-12.681,M,2.0,0000*5C
$GPGGA,033916.00,3030.67469602,N,11424.15923193,E,4,09,0.7,36.679,M,-12.681,M,1.0,0000*51
$GPGGA,033917.00,3030.67469662,N,11424.15923164,E,4,09,0.7,36.680,M,-12.681,M,2.0,0000*5B
$GPGGA,033918.00,3030.67469603,N,11424.15922969,E,4,09,0.7,36.677,M,-12.681,M,1.0,0000*5C
$GPGGA,033919.00,3030.67469637,N,11424.15923389,E,4,09,0.7,36.680,M,-12.681,M,1.0,0000*57
$GPGGA,033920.00,3030.67469629,N,11424.15923335,E,4,09,0.7,36.681,M,-12.681,M,2.0,0000*57
$GPGGA,033921.00,3030.67469690,N,11424.15923184,E,4,09,0.7,36.674,M,-12.681,M,1.0,0000*55
$GPGGA,033922.00,3030.67469762,N,11424.15923302,E,4,10,0.7,36.677,M,-12.681,M,1.0,0000*5D
$GPGGA,033923.00,3030.67469851,N,11424.15923113,E,4,10,0.7,36.656,M,-12.681,M,1.0,0000*52
$GPGGA,033924.00,3030.67469748,N,11424.15923256,E,4,10,0.7,36.667,M,-12.681,M,2.0,0000*51
$GPGGA,033925.00,3030.67469776,N,11424.15923224,E,4,10,0.7,36.672,M,-12.681,M,2.0,0000*5C
$GPGGA,033926.00,3030.67469835,N,11424.15923193,E,4,10,0.7,36.672,M,-12.681,M,2.0,0000*58
$GPGGA,033927.00,3030.67469894,N,11424.15923346,E,4,10,0.7,36.670,M,-12.681,M,2.0,0000*5A
$GPGGA,033928.00,3030.67469390,N,11424.15923495,E,4,10,0.7,36.687,M,-12.681,M,1.0,0000*58
$GPGGA,033929.00,3030.67469723,N,11424.15923221,E,4,10,0.7,36.683,M,-12.681,M,1.0,0000*58
$GPGGA,033930.00,3030.67469768,N,11424.15923179,E,4,10,0.7,36.688,M,-12.681,M,2.0,0000*59
$GPGGA,033931.00,3030.67469750,N,11424.15923419,E,4,10,0.7,36.675,M,-12.681,M,1.0,0000*51
$GPGGA,033932.00,3030.67469755,N,11424.15923274,E,4,10,0.7,36.675,M,-12.681,M,2.0,0000*59
$GPGGA,033933.00,3030.67469742,N,11424.15923080,E,4,10,0.7,36.672,M,-12.681,M,2.0,0000*50
$GPGGA,033934.00,3030.67469554,N,11424.15923228,E,4,10,0.7,36.680,M,-12.681,M,2.0,0000*5F
$GPGGA,033935.00,3030.67469583,N,11424.15923365,E,4,10,0.7,36.684,M,-12.681,M,1.0,0000*5B
$GPGGA,033936.00,3030.67469547,N,11424.15923148,E,4,10,0.7,36.687,M,-12.681,M,2.0,0000*5D
$GPGGA,033937.00,3030.67469409,N,11424.15923145,E,4,10,0.7,36.686,M,-12.681,M,2.0,0000*5B
$GPGGA,033938.00,3030.67469468,N,11424.15923117,E,4,10,0.7,36.698,M,-12.681,M,2.0,0000*5B
$GPGGA,033939.00,3030.67469350,N,11424.15923320,E,4,10,0.7,36.707,M,-12.681,M,1.0,0000*54
$GPGGA,033940.00,3030.67469422,N,11424.15923113,E,4,10,0.7,36.698,M,-12.681,M,1.0,0000*5D
$GPGGA,033941.00,3030.67469428,N,11424.15923165,E,4,10,0.7,36.695,M,-12.681,M,2.0,0000*59
$GPGGA,033942.00,3030.67469405,N,11424.15923224,E,4,10,0.7,36.693,M,-12.681,M,2.0,0000*55
$GPGGA,033943.00,3030.67469309,N,11424.15923280,E,4,10,0.7,36.702,M,-12.681,M,2.0,0000*58
$GPGGA,033944.00,3030.67469684,N,11424.15922967,E,4,10,0.7,36.684,M,-12.681,M,1.0,0000*50
$GPGGA,033945.00,3030.67469521,N,11424.15922959,E,4,10,0.7,36.678,M,-12.681,M,2.0,0000*50
$GPGGA,033946.00,3030.67469279,N,11424.15923030,E,4,10,0.7,36.690,M,-12.681,M,1.0,0000*5B
$GPGGA,033947.00,3030.67469428,N,11424.15923042,E,4,10,0.7,36.695,M,-12.681,M,1.0,0000*58
$GPGGA,033948.00,3030.67469266,N,11424.15923435,E,4,10,0.7,36.694,M,-12.681,M,1.0,0000*5E
$GPGGA,033949.00,3030.67469402,N,11424.15923121,E,4,10,0.7,36.697,M,-12.681,M,1.0,0000*58
$GPGGA,033950.00,3030.67469345,N,11424.15923017,E,4,10,0.7,36.700,M,-12.681,M,2.0,0000*5C
$GPGGA,033951.00,3030.67469333,N,11424.15923225,E,4,10,0.7,36.700,M,-12.681,M,2.0,0000*5F
$GPGGA,033952.00,3030.67469329,N,11424.15923222,E,4,10,0.7,36.689,M,-12.681,M,2.0,0000*50
$GPGGA,033953.00,3030.67469286,N,11424.15922990,E,4,10,0.7,36.703,M,-12.681,M,2.0,0000*55
$GPGGA,033954.00,3030.67469503,N,11424.15923097,E,4,10,0.7,36.687,M,-12.681,M,2.0,0000*5A
$GPGGA,033955.00,3030.67469380,N,11424.15923069,E,4,10,0.7,36.699,M,-12.681,M,2.0,0000*58
$GPGGA,033956.00,3030.67469213,N,11424.15923101,E,4,10,0.7,36.711,M,-12.681,M,2.0,0000*5E
$GPGGA,033957.00,3030.67469320,N,11424.15923262,E,4,10,0.7,36.705,M,-12.681,M,1.0,0000*5E
$GPGGA,033958.00,3030.67469228,N,11424.15923216,E,4,10,0.7,36.703,M,-12.681,M,1.0,0000*5D
$GPGGA,033959.00,3030.67469280,N,11424.15923291,E,4,10,0.7,36.697,M,-12.681,M,1.0,0000*5D
$GPGGA,034000.00,3030.67469102,N,11424.15923252,E,4,10,0.7,36.706,M,-12.681,M,2.0,0000*53
$GPGGA,034001.00,3030.67469417,N,11424.15923171,E,4,10,0.7,36.698,M,-12.681,M,1.0,0000*54
$GPGGA,034002.00,3030.67469317,N,11424.15923111,E,4,10,0.7,36.698,M,-12.681,M,2.0,0000*55
$GPGGA,034003.00,3030.67469169,N,11424.15923160,E,4,10,0.7,36.716,M,-12.681,M,2.0,0000*5E
$GPGGA,034004.00,3030.67468859,N,11424.15923413,E,4,10,0.7,36.719,M,-12.681,M,2.0,0000*5C
$GPGGA,034005.00,3030.67469117,N,11424.15923219,E,4,10,0.7,36.715,M,-12.681,M,1.0,0000*5C
$GPGGA,034006.00,3030.67469249,N,11424.15923266,E,4,10,0.7,36.701,M,-12.681,M,1.0,0000*5A
$GPGGA,034007.00,3030.67469186,N,11424.15923287,E,4,10,0.7,36.708,M,-12.681,M,2.0,0000*5E
$GPGGA,034008.00,3030.67469046,N,11424.15923313,E,4,10,0.7,36.707,M,-12.681,M,2.0,0000*5F
$GPGGA,034009.00,3030.67469094,N,11424.15923222,E,4,10,0.7,36.700,M,-12.681,M,2.0,0000*55
$GPGGA,034010.00,3030.67469104,N,11424.15923490,E,4,10,0.7,36.703,M,-12.681,M,2.0,0000*59
$GPGGA,034011.00,3030.67469379,N,11424.15923452,E,4,10,0.7,36.693,M,-12.681,M,2.0,0000*56
$GPGGA,034012.00,3030.67469204,N,11424.15923346,E,4,10,0.7,36.706,M,-12.681,M,2.0,0000*51
$GPGGA,034013.00,3030.67469140,N,11424.15923123,E,4,10,0.7,36.705,M,-12.681,M,2.0,0000*51
$GPGGA,034014.00,3030.67469235,N,11424.15923276,E,4,10,0.7,36.691,M,-12.681,M,1.0,0000*5B
$GPGGA,034015.00,3030.67469050,N,11424.15923535,E,4,10,0.7,36.710,M,-12.681,M,2.0,0000*50
$GPGGA,034016.00,3030.67468682,N,11424.15923912,E,4,10,0.7,36.730,M,-12.681,M,1.0,0000*53
$GPGGA,034017.00,3030.67469154,N,11424.15923132,E,4,10,0.7,36.713,M,-12.681,M,1.0,0000*54
$GPGGA,034018.00,3030.67468910,N,11424.15923365,E,4,10,0.7,36.719,M,-12.681,M,1.0,0000*58
$GPGGA,034019.00,3030.67468976,N,11424.15923287,E,4,10,0.7,36.721,M,-12.681,M,1.0,0000*5F
$GPGGA,034020.00,3030.67468994,N,11424.15923346,E,4,10,0.7,36.719,M,-12.681,M,2.0,0000*5D
$GPGGA,034021.00,3030.67468750,N,11424.15923480,E,4,10,0.7,36.728,M,-12.681,M,1.0,0000*56
$GPGGA,034022.00,3030.67468701,N,11424.15923419,E,4,10,0.7,36.729,M,-12.681,M,2.0,0000*53
$GPGGA,034023.00,3030.67468926,N,11424.15923245,E,4,10,0.7,36.729,M,-12.681,M,2.0,0000*56
$GPGGA,034024.00,3030.67468946,N,11424.15923441,E,4,09,0.7,36.720,M,-12.681,M,2.0,0000*54
$GPGGA,034025.00,3030.67468991,N,11424.15923407,E,4,10,0.7,36.716,M,-12.681,M,1.0,0000*53
$GPGGA,034026.00,3030.67468912,N,11424.15923571,E,4,10,0.7,36.711,M,-12.681,M,2.0,0000*5F
$GPGGA,034027.00,3030.67468765,N,11424.15923370,E,4,10,0.7,36.729,M,-12.681,M,1.0,0000*5F
$GPGGA,034028.00,3030.67468919,N,11424.15923324,E,4,10,0.7,36.720,M,-12.681,M,1.0,0000*5D
$GPGGA,034029.00,3030.67468935,N,11424.15923416,E,4,10,0.7,36.716,M,-12.681,M,1.0,0000*51
$GPGGA,034030.00,3030.67468833,N,11424.15923411,E,4,10,0.7,36.714,M,-12.681,M,1.0,0000*5B
$GPGGA,034031.00,3030.67468713,N,11424.15923533,E,4,10,0.7,36.720,M,-12.681,M,1.0,0000*51
$GPGGA,034032.00,3030.67468590,N,11424.15923630,E,4,10,0.7,36.727,M,-12.681,M,1.0,0000*5C
$GPGGA,034033.00,3030.67468623,N,11424.15923578,E,4,10,0.7,36.730,M,-12.681,M,2.0,0000*5C
$GPGGA,034034.00,3030.67468724,N,11424.15923474,E,4,10,0.7,36.733,M,-12.681,M,1.0,0000*50
$GPGGA,034035.00,3030.67468679,N,11424.15923567,E,4,10,0.7,36.714,M,-12.681,M,1.0,0000*5E
$GPGGA,034036.00,3030.67468775,N,11424.15923531,E,4,10,0.7,36.710,M,-12.681,M,2.0,0000*54
$GPGGA,034037.00,3030.67468736,N,11424.15923546,E,4,10,0.7,36.721,M,-12.681,M,1.0,0000*53
$GPGGA,034038.00,3030.67468812,N,11424.15923360,E,4,10,0.7,36.728,M,-12.681,M,2.0,0000*5D
$GPGGA,034039.00,3030.67468711,N,11424.15923349,E,4,10,0.7,36.722,M,-12.681,M,2.0,0000*51
$GPGGA,034040.00,3030.67468739,N,11424.15923350,E,4,10,0.7,36.717,M,-12.681,M,3.0,0000*5A
$GPGGA,034041.00,3030.67468646,N,11424.15923349,E,4,10,0.7,36.721,M,-12.681,M,3.0,0000*5F
$GPGGA,034042.00,3030.67468723,N,11424.15923505,E,4,10,0.7,36.719,M,-12.681,M,2.0,0000*5A
$GPGGA,034043.00,3030.67468840,N,11424.15923349,E,4,10,0.7,36.709,M,-12.681,M,2.0,0000*5E
$GPGGA,034044.00,3030.67468772,N,11424.15923361,E,4,10,0.7,36.732,M,-12.681,M,2.0,0000*55
$GPGGA,034045.00,3030.67468805,N,11424.15923450,E,4,10,0.7,36.725,M,-12.681,M,1.0,0000*5B
$GPGGA,034046.00,3030.67468883,N,11424.15923496,E,4,10,0.7,36.723,M,-12.681,M,2.0,0000*59
$GPGGA,034047.00,3030.67468793,N,11424.15923451,E,4,09,0.7,36.724,M,-12.681,M,1.0,0000*51
$GPGGA,034048.00,3030.67469078,N,11424.15923356,E,4,09,0.7,36.695,M,-12.681,M,1.0,0000*56
$GPGGA,034049.00,3030.67468832,N,11424.15923483,E,4,09,0.7,36.701,M,-12.681,M,1.0,0000*53
$GPGGA,034050.00,3030.67468777,N,11424.15923516,E,4,09,0.7,36.703,M,-12.681,M,2.0,0000*59
$GPGGA,034051.00,3030.67469114,N,11424.15923252,E,4,09,0.7,36.692,M,-12.681,M,1.0,0000*57
$GPGGA,034052.00,3030.67469078,N,11424.15923270,E,4,09,0.7,36.692,M,-12.681,M,1.0,0000*5F
$GPGGA,034053.00,3030.67469230,N,11424.15923351,E,4,09,0.7,36.686,M,-12.681,M,2.0,0000*54
$GPGGA,034054.00,3030.67469328,N,11424.15923066,E,4,09,0.7,36.691,M,-12.681,M,2.0,0000*5A
$GPGGA,034055.00,3030.67468950,N,11424.15923279,E,4,09,0.7,36.701,M,-12.681,M,2.0,0000*5B
$GPGGA,034056.00,3030.67469091,N,11424.15923295,E,4,09,0.7,36.692,M,-12.681,M,1.0,0000*57
$GPGGA,034057.00,3030.67468989,N,11424.15923049,E,4,09,0.7,36.705,M,-12.681,M,1.0,0000*5B
$GPGGA,034058.00,3030.67468970,N,11424.15923209,E,4,09,0.7,36.703,M,-12.681,M,2.0,0000*51
$GPGGA,034059.00,3030.67469114,N,11424.15923006,E,4,10,0.7,36.688,M,-12.681,M,2.0,0000*5C
$GPGGA,034100.00,3030.67469202,N,11424.15923002,E,4,10,0.7,36.690,M,-12.681,M,1.0,0000*5B
$GPGGA,034101.00,3030.67469271,N,11424.15923127,E,4,10,0.7,36.684,M,-12.681,M,1.0,0000*5D
$GPGGA,034102.00,3030.67469226,N,11424.15923089,E,4,10,0.7,36.690,M,-12.681,M,2.0,0000*5F
$GPGGA,034103.00,3030.67469041,N,11424.15923002,E,4,10,0.7,36.699,M,-12.681,M,2.0,0000*57
$GPGGA,034104.00,3030.67468910,N,11424.15922919,E,4,10,0.7,36.702,M,-12.681,M,2.0,0000*5D
$GPGGA,034105.00,3030.67469100,N,11424.15923031,E,4,10,0.7,36.704,M,-12.681,M,1.0,0000*53
$GPGGA,034106.00,3030.67469109,N,11424.15922866,E,4,10,0.7,36.702,M,-12.681,M,2.0,0000*57
$GPGGA,034107.00,3030.67469047,N,11424.15922978,E,4,10,0.7,36.698,M,-12.681,M,1.0,0000*52
$GPGGA,034108.00,3030.67469034,N,11424.15922953,E,4,10,0.7,36.694,M,-12.681,M,2.0,0000*5F
$GPGGA,034109.00,3030.67468868,N,11424.15923022,E,4,10,0.7,36.697,M,-12.681,M,2.0,0000*53
$GPGGA,034110.00,3030.67468910,N,11424.15923161,E,4,10,0.7,36.699,M,-12.681,M,1.0,0000*5E
$GPGGA,034111.00,3030.67468866,N,11424.15923169,E,4,10,0.7,36.698,M,-12.681,M,2.0,0000*55
$GPGGA,034112.00,3030.67469020,N,11424.15922873,E,4,10,0.7,36.694,M,-12.681,M,2.0,0000*52
$GPGGA,034113.00,3030.67469051,N,11424.15923027,E,4,10,0.7,36.692,M,-12.681,M,2.0,0000*5B
$GPGGA,034114.00,3030.67469066,N,11424.15922993,E,4,10,0.7,36.702,M,-12.681,M,1.0,0000*54
$GPGGA,034115.00,3030.67469166,N,11424.15922981,E,4,10,0.7,36.696,M,-12.681,M,2.0,0000*58
$GPGGA,034116.00,3030.67468867,N,11424.15923117,E,4,10,0.7,36.695,M,-12.681,M,2.0,0000*57
$GPGGA,034117.00,3030.67469193,N,11424.15922985,E,4,10,0.7,36.688,M,-12.681,M,1.0,0000*58
$GPGGA,034118.00,3030.67469207,N,11424.15922888,E,4,10,0.7,36.694,M,-12.681,M,1.0,0000*58
$GPGGA,034119.00,3030.67468964,N,11424.15923019,E,4,10,0.7,36.694,M,-12.681,M,1.0,0000*57
$GPGGA,034120.00,3030.67469085,N,11424.15923025,E,4,10,0.7,36.692,M,-12.681,M,2.0,0000*50
$GPGGA,034121.00,3030.67468992,N,11424.15923062,E,4,10,0.7,36.695,M,-12.681,M,1.0,0000*58
$GPGGA,034122.00,3030.67468800,N,11424.15923226,E,4,10,0.7,36.706,M,-12.681,M,1.0,0000*58
$GPGGA,034123.00,3030.67468789,N,11424.15923088,E,4,10,0.7,36.713,M,-12.681,M,2.0,0000*56
$GPGGA,034124.00,3030.67468956,N,11424.15922855,E,4,10,0.7,36.704,M,-12.681,M,2.0,0000*52
$GPGGA,034125.00,3030.67469112,N,11424.15922956,E,4,10,0.7,36.704,M,-12.681,M,2.0,0000*58
$GPGGA,034126.00,3030.67468881,N,11424.15922911,E,4,10,0.7,36.706,M,-12.681,M,1.0,0000*5B
$GPGGA,034127.00,3030.67468965,N,11424.15922849,E,4,10,0.7,36.699,M,-12.681,M,2.0,0000*59
$GPGGA,034128.00,3030.67468978,N,11424.15923070,E,4,10,0.7,36.706,M,-12.681,M,1.0,0000*5D
$GPGGA,034129.00,3030.67469019,N,11424.15922995,E,4,10,0.7,36.711,M,-12.681,M,2.0,0000*55
$GPGGA,034130.00,3030.67468956,N,11424.15923014,E,4,10,0.7,36.708,M,-12.681,M,2.0,0000*57
$GPGGA,034131.00,3030.67469194,N,11424.15922954,E,4,10,0.7,36.708,M,-12.681,M,1.0,0000*5E
$GPGGA,034132.00,3030.67468916,N,11424.15923307,E,4,10,0.7,36.703,M,-12.681,M,1.0,0000*58
$GPGGA,034133.00,3030.67468948,N,11424.15922901,E,4,10,0.7,36.701,M,-12.681,M,1.0,0000*5D
$GPGGA,034134.00,3030.67468947,N,11424.15922960,E,4,10,0.7,36.703,M,-12.681,M,2.0,0000*53
$GPGGA,034135.00,3030.67469152,N,11424.15923036,E,4,10,0.7,36.704,M,-12.681,M,1.0,0000*50
$GPGGA,034136.00,3030.67468899,N,11424.15923077,E,4,10,0.7,36.713,M,-12.681,M,1.0,0000*5F
$GPGGA,034137.00,3030.67468914,N,11424.15923010,E,4,10,0.7,36.716,M,-12.681,M,2.0,0000*5D
$GPGGA,034138.00,3030.67468908,N,11424.15923109,E,4,10,0.7,36.717,M,-12.681,M,1.0,0000*54
$GPGGA,034139.00,3030.67468902,N,11424.15923026,E,4,10,0.7,36.715,M,-12.681,M,2.0,0000*52
$GPGGA,034140.00,3030.67468597,N,11424.15922861,E,4,10,0.7,36.736,M,-12.681,M,1.0,0000*54
$GPGGA,034141.00,3030.67468605,N,11424.15922790,E,4,10,0.7,36.725,M,-12.681,M,2.0,0000*5D
$GPGGA,034142.00,3030.67468642,N,11424.15923153,E,4,10,0.7,36.721,M,-12.681,M,2.0,0000*51
$GPGGA,034143.00,3030.67468623,N,11424.15923172,E,4,10,0.7,36.723,M,-12.681,M,3.0,0000*57
