$GPGGA,023517.00,3030.67339537,N,11424.14946858,E,4,16,1.2,37.143,M,-12.681,M,1.0,0000*53
$GPGGA,023518.00,3030.67339559,N,11424.14946627,E,4,16,1.2,37.134,M,-12.681,M,1.0,0000*52
$GPGGA,023519.00,3030.67340830,N,11424.14946909,E,4,16,1.2,37.133,M,-12.681,M,1.0,0000*5B
$GPGGA,023520.00,3030.67339221,N,11424.14946945,E,4,16,1.2,37.147,M,-12.681,M,1.0,0000*5E
$GPGGA,023521.00,3030.67339936,N,11424.14946831,E,4,16,1.2,37.141,M,-12.681,M,1.0,0000*56
$GPGGA,023522.00,3030.67340360,N,11424.14946868,E,4,16,1.2,37.142,M,-12.681,M,1.0,0000*5D
$GPGGA,023523.00,3030.67340016,N,11424.14947050,E,4,16,1.2,37.137,M,-12.681,M,1.0,0000*5E
$GPGGA,023524.00,3030.67339859,N,11424.14946795,E,4,16,1.2,37.141,M,-12.681,M,1.0,0000*5A
$GPGGA,023525.00,3030.67339737,N,11424.14946768,E,4,15,1.2,37.152,M,-12.681,M,1.0,0000*5F
$GPGGA,023526.00,3030.67339699,N,11424.14946850,E,4,16,1.2,37.145,M,-12.681,M,1.0,0000*58
$GPGGA,023527.00,3030.67340391,N,11424.14946731,E,4,16,1.2,37.121,M,-12.681,M,1.0,0000*50
$GPGGA,023528.00,3030.67339418,N,11424.14946804,E,4,16,1.2,37.146,M,-12.681,M,1.0,0000*5F
$GPGGA,023529.00,3030.67340179,N,11424.14946865,E,4,16,1.2,37.147,M,-12.681,M,1.0,0000*54
$GPGGA,023530.00,3030.67340147,N,11424.14946965,E,4,16,1.2,37.139,M,-12.681,M,1.0,0000*59
$GPGGA,023531.00,3030.67340446,N,11424.14946843,E,4,16,1.2,37.129,M,-12.681,M,1.0,0000*58
$GPGGA,023532.00,3030.67340135,N,11424.14946842,E,4,16,1.2,37.140,M,-12.681,M,1.0,0000*54
$GPGGA,023533.00,3030.67340041,N,11424.14947238,E,4,16,1.2,37.146,M,-12.681,M,1.0,0000*57
$GPGGA,023534.00,3030.67339457,N,11424.14946999,E,4,15,1.2,37.149,M,-12.681,M,1.0,0000*50
$GPGGA,023535.00,3030.67340881,N,11424.14946876,E,4,15,1.2,37.126,M,-12.681,M,1.0,0000*51
$GPGGA,023536.00,3030.67340002,N,11424.14947123,E,4,15,1.2,37.145,M,-12.681,M,1.0,0000*5C
$GPGGA,023537.00,3030.67340233,N,11424.14946810,E,4,15,1.2,37.130,M,-12.681,M,1.0,0000*57
$GPGGA,023538.00,3030.67340076,N,11424.14946939,E,4,15,1.2,37.148,M,-12.681,M,1.0,0000*5E
$GPGGA,023539.00,3030.67339840,N,11424.14947297,E,4,15,1.2,37.142,M,-12.681,M,1.0,0000*58
$GPGGA,023540.00,3030.67339627,N,11424.14947022,E,4,15,1.2,37.153,M,-12.681,M,1.0,0000*55
$GPGGA,023541.00,3030.67339947,N,11424.14947013,E,4,15,1.2,37.137,M,-12.681,M,1.0,0000*5D
$GPGGA,023542.00,3030.67340098,N,11424.14947211,E,4,15,1.2,37.137,M,-12.681,M,1.0,0000*5B
$GPGGA,023543.00,3030.67340269,N,11424.14947199,E,4,15,1.2,37.141,M,-12.681,M,1.0,0000*54
$GPGGA,023544.00,3030.67340242,N,11424.14947124,E,4,15,1.2,37.139,M,-12.681,M,1.0,0000*53
$GPGGA,023545.00,3030.67340024,N,11424.14947220,E,4,15,1.2,37.127,M,-12.681,M,1.0,0000*58
$GPGGA,023546.00,3030.67340495,N,11424.14947191,E,4,15,1.0,37.147,M,-12.681,M,1.0,0000*58
$GPGGA,023547.00,3030.67339622,N,11424.14947207,E,4,16,1.0,37.146,M,-12.681,M,1.0,0000*57
$GPGGA,023548.00,3030.67340377,N,11424.14947089,E,4,16,1.0,37.144,M,-12.681,M,1.0,0000*55
$GPGGA,023549.00,3030.67340244,N,11424.14947189,E,4,16,1.0,37.139,M,-12.681,M,1.0,0000*5E
$GPGGA,023550.00,3030.67340680,N,11424.14947150,E,4,15,1.0,37.138,M,-12.681,M,1.0,0000*5C
$GPGGA,023551.00,3030.67340171,N,11424.14947238,E,4,16,1.0,37.144,M,-12.681,M,1.0,0000*51
$GPGGA,023552.00,3030.67339855,N,11424.14947127,E,4,16,1.0,37.141,M,-12.681,M,1.0,0000*5B
$GPGGA,023553.00,3030.67340248,N,11424.14947212,E,4,16,1.0,37.137,M,-12.681,M,1.0,0000*56
$GPGGA,023554.00,3030.67340132,N,11424.14947325,E,4,16,1.0,37.142,M,-12.681,M,1.0,0000*58
$GPGGA,023555.00,3030.67340527,N,11424.14947275,E,4,16,1.0,37.131,M,-12.681,M,1.0,0000*59
$GPGGA,023556.00,3030.67339974,N,11424.14947101,E,4,16,1.0,37.150,M,-12.681,M,1.0,0000*59
$GPGGA,023557.00,3030.67339945,N,11424.14947100,E,4,16,1.0,37.150,M,-12.681,M,2.0,0000*58
$GPGGA,023558.00,3030.67339523,N,11424.14947372,E,4,15,1.0,37.150,M,-12.681,M,1.0,0000*5C
$GPGGA,023559.00,3030.67340107,N,11424.14947209,E,4,15,1.0,37.151,M,-12.681,M,1.0,0000*5D
$GPGGA,023600.00,3030.67339631,N,11424.14947354,E,4,15,1.0,37.142,M,-12.681,M,1.0,0000*55
$GPGGA,023601.00,3030.67339537,N,11424.14947300,E,4,15,1.0,37.150,M,-12.681,M,1.0,0000*53
$GPGGA,023602.00,3030.67340057,N,11424.14947214,E,4,15,1.0,37.143,M,-12.681,M,1.0,0000*5B
$GPGGA,023603.00,3030.67340152,N,11424.14947274,E,4,15,1.0,37.144,M,-12.681,M,1.0,0000*5F
$GPGGA,023604.00,3030.67339463,N,11424.14947395,E,4,14,1.0,37.141,M,-12.681,M,1.0,0000*5B
$GPGGA,023605.00,3030.67339461,N,11424.14947181,E,4,14,1.0,37.150,M,-12.681,M,1.0,0000*5F
$GPGGA,023606.00,3030.67339671,N,11424.14947062,E,4,15,1.0,37.145,M,-12.681,M,2.0,0000*55
$GPGGA,023607.00,3030.67339465,N,11424.14947229,E,4,15,1.0,37.151,M,-12.681,M,2.0,0000*5B
$GPGGA,023608.00,3030.67339320,N,11424.14947125,E,4,14,1.0,37.154,M,-12.681,M,3.0,0000*58
$GPGGA,023609.00,3030.67339700,N,11424.14947141,E,4,15,1.0,37.158,M,-12.681,M,2.0,0000*51
$GPGGA,023610.00,3030.67339970,N,11424.14947348,E,4,14,1.0,37.139,M,-12.681,M,1.0,0000*5E
$GPGGA,023611.00,3030.67339278,N,11424.14947490,E,4,15,1.0,37.157,M,-12.681,M,1.0,0000*57
$GPGGA,023612.00,3030.67339397,N,11424.14947395,E,4,15,0.9,37.143,M,-12.681,M,1.0,0000*5B
$GPGGA,023613.00,3030.67339744,N,11424.14947408,E,4,15,0.9,37.159,M,-12.681,M,1.0,0000*58
$GPGGA,023614.00,3030.67339625,N,11424.14947366,E,4,15,0.9,37.151,M,-12.681,M,1.0,0000*5E
$GPGGA,023615.00,3030.67339842,N,11424.14947342,E,4,15,0.9,37.140,M,-12.681,M,1.0,0000*56
$GPGGA,023616.00,3030.67339228,N,11424.14947474,E,4,15,0.9,37.160,M,-12.681,M,1.0,0000*53
$GPGGA,023617.00,3030.67339271,N,11424.14947422,E,4,15,0.9,37.151,M,-12.681,M,1.0,0000*5F
$GPGGA,023618.00,3030.67339933,N,11424.14947336,E,4,15,0.9,37.147,M,-12.681,M,1.0,0000*58
$GPGGA,023619.00,3030.67339321,N,11424.14947479,E,4,15,0.9,37.152,M,-12.681,M,1.0,0000*58
$GPGGA,023620.00,3030.67338994,N,11424.14947505,E,4,15,0.9,37.146,M,-12.681,M,1.0,0000*58
$GPGGA,023621.00,3030.67338951,N,11424.14947594,E,4,15,0.9,37.164,M,-12.681,M,1.0,0000*58
$GPGGA,023622.00,3030.67339056,N,11424.14947534,E,4,15,0.9,37.162,M,-12.681,M,1.0,0000*58
$GPGGA,023623.00,3030.67339612,N,11424.14947178,E,4,15,0.9,37.147,M,-12.681,M,1.0,0000*54
$GPGGA,023624.00,3030.67339141,N,11424.14947398,E,4,15,0.9,37.155,M,-12.681,M,1.0,0000*5D
$GPGGA,023625.00,3030.67339767,N,11424.14947441,E,4,15,0.9,37.143,M,-12.681,M,1.0,0000*5A
$GPGGA,023626.00,3030.67339119,N,11424.14947516,E,4,15,0.9,37.154,M,-12.681,M,1.0,0000*53
$GPGGA,023627.00,3030.67339114,N,11424.14947350,E,4,15,0.9,37.162,M,-12.681,M,1.0,0000*5E
$GPGGA,023628.00,3030.67339822,N,11424.14947259,E,4,15,0.9,37.144,M,-12.681,M,1.0,0000*51
$GPGGA,023629.00,3030.67339413,N,11424.14947337,E,4,15,0.9,37.155,M,-12.681,M,1.0,0000*57
$GPGGA,023630.00,3030.67338878,N,11424.14947410,E,4,15,0.9,37.161,M,-12.681,M,1.0,0000*5A
$GPGGA,023631.00,3030.67339773,N,11424.14947516,E,4,14,0.9,37.158,M,-12.681,M,1.0,0000*52
$GPGGA,023632.00,3030.67339241,N,11424.14947461,E,4,15,0.9,37.159,M,-12.681,M,1.0,0000*54
$GPGGA,023633.00,3030.67339532,N,11424.14947567,E,4,15,0.9,37.159,M,-12.681,M,1.0,0000*51
$GPGGA,023634.00,3030.67339501,N,11424.14947202,E,4,14,0.9,37.152,M,-12.681,M,1.0,0000*58
$GPGGA,023635.00,3030.67339372,N,11424.14947236,E,4,15,0.9,37.152,M,-12.681,M,1.0,0000*5D
$GPGGA,023636.00,3030.67339608,N,11424.14947658,E,4,15,0.9,37.158,M,-12.681,M,1.0,0000*50
$GPGGA,023637.00,3030.67339681,N,11424.14947289,E,4,15,0.9,37.147,M,-12.681,M,1.0,0000*56
$GPGGA,023638.00,3030.67339284,N,11424.14947347,E,4,15,0.9,37.155,M,-12.681,M,1.0,0000*58
$GPGGA,023639.00,3030.67339376,N,11424.14947388,E,4,15,0.9,37.166,M,-12.681,M,1.0,0000*56
$GPGGA,023640.00,3030.67339705,N,11424.14947493,E,4,15,0.9,37.163,M,-12.681,M,1.0,0000*50
$GPGGA,023641.00,3030.67340017,N,11424.14947361,E,4,15,0.9,37.149,M,-12.681,M,1.0,0000*59
$GPGGA,023642.00,3030.67339321,N,11424.14947899,E,4,15,0.9,37.162,M,-12.681,M,1.0,0000*57
$GPGGA,023643.00,3030.67339791,N,11424.14947496,E,4,15,0.9,37.164,M,-12.681,M,1.0,0000*5C
$GPGGA,023644.00,3030.67339777,N,11424.14947576,E,4,15,0.9,37.164,M,-12.681,M,1.0,0000*5C
$GPGGA,023645.00,3030.67340148,N,11424.14947547,E,4,14,0.9,37.141,M,-12.681,M,1.0,0000*5D
$GPGGA,023646.00,3030.67339977,N,11424.14947607,E,4,15,0.9,37.159,M,-12.681,M,1.0,0000*5B
$GPGGA,023647.00,3030.67340250,N,11424.14947494,E,4,15,0.9,37.162,M,-12.681,M,1.0,0000*5A
$GPGGA,023648.00,3030.67339544,N,11424.14947453,E,4,15,0.9,37.162,M,-12.681,M,1.0,0000*52
$GPGGA,023649.00,3030.67339595,N,11424.14947567,E,4,15,0.9,37.157,M,-12.681,M,1.0,0000*5F
$GPGGA,023650.00,3030.67339574,N,11424.14947536,E,4,15,0.9,37.161,M,-12.681,M,1.0,0000*59
$GPGGA,023651.00,3030.67339799,N,11424.14947570,E,4,15,0.9,37.156,M,-12.681,M,1.0,0000*5F
$GPGGA,023652.00,3030.67339003,N,11424.14947619,E,4,15,0.9,37.169,M,-12.681,M,1.0,0000*58
$GPGGA,023653.00,3030.67339300,N,11424.14947588,E,4,15,0.9,37.152,M,-12.681,M,1.0,0000*5A
$GPGGA,023654.00,3030.67340108,N,11424.14947329,E,4,15,0.9,37.149,M,-12.681,M,1.0,0000*5E
$GPGGA,023655.00,3030.67339848,N,11424.14947609,E,4,15,0.9,37.163,M,-12.681,M,1.0,0000*53
$GPGGA,023656.00,3030.67339227,N,11424.14947532,E,4,15,0.9,37.159,M,-12.681,M,2.0,0000*52
$GPGGA,023657.00,3030.67339205,N,11424.14947402,E,4,15,0.9,37.163,M,-12.681,M,1.0,0000*5B
$GPGGA,023658.00,3030.67339612,N,11424.14947500,E,4,15,0.9,37.159,M,-12.681,M,1.0,0000*5C
$GPGGA,023659.00,3030.67339170,N,11424.14947556,E,4,15,0.9,37.161,M,-12.681,M,1.0,0000*56
$GPGGA,023700.00,3030.67340053,N,11424.14947390,E,4,15,0.9,37.161,M,-12.681,M,1.0,0000*59
$GPGGA,023701.00,3030.67339785,N,11424.14947750,E,4,15,0.9,37.161,M,-12.681,M,1.0,0000*52
$GPGGA,023702.00,3030.67339247,N,11424.14947427,E,4,15,0.9,37.169,M,-12.681,M,1.0,0000*51
$GPGGA,023703.00,3030.67339943,N,11424.14947483,E,4,15,0.9,37.152,M,-12.681,M,1.0,0000*59
$GPGGA,023704.00,3030.67340181,N,11424.14947542,E,4,15,0.9,37.153,M,-12.681,M,1.0,0000*5B
$GPGGA,023705.00,3030.67338951,N,11424.14947554,E,4,15,1.2,37.174,M,-12.681,M,1.0,0000*58
$GPGGA,023706.00,3030.67339296,N,11424.14947476,E,4,15,1.2,37.167,M,-12.681,M,1.0,0000*59
$GPGGA,023707.00,3030.67339499,N,11424.14947715,E,4,15,1.2,37.166,M,-12.681,M,1.0,0000*56
$GPGGA,023708.00,3030.67339909,N,11424.14947469,E,4,16,1.1,37.162,M,-12.681,M,1.0,0000*51
$GPGGA,023709.00,3030.67339450,N,11424.14947484,E,4,16,1.1,37.168,M,-12.681,M,1.0,0000*58
$GPGGA,023710.00,3030.67339019,N,11424.14947594,E,4,16,1.1,37.173,M,-12.681,M,1.0,0000*53
$GPGGA,023711.00,3030.67339196,N,11424.14947176,E,4,16,1.1,37.163,M,-12.681,M,1.0,0000*5D
$GPGGA,023712.00,3030.67339162,N,11424.14947330,E,4,16,0.8,37.165,M,-12.681,M,1.0,0000*5B
$GPGGA,023713.00,3030.67339402,N,11424.14947470,E,4,16,0.8,37.171,M,-12.681,M,1.0,0000*5F
$GPGGA,023714.00,3030.67339108,N,11424.14947230,E,4,16,1.1,37.176,M,-12.681,M,1.0,0000*5A
$GPGGA,023715.00,3030.67339368,N,11424.14947414,E,4,16,1.1,37.169,M,-12.681,M,1.0,0000*51
$GPGGA,023716.00,3030.67339093,N,11424.14947438,E,4,16,1.1,37.177,M,-12.681,M,1.0,0000*54
$GPGGA,023717.00,3030.67339299,N,11424.14947467,E,4,15,1.1,37.177,M,-12.681,M,1.0,0000*54
$GPGGA,023718.00,3030.67339252,N,11424.14947392,E,4,15,1.1,37.176,M,-12.681,M,1.0,0000*50
$GPGGA,023719.00,3030.67339873,N,11424.14947575,E,4,16,1.1,37.156,M,-12.681,M,1.0,0000*56
$GPGGA,023720.00,3030.67338615,N,11424.14947350,E,4,16,1.1,37.175,M,-12.681,M,1.0,0000*53
$GPGGA,023721.00,3030.67339319,N,11424.14947344,E,4,16,1.1,37.169,M,-12.681,M,1.0,0000*52
$GPGGA,023722.00,3030.67339549,N,11424.14947411,E,4,16,1.1,37.167,M,-12.681,M,1.0,0000*5B
$GPGGA,023723.00,3030.67338933,N,11424.14947583,E,4,16,1.1,37.181,M,-12.681,M,1.0,0000*58
$GPGGA,023724.00,3030.67339310,N,11424.14947420,E,4,16,1.1,37.171,M,-12.681,M,1.0,0000*52
$GPGGA,023725.00,3030.67339582,N,11424.14947405,E,4,16,1.1,37.173,M,-12.681,M,1.0,0000*5B
$GPGGA,023726.00,3030.67338889,N,11424.14947560,E,4,16,1.1,37.185,M,-12.681,M,1.0,0000*54
$GPGGA,023727.00,3030.67338904,N,11424.14947428,E,4,16,1.1,37.171,M,-12.681,M,1.0,0000*57
$GPGGA,023728.00,3030.67338659,N,11424.14947587,E,4,16,1.1,37.181,M,-12.681,M,1.0,0000*54
$GPGGA,023729.00,3030.67338958,N,11424.14947577,E,4,16,1.1,37.171,M,-12.681,M,1.0,0000*5B
$GPGGA,023730.00,3030.67338484,N,11424.14947421,E,4,16,1.1,37.181,M,-12.681,M,1.0,0000*52
$GPGGA,023731.00,3030.67339070,N,11424.14947349,E,4,16,1.1,37.177,M,-12.681,M,1.0,0000*5D
$GPGGA,023732.00,3030.67338812,N,11424.14947517,E,4,16,1.1,37.180,M,-12.681,M,1.0,0000*56
$GPGGA,023733.00,3030.67338751,N,11424.14947445,E,4,16,1.1,37.179,M,-12.681,M,1.0,0000*5F
$GPGGA,023734.00,3030.67338836,N,11424.14947441,E,4,16,1.1,37.177,M,-12.681,M,1.0,0000*5C
$GPGGA,023735.00,3030.67338012,N,11424.14947461,E,4,15,1.1,37.196,M,-12.681,M,1.0,0000*5D
$GPGGA,023736.00,3030.67338845,N,11424.14947557,E,4,15,1.1,37.185,M,-12.681,M,1.0,0000*52
$GPGGA,023737.00,3030.67338366,N,11424.14947364,E,4,15,1.1,37.192,M,-12.681,M,1.0,0000*59
$GPGGA,023738.00,3030.67338483,N,11424.14947357,E,4,15,1.1,37.185,M,-12.681,M,1.0,0000*5C
$GPGGA,023739.00,3030.67337947,N,11424.14947387,E,4,15,1.1,37.199,M,-12.681,M,1.0,0000*57
$GPGGA,023740.00,3030.67338808,N,11424.14947443,E,4,16,1.1,37.187,M,-12.681,M,1.0,0000*5F
$GPGGA,023741.00,3030.67337697,N,11424.14947581,E,4,16,1.1,37.203,M,-12.681,M,1.0,0000*59
$GPGGA,023742.00,3030.67338412,N,11424.14947470,E,4,15,1.1,37.174,M,-12.681,M,1.0,0000*55
$GPGGA,023743.00,3030.67337714,N,11424.14947712,E,4,15,1.1,37.194,M,-12.681,M,1.0,0000*57
$GPGGA,023744.00,3030.67337443,N,11424.14947504,E,4,16,1.1,37.198,M,-12.681,M,2.0,0000*58
$GPGGA,023745.00,3030.67339221,N,11424.14947116,E,4,16,1.1,37.177,M,-12.681,M,1.0,0000*50
$GPGGA,023746.00,3030.67338865,N,11424.14947473,E,4,16,1.1,37.192,M,-12.681,M,1.0,0000*55
$GPGGA,023747.00,3030.67338615,N,11424.14947380,E,4,16,1.1,37.201,M,-12.681,M,1.0,0000*5F
$GPGGA,023748.00,3030.67338843,N,11424.14947341,E,4,15,1.1,37.189,M,-12.681,M,1.0,0000*50
$GPGGA,023749.00,3030.67338742,N,11424.14947365,E,4,16,1.1,37.191,M,-12.681,M,1.0,0000*53
$GPGGA,023750.00,3030.67338820,N,11424.14947423,E,4,16,1.1,37.196,M,-12.681,M,1.0,0000*52
$GPGGA,023751.00,3030.67338405,N,11424.14947443,E,4,16,1.1,37.207,M,-12.681,M,1.0,0000*55
$GPGGA,023752.00,3030.67338843,N,11424.14947562,E,4,16,1.1,37.198,M,-12.681,M,1.0,0000*5F
$GPGGA,023753.00,3030.67338384,N,11424.14947407,E,4,16,1.1,37.199,M,-12.681,M,1.0,0000*5D
$GPGGA,023754.00,3030.67338786,N,11424.14947420,E,4,16,1.1,37.199,M,-12.681,M,1.0,0000*59
$GPGGA,023755.00,3030.67339136,N,11424.14947505,E,4,15,1.1,37.189,M,-12.681,M,1.0,0000*50
$GPGGA,023756.00,3030.67338665,N,11424.14947470,E,4,15,1.1,37.196,M,-12.681,M,1.0,0000*5E
$GPGGA,023757.00,3030.67338661,N,11424.14947476,E,4,15,1.1,37.193,M,-12.681,M,1.0,0000*58
$GPGGA,023758.00,3030.67338802,N,11424.14947537,E,4,14,1.1,37.194,M,-12.681,M,1.0,0000*5E
$GPGGA,023759.00,3030.67338757,N,11424.14947708,E,4,15,1.1,37.193,M,-12.681,M,1.0,0000*58
$GPGGA,023800.00,3030.67339143,N,11424.14947425,E,4,15,1.1,37.189,M,-12.681,M,1.0,0000*5E
$GPGGA,023801.00,3030.67338745,N,11424.14947526,E,4,15,1.1,37.187,M,-12.681,M,1.0,0000*52
$GPGGA,023802.00,3030.67338966,N,11424.14947376,E,4,15,1.1,37.179,M,-12.681,M,1.0,0000*5C
$GPGGA,023803.00,3030.67338393,N,11424.14947589,E,4,15,1.1,37.195,M,-12.681,M,1.0,0000*59
$GPGGA,023804.00,3030.67338636,N,11424.14947314,E,4,14,1.1,37.190,M,-12.681,M,1.0,0000*52
$GPGGA,023805.00,3030.67339245,N,11424.14947256,E,4,15,1.1,37.186,M,-12.681,M,1.0,0000*53
$GPGGA,023806.00,3030.67338659,N,11424.14947736,E,4,16,1.1,37.190,M,-12.681,M,1.0,0000*5F
$GPGGA,023807.00,3030.67339247,N,11424.14947474,E,4,15,1.1,37.182,M,-12.681,M,1.0,0000*51
$GPGGA,023808.00,3030.67338563,N,11424.14947367,E,4,16,1.1,37.198,M,-12.681,M,2.0,0000*50
$GPGGA,023809.00,3030.67338179,N,11424.14947273,E,4,16,1.1,37.200,M,-12.681,M,3.0,0000*59
$GPGGA,023810.00,3030.67338862,N,11424.14947175,E,4,16,1.1,37.184,M,-12.681,M,2.0,0000*59
$GPGGA,023811.00,3030.67339194,N,11424.14947274,E,4,16,1.1,37.176,M,-12.681,M,1.0,0000*55
$GPGGA,023812.00,3030.67339108,N,11424.14947380,E,4,16,1.1,37.177,M,-12.681,M,1.0,0000*58
$GPGGA,023813.00,3030.67338659,N,11424.14947584,E,4,16,1.1,37.196,M,-12.681,M,1.0,0000*56
$GPGGA,023814.00,3030.67339059,N,11424.14947321,E,4,15,1.1,37.190,M,-12.681,M,1.0,0000*5A
$GPGGA,023815.00,3030.67339422,N,11424.14947304,E,4,15,1.1,37.187,M,-12.681,M,1.0,0000*52
$GPGGA,023816.00,3030.67338909,N,11424.14947451,E,4,15,1.1,37.192,M,-12.681,M,1.0,0000*57
$GPGGA,023817.00,3030.67339295,N,11424.14947178,E,4,15,1.1,37.196,M,-12.681,M,1.0,0000*53
$GPGGA,023818.00,3030.67339142,N,11424.14947311,E,4,15,1.1,37.187,M,-12.681,M,1.0,0000*58
$GPGGA,023819.00,3030.67339376,N,11424.14947312,E,4,15,1.1,37.192,M,-12.681,M,1.0,0000*5B
$GPGGA,023820.00,3030.67338566,N,11424.14947338,E,4,15,1.1,37.198,M,-12.681,M,1.0,0000*55
$GPGGA,023821.00,3030.67338800,N,11424.14947430,E,4,15,1.1,37.196,M,-12.681,M,1.0,0000*58
$GPGGA,023822.00,3030.67338771,N,11424.14947332,E,4,16,1.1,37.191,M,-12.681,M,1.0,0000*53
$GPGGA,023823.00,3030.67339267,N,11424.14947350,E,4,16,1.1,37.180,M,-12.681,M,1.0,0000*55
$GPGGA,023824.00,3030.67339156,N,11424.14947274,E,4,16,1.1,37.192,M,-12.681,M,1.0,0000*57
$GPGGA,023825.00,3030.67338493,N,11424.14947526,E,4,16,1.1,37.191,M,-12.681,M,1.0,0000*58
$GPGGA,023826.00,3030.67338562,N,11424.14947343,E,4,16,1.1,37.189,M,-12.681,M,2.0,0000*5B
$GPGGA,023827.00,3030.67338927,N,11424.14947300,E,4,16,1.1,37.194,M,-12.681,M,1.0,0000*5F
$GPGGA,023828.00,3030.67339803,N,11424.14947173,E,4,16,1.1,37.183,M,-12.681,M,1.0,0000*56
$GPGGA,023829.00,3030.67338726,N,11424.14947512,E,4,16,1.1,37.191,M,-12.681,M,1.0,0000*5E
$GPGGA,023830.00,3030.67339256,N,11424.14947138,E,4,16,1.1,37.189,M,-12.681,M,1.0,0000*50
$GPGGA,023831.00,3030.67338875,N,11424.14947314,E,4,16,1.1,37.178,M,-12.681,M,1.0,0000*59
$GPGGA,023832.00,3030.67338218,N,11424.14947366,E,4,16,1.1,37.188,M,-12.681,M,1.0,0000*51
$GPGGA,023833.00,3030.67338604,N,11424.14947298,E,4,16,1.1,37.192,M,-12.681,M,2.0,0000*51
$GPGGA,023834.00,3030.67338615,N,11424.14947532,E,4,16,1.1,37.198,M,-12.681,M,1.0,0000*58
$GPGGA,023835.00,3030.67338258,N,11424.14947763,E,4,16,1.1,37.215,M,-12.681,M,1.0,0000*54
$GPGGA,023836.00,3030.67339106,N,11424.14947425,E,4,16,1.1,37.199,M,-12.681,M,1.0,0000*58
$GPGGA,023837.00,3030.67338687,N,11424.14947467,E,4,16,1.1,37.192,M,-12.681,M,1.0,0000*5B
$GPGGA,023838.00,3030.67339532,N,11424.14947092,E,4,16,1.1,37.172,M,-12.681,M,1.0,0000*58
$GPGGA,023839.00,3030.67338994,N,11424.14947246,E,4,15,1.1,37.190,M,-12.681,M,1.0,0000*5C
$GPGGA,023840.00,3030.67339178,N,11424.14947323,E,4,15,1.1,37.187,M,-12.681,M,1.0,0000*5D
$GPGGA,023841.00,3030.67338919,N,11424.14947320,E,4,16,1.1,37.189,M,-12.681,M,1.0,0000*5C
$GPGGA,023842.00,3030.67338577,N,11424.14947491,E,4,16,1.1,37.183,M,-12.681,M,1.0,0000*5C
$GPGGA,023843.00,3030.67338568,N,11424.14947380,E,4,16,1.1,37.195,M,-12.681,M,1.0,0000*53
$GPGGA,023844.00,3030.67339155,N,11424.14947397,E,4,14,1.1,37.188,M,-12.681,M,1.0,0000*57
$GPGGA,023845.00,3030.67339297,N,11424.14947344,E,4,15,1.1,37.185,M,-12.681,M,1.0,0000*59
$GPGGA,023846.00,3030.67338919,N,11424.14947576,E,4,16,1.1,37.193,M,-12.681,M,1.0,0000*55
$GPGGA,023847.00,3030.67338850,N,11424.14947292,E,4,16,1.1,37.191,M,-12.681,M,1.0,0000*57
$GPGGA,023848.00,3030.67338650,N,11424.14947259,E,4,16,1.1,37.190,M,-12.681,M,1.0,0000*50
$GPGGA,023849.00,3030.67338939,N,11424.14947239,E,4,15,1.1,37.185,M,-12.681,M,1.0,0000*50
$GPGGA,023850.00,3030.67338646,N,11424.14947365,E,4,16,1.1,37.176,M,-12.681,M,1.0,0000*58
$GPGGA,023851.00,3030.67339262,N,11424.14947195,E,4,16,1.1,37.179,M,-12.681,M,1.0,0000*58
$GPGGA,023852.00,3030.67338884,N,11424.14947350,E,4,16,1.1,37.185,M,-12.681,M,1.0,0000*50
$GPGGA,023853.00,3030.67339303,N,11424.14947509,E,4,16,1.0,37.177,M,-12.681,M,1.0,0000*52
$GPGGA,023854.00,3030.67338877,N,11424.14947236,E,4,16,1.0,37.187,M,-12.681,M,1.0,0000*58
$GPGGA,023855.00,3030.67339167,N,11424.14947187,E,4,16,1.0,37.167,M,-12.681,M,1.0,0000*57
$GPGGA,023856.00,3030.67339469,N,11424.14947193,E,4,15,1.0,37.188,M,-12.681,M,1.0,0000*58
$GPGGA,023857.00,3030.67339374,N,11424.14947131,E,4,16,1.0,37.181,M,-12.681,M,1.0,0000*50
$GPGGA,023858.00,3030.67339441,N,11424.14947174,E,4,16,1.0,37.176,M,-12.681,M,1.0,0000*57
$GPGGA,023859.00,3030.67339359,N,11424.14947053,E,4,16,1.0,37.172,M,-12.681,M,1.0,0000*58
$GPGGA,023900.00,3030.67339043,N,11424.14947274,E,4,16,1.0,37.174,M,-12.681,M,1.0,0000*5C
$GPGGA,023901.00,3030.67338658,N,11424.14947351,E,4,16,1.0,37.182,M,-12.681,M,1.0,0000*5F
$GPGGA,023902.00,3030.67339271,N,11424.14947201,E,4,16,1.0,37.181,M,-12.681,M,2.0,0000*56
$GPGGA,023903.00,3030.67339658,N,11424.14947050,E,4,16,1.0,37.180,M,-12.681,M,1.0,0000*5C
$GPGGA,023904.00,3030.67338792,N,11424.14947160,E,4,16,1.0,37.185,M,-12.681,M,1.0,0000*5A
$GPGGA,023905.00,3030.67339171,N,11424.14947217,E,4,16,1.0,37.172,M,-12.681,M,1.0,0000*5A
$GPGGA,023906.00,3030.67339433,N,11424.14947118,E,4,16,1.0,37.173,M,-12.681,M,1.0,0000*57
$GPGGA,023907.00,3030.67339536,N,11424.14947216,E,4,16,1.0,37.177,M,-12.681,M,1.0,0000*5B
$GPGGA,023908.00,3030.67339760,N,11424.14947234,E,4,15,1.0,37.181,M,-12.681,M,1.0,0000*5F
$GPGGA,023909.00,3030.67339409,N,11424.14947348,E,4,16,1.0,37.177,M,-12.681,M,1.0,0000*52
$GPGGA,023910.00,3030.67337878,N,11424.14947150,E,4,16,1.0,37.170,M,-12.681,M,1.0,0000*52
$GPGGA,023911.00,3030.67339451,N,11424.14947365,E,4,16,1.0,37.176,M,-12.681,M,1.0,0000*58
$GPGGA,023912.00,3030.67338993,N,11424.14947252,E,4,16,1.0,37.187,M,-12.681,M,1.0,0000*52
$GPGGA,023913.00,3030.67338940,N,11424.14947258,E,4,16,1.0,37.187,M,-12.681,M,1.0,0000*57
$GPGGA,023914.00,3030.67338827,N,11424.14947196,E,4,16,1.0,37.178,M,-12.681,M,1.0,0000*51
$GPGGA,023915.00,3030.67338941,N,11424.14947433,E,4,16,1.0,37.180,M,-12.681,M,1.0,0000*5C
$GPGGA,023916.00,3030.67339804,N,11424.14947138,E,4,15,1.0,37.178,M,-12.681,M,1.0,0000*54
$GPGGA,023917.00,3030.67339621,N,11424.14947098,E,4,16,0.9,37.188,M,-12.681,M,1.0,0000*53
$GPGGA,023918.00,3030.67339331,N,11424.14947212,E,4,15,0.9,37.193,M,-12.681,M,1.0,0000*51
$GPGGA,023919.00,3030.67339222,N,11424.14947078,E,4,16,1.0,37.181,M,-12.681,M,1.0,0000*55
$GPGGA,023920.00,3030.67338826,N,11424.14947688,E,4,16,0.9,37.186,M,-12.681,M,1.0,0000*56
$GPGGA,023921.00,3030.67338615,N,11424.14947344,E,4,14,0.9,37.187,M,-12.681,M,1.0,0000*5F
$GPGGA,023922.00,3030.67338987,N,11424.14947182,E,4,16,0.9,37.187,M,-12.681,M,1.0,0000*52
$GPGGA,023923.00,3030.67338961,N,11424.14947317,E,4,16,0.9,37.184,M,-12.681,M,1.0,0000*56
$GPGGA,023924.00,3030.67339482,N,11424.14947064,E,4,16,0.9,37.180,M,-12.681,M,1.0,0000*53
$GPGGA,023925.00,3030.67338910,N,11424.14947386,E,4,15,0.9,37.186,M,-12.681,M,1.0,0000*5F
$GPGGA,023926.00,3030.67339560,N,11424.14947336,E,4,16,0.9,37.180,M,-12.681,M,1.0,0000*58
$GPGGA,023927.00,3030.67338847,N,11424.14947131,E,4,16,0.9,37.178,M,-12.681,M,1.0,0000*52
$GPGGA,023928.00,3030.67338730,N,11424.14947327,E,4,16,0.9,37.181,M,-12.681,M,1.0,0000*51
$GPGGA,023929.00,3030.67339521,N,11424.14947173,E,4,16,1.0,37.163,M,-12.681,M,1.0,0000*54
$GPGGA,023930.00,3030.67339038,N,11424.14947210,E,4,16,1.0,37.181,M,-12.681,M,1.0,0000*5B
$GPGGA,023931.00,3030.67339024,N,11424.14947293,E,4,16,1.0,37.180,M,-12.681,M,1.0,0000*5D
$GPGGA,023932.00,3030.67339033,N,11424.14947288,E,4,16,1.0,37.168,M,-12.681,M,1.0,0000*54
$GPGGA,023933.00,3030.67339205,N,11424.14947166,E,4,16,1.0,37.166,M,-12.681,M,1.0,0000*5F
$GPGGA,023934.00,3030.67339212,N,11424.14947385,E,4,16,1.0,37.176,M,-12.681,M,1.0,0000*50
$GPGGA,023935.00,3030.67339097,N,11424.14947354,E,4,16,1.0,37.176,M,-12.681,M,2.0,0000*51
$GPGGA,023936.00,3030.67339281,N,11424.14947313,E,4,16,1.0,37.185,M,-12.681,M,1.0,0000*5B
$GPGGA,023937.00,3030.67338755,N,11424.14947654,E,4,16,1.0,37.174,M,-12.681,M,1.0,0000*5F
$GPGGA,023938.00,3030.67339067,N,11424.14947390,E,4,16,1.0,37.185,M,-12.681,M,1.0,0000*54
$GPGGA,023939.00,3030.67338690,N,11424.14947329,E,4,15,1.0,37.173,M,-12.681,M,1.0,0000*52
$GPGGA,023940.00,3030.67339184,N,11424.14947296,E,4,14,1.0,37.174,M,-12.681,M,1.0,0000*5C
$GPGGA,023941.00,3030.67339575,N,11424.14947439,E,4,14,1.0,37.183,M,-12.681,M,1.0,0000*5C
$GPGGA,023942.00,3030.67338529,N,11424.14947139,E,4,15,1.0,37.155,M,-12.681,M,1.0,0000*58
$GPGGA,023943.00,3030.67339102,N,11424.14947215,E,4,14,1.0,37.164,M,-12.681,M,1.0,0000*5B
$GPGGA,023944.00,3030.67339207,N,11424.14947198,E,4,15,1.0,37.158,M,-12.681,M,1.0,0000*52
$GPGGA,023945.00,3030.67339494,N,11424.14947027,E,4,15,1.0,37.161,M,-12.681,M,1.0,0000*50
$GPGGA,023946.00,3030.67338345,N,11424.14947301,E,4,15,1.0,37.164,M,-12.681,M,1.0,0000*5B
$GPGGA,023947.00,3030.67338770,N,11424.14947217,E,4,16,1.0,37.166,M,-12.681,M,1.0,0000*5F
$GPGGA,023948.00,3030.67338956,N,11424.14947203,E,4,15,1.0,37.175,M,-12.681,M,1.0,0000*5E
$GPGGA,023949.00,3030.67338615,N,11424.14947388,E,4,15,1.0,37.164,M,-12.681,M,1.0,0000*55
$GPGGA,023950.00,3030.67339284,N,11424.14947062,E,4,15,1.0,37.167,M,-12.681,M,1.0,0000*54
$GPGGA,023951.00,3030.67339354,N,11424.14947169,E,4,15,1.0,37.178,M,-12.681,M,1.0,0000*5D
$GPGGA,023952.00,3030.67338735,N,11424.14947228,E,4,15,1.0,37.171,M,-12.681,M,1.0,0000*53
$GPGGA,023953.00,3030.67339293,N,11424.14947133,E,4,15,1.0,37.172,M,-12.681,M,1.0,0000*50
$GPGGA,023954.00,3030.67339134,N,11424.14947202,E,4,15,1.0,37.170,M,-12.681,M,1.0,0000*5A
$GPGGA,023955.00,3030.67339011,N,11424.14947351,E,4,15,1.0,37.169,M,-12.681,M,1.0,0000*52
$GPGGA,023956.00,3030.67338855,N,11424.14947230,E,4,15,1.0,37.171,M,-12.681,M,1.0,0000*57
$GPGGA,023957.00,3030.67338963,N,11424.14947110,E,4,15,1.0,37.183,M,-12.681,M,1.0,0000*5E
$GPGGA,023958.00,3030.67339200,N,11424.14947515,E,4,15,1.0,37.181,M,-12.681,M,1.0,0000*5D
$GPGGA,023959.00,3030.67339263,N,11424.14947229,E,4,15,1.0,37.180,M,-12.681,M,1.0,0000*50
$GPGGA,024000.00,3030.67339780,N,11424.14947261,E,4,15,1.0,37.176,M,-12.681,M,1.0,0000*5F
$GPGGA,024001.00,3030.67339002,N,11424.14947182,E,4,14,1.0,37.172,M,-12.681,M,1.0,0000*58
$GPGGA,024002.00,3030.67337997,N,11424.14947328,E,4,15,1.0,37.177,M,-12.681,M,1.0,0000*56
$GPGGA,024003.00,3030.67339122,N,11424.14947470,E,4,15,1.0,37.181,M,-12.681,M,1.0,0000*5C
$GPGGA,024004.00,3030.67339045,N,11424.14947323,E,4,15,1.0,37.171,M,-12.681,M,1.0,0000*55
$GPGGA,024005.00,3030.67338646,N,11424.14947345,E,4,15,1.0,37.175,M,-12.681,M,1.0,0000*54
$GPGGA,024006.00,3030.67339347,N,11424.14947067,E,4,15,1.0,37.178,M,-12.681,M,1.0,0000*5C
$GPGGA,024007.00,3030.67339034,N,11424.14947189,E,4,15,1.0,37.180,M,-12.681,M,1.0,0000*5C
$GPGGA,024008.00,3030.67339027,N,11424.14947140,E,4,15,1.0,37.183,M,-12.681,M,1.0,0000*57
$GPGGA,024009.00,3030.67338974,N,11424.14947117,E,4,15,1.0,37.191,M,-12.681,M,2.0,0000*5A
$GPGGA,024010.00,3030.67338981,N,11424.14947264,E,4,14,1.0,37.199,M,-12.681,M,3.0,0000*57
$GPGGA,024011.00,3030.67339831,N,11424.14947183,E,4,15,1.0,37.169,M,-12.681,M,2.0,0000*58
$GPGGA,024012.00,3030.67339167,N,11424.14947246,E,4,15,1.0,37.176,M,-12.681,M,1.0,0000*56
$GPGGA,024013.00,3030.67339241,N,11424.14947246,E,4,15,1.0,37.170,M,-12.681,M,1.0,0000*56
$GPGGA,024014.00,3030.67339517,N,11424.14947122,E,4,15,1.0,37.166,M,-12.681,M,1.0,0000*53
$GPGGA,024015.00,3030.67339696,N,11424.14947258,E,4,15,1.0,37.170,M,-12.681,M,1.0,0000*51
$GPGGA,024016.00,3030.67339410,N,11424.14947304,E,4,15,1.0,37.173,M,-12.681,M,1.0,0000*55
$GPGGA,024017.00,3030.67339911,N,11424.14947070,E,4,15,1.0,37.176,M,-12.681,M,1.0,0000*5D
$GPGGA,024018.00,3030.67339599,N,11424.14947017,E,4,16,1.0,37.165,M,-12.681,M,1.0,0000*5E
$GPGGA,024019.00,3030.67339481,N,11424.14946977,E,4,15,1.0,37.162,M,-12.681,M,1.0,0000*5D
$GPGGA,024020.00,3030.67339520,N,11424.14947125,E,4,16,1.0,37.171,M,-12.681,M,1.0,0000*52
$GPGGA,024021.00,3030.67339671,N,11424.14947175,E,4,15,1.0,37.167,M,-12.681,M,1.0,0000*55
$GPGGA,024022.00,3030.67339692,N,11424.14947051,E,4,15,1.0,37.177,M,-12.681,M,1.0,0000*5D
$GPGGA,024023.00,3030.67338029,N,11424.14947471,E,4,15,1.0,37.164,M,-12.681,M,1.0,0000*5F
$GPGGA,024024.00,3030.67342507,N,11424.14945511,E,4,15,1.0,37.187,M,-12.681,M,1.0,0000*54
$GPGGA,024025.00,3030.67335869,N,11424.14941828,E,4,12,1.1,37.334,M,-12.681,M,1.0,0000*5F
$GPGGA,024026.00,3030.67321018,N,11424.14956911,E,4,08,1.1,37.390,M,-12.681,M,1.0,0000*5F
