$GPGGA,032617.00,3030.68133706,N,11424.15801041,E,4,10,1.4,38.487,M,-12.681,M,2.0,0000*55
$GPGGA,032618.00,3030.68133567,N,11424.15801053,E,4,10,1.4,38.493,M,-12.681,M,2.0,0000*59
$GPGGA,032619.00,3030.68133837,N,11424.15800467,E,4,10,1.4,38.482,M,-12.681,M,1.0,0000*51
$GPGGA,032620.00,3030.68133612,N,11424.15800479,E,4,10,1.4,38.488,M,-12.681,M,1.0,0000*57
$GPGGA,032621.00,3030.68133584,N,11424.15800994,E,4,10,1.4,38.492,M,-12.681,M,1.0,0000*5F
$GPGGA,032622.00,3030.68133758,N,11424.15800988,E,4,10,1.4,38.485,M,-12.681,M,1.0,0000*54
$GPGGA,032623.00,3030.68133424,N,11424.15800912,E,4,10,1.4,38.497,M,-12.681,M,1.0,0000*5D
$GPGGA,032624.00,3030.68133708,N,11424.15800907,E,4,10,1.4,38.488,M,-12.681,M,1.0,0000*5D
$GPGGA,032625.00,3030.68134056,N,11424.15800256,E,4,10,1.4,38.472,M,-12.681,M,1.0,0000*5D
$GPGGA,032626.00,3030.68133907,N,11424.15801028,E,4,10,1.4,38.486,M,-12.681,M,1.0,0000*55
$GPGGA,032627.00,3030.68133233,N,11424.15800590,E,4,10,1.4,38.501,M,-12.681,M,1.0,0000*51
$GPGGA,032628.00,3030.68133288,N,11424.15800380,E,4,10,1.4,38.501,M,-12.681,M,1.0,0000*59
$GPGGA,032629.00,3030.68133381,N,11424.15800439,E,4,10,1.4,38.493,M,-12.681,M,1.0,0000*5F
$GPGGA,032630.00,3030.68133376,N,11424.15800136,E,4,10,1.4,38.480,M,-12.681,M,1.0,0000*57
$GPGGA,032631.00,3030.68133355,N,11424.15800402,E,4,10,1.4,38.488,M,-12.681,M,2.0,0000*5E
$GPGGA,032632.00,3030.68133406,N,11424.15800229,E,4,10,1.4,38.497,M,-12.681,M,2.0,0000*5D
$GPGGA,032633.00,3030.68133557,N,11424.15800570,E,4,10,1.4,38.492,M,-12.681,M,3.0,0000*56
$GPGGA,032634.00,3030.68133684,N,11424.15800327,E,4,10,1.4,38.481,M,-12.681,M,3.0,0000*5A
$GPGGA,032635.00,3030.68133481,N,11424.15800447,E,4,10,1.4,38.485,M,-12.681,M,2.0,0000*58
$GPGGA,032636.00,3030.68133613,N,11424.15800179,E,4,10,1.4,38.479,M,-12.681,M,2.0,0000*59
$GPGGA,032637.00,3030.68133320,N,11424.15801186,E,4,10,1.4,38.505,M,-12.681,M,1.0,0000*55
$GPGGA,032638.00,3030.68133635,N,11424.15801485,E,4,10,1.4,38.494,M,-12.681,M,1.0,0000*54
$GPGGA,032639.00,3030.68133635,N,11424.15800429,E,4,10,1.4,38.477,M,-12.681,M,1.0,0000*5F
$GPGGA,032640.00,3030.68133668,N,11424.15800888,E,4,10,1.4,38.489,M,-12.681,M,1.0,0000*5F
$GPGGA,032641.00,3030.68133518,N,11424.15800459,E,4,10,1.4,38.485,M,-12.681,M,1.0,0000*56
$GPGGA,032642.00,3030.68133673,N,11424.15800664,E,4,10,1.4,38.488,M,-12.681,M,1.0,0000*5A
$GPGGA,032643.00,3030.68133428,N,11424.15800597,E,4,10,1.4,38.495,M,-12.681,M,1.0,0000*54
$GPGGA,032644.00,3030.68133391,N,11424.15800945,E,4,10,1.4,38.499,M,-12.681,M,1.0,0000*59
$GPGGA,032645.00,3030.68133345,N,11424.15800536,E,4,10,1.4,38.503,M,-12.681,M,1.0,0000*5B
$GPGGA,032646.00,3030.68133254,N,11424.15800590,E,4,10,1.4,38.509,M,-12.681,M,2.0,0000*5C
$GPGGA,032647.00,3030.68133398,N,11424.15800933,E,4,10,1.4,38.498,M,-12.681,M,1.0,0000*53
$GPGGA,032648.00,3030.68133377,N,11424.15801213,E,4,10,1.4,38.497,M,-12.681,M,1.0,0000*5A
$GPGGA,032649.00,3030.68133618,N,11424.15800789,E,4,10,1.4,38.487,M,-12.681,M,1.0,0000*51
$GPGGA,032650.00,3030.68133721,N,11424.15800402,E,4,10,1.4,38.481,M,-12.681,M,1.0,0000*54
$GPGGA,032651.00,3030.68133933,N,11424.15800606,E,4,10,1.4,38.470,M,-12.681,M,1.0,0000*50
$GPGGA,032652.00,3030.68134071,N,11424.15800885,E,4,10,1.4,38.471,M,-12.681,M,2.0,0000*5C
$GPGGA,032653.00,3030.68133529,N,11424.15800616,E,4,10,1.4,38.490,M,-12.681,M,2.0,0000*59
$GPGGA,032654.00,3030.68134145,N,11424.15800668,E,4,10,1.4,38.473,M,-12.681,M,1.0,0000*50
$GPGGA,032655.00,3030.68133766,N,11424.15800599,E,4,10,1.4,38.486,M,-12.681,M,1.0,0000*56
$GPGGA,032656.00,3030.68133797,N,11424.15801069,E,4,10,1.4,38.487,M,-12.681,M,1.0,0000*51
$GPGGA,032657.00,3030.68133978,N,11424.15800419,E,4,10,1.4,38.485,M,-12.681,M,1.0,0000*5F
$GPGGA,032658.00,3030.68133806,N,11424.15800543,E,4,10,1.4,38.491,M,-12.681,M,2.0,0000*50
$GPGGA,032659.00,3030.68133801,N,11424.15800876,E,4,10,1.4,38.483,M,-12.681,M,1.0,0000*5D
$GPGGA,032700.00,3030.68133809,N,11424.15800934,E,4,10,1.4,38.481,M,-12.681,M,2.0,0000*5E
$GPGGA,032701.00,3030.68133908,N,11424.15800609,E,4,10,1.4,38.480,M,-12.681,M,2.0,0000*5F
$GPGGA,032702.00,3030.68133822,N,11424.15801036,E,4,10,1.4,38.494,M,-12.681,M,1.0,0000*58
$GPGGA,032703.00,3030.68133733,N,11424.15801198,E,4,10,1.4,38.502,M,-12.681,M,2.0,0000*5E
$GPGGA,032704.00,3030.68133648,N,11424.15801215,E,4,10,1.4,38.497,M,-12.681,M,1.0,0000*5C
$GPGGA,032705.00,3030.68133550,N,11424.15801218,E,4,10,1.4,38.499,M,-12.681,M,1.0,0000*54
$GPGGA,032706.00,3030.68133535,N,11424.15801500,E,4,10,1.4,38.505,M,-12.681,M,2.0,0000*5D
$GPGGA,032707.00,3030.68133320,N,11424.15800895,E,4,10,1.4,38.504,M,-12.681,M,2.0,0000*5F
$GPGGA,032708.00,3030.68133596,N,11424.15800766,E,4,10,1.4,38.497,M,-12.681,M,2.0,0000*53
$GPGGA,032709.00,3030.68133726,N,11424.15800807,E,4,10,1.4,38.496,M,-12.681,M,3.0,0000*53
$GPGGA,032710.00,3030.68133682,N,11424.15800829,E,4,10,1.4,38.497,M,-12.681,M,2.0,0000*58
$GPGGA,032711.00,3030.68133722,N,11424.15800579,E,4,10,1.4,38.496,M,-12.681,M,2.0,0000*5B
$GPGGA,032712.00,3030.68133463,N,11424.15800904,E,4,10,1.4,38.492,M,-12.681,M,2.0,0000*5C
$GPGGA,032713.00,3030.68133684,N,11424.15800677,E,4,10,1.4,38.490,M,-12.681,M,1.0,0000*5C
$GPGGA,032714.00,3030.68133748,N,11424.15800042,E,4,10,1.4,38.484,M,-12.681,M,1.0,0000*5F
$GPGGA,032715.00,3030.68133724,N,11424.15799822,E,4,10,1.4,38.481,M,-12.681,M,2.0,0000*53
$GPGGA,032716.00,3030.68133799,N,11424.15800386,E,4,09,1.4,38.493,M,-12.681,M,2.0,0000*57
$GPGGA,032717.00,3030.68133796,N,11424.15800483,E,4,10,1.4,38.489,M,-12.681,M,2.0,0000*58
$GPGGA,032718.00,3030.68133694,N,11424.15800075,E,4,10,1.4,38.492,M,-12.681,M,1.0,0000*50
$GPGGA,032719.00,3030.68133774,N,11424.15800853,E,4,10,1.4,38.487,M,-12.681,M,1.0,0000*56
$GPGGA,032720.00,3030.68133448,N,11424.15800833,E,4,10,1.4,38.494,M,-12.681,M,1.0,0000*54
$GPGGA,032721.00,3030.68133646,N,11424.15801075,E,4,10,1.4,38.499,M,-12.681,M,1.0,0000*5F
$GPGGA,032722.00,3030.68133570,N,11424.15800893,E,4,10,1.4,38.484,M,-12.681,M,1.0,0000*57
$GPGGA,032723.00,3030.68133686,N,11424.15800811,E,4,10,1.4,38.485,M,-12.681,M,2.0,0000*54
$GPGGA,032724.00,3030.68133579,N,11424.15800545,E,4,10,1.4,38.487,M,-12.681,M,1.0,0000*5D
$GPGGA,032725.00,3030.68133406,N,11424.15801084,E,4,10,1.4,38.494,M,-12.681,M,1.0,0000*5E
$GPGGA,032726.00,3030.68133494,N,11424.15800913,E,4,10,1.4,38.489,M,-12.681,M,2.0,0000*5F
$GPGGA,032727.00,3030.68133472,N,11424.15801094,E,4,10,1.4,38.490,M,-12.681,M,1.0,0000*5A
$GPGGA,032728.00,3030.68133466,N,11424.15800816,E,4,10,1.4,38.495,M,-12.681,M,1.0,0000*56
$GPGGA,032729.00,3030.68133410,N,11424.15800679,E,4,10,1.4,38.484,M,-12.681,M,1.0,0000*51
$GPGGA,032730.00,3030.68133103,N,11424.15800806,E,4,10,1.4,38.500,M,-12.681,M,1.0,0000*55
$GPGGA,032731.00,3030.68133258,N,11424.15800911,E,4,10,1.4,38.503,M,-12.681,M,2.0,0000*5E
$GPGGA,032732.00,3030.68133185,N,11424.15800814,E,4,10,1.4,38.502,M,-12.681,M,1.0,0000*58
$GPGGA,032733.00,3030.68133197,N,11424.15800875,E,4,10,1.4,38.502,M,-12.681,M,2.0,0000*5E
$GPGGA,032734.00,3030.68133327,N,11424.15801185,E,4,10,1.4,38.495,M,-12.681,M,1.0,0000*5B
$GPGGA,032735.00,3030.68133540,N,11424.15800769,E,4,10,1.4,38.488,M,-12.681,M,1.0,0000*54
$GPGGA,032736.00,3030.68133398,N,11424.15800847,E,4,10,1.4,38.489,M,-12.681,M,2.0,0000*55
$GPGGA,032737.00,3030.68133369,N,11424.15801271,E,4,10,1.4,38.494,M,-12.681,M,1.0,0000*5B
$GPGGA,032738.00,3030.68133284,N,11424.15801415,E,4,10,1.4,38.497,M,-12.681,M,2.0,0000*52
$GPGGA,032739.00,3030.68133320,N,11424.15800609,E,4,10,1.4,38.494,M,-12.681,M,1.0,0000*52
$GPGGA,032740.00,3030.68133384,N,11424.15801429,E,4,10,1.4,38.504,M,-12.681,M,1.0,0000*5B
$GPGGA,032741.00,3030.68133213,N,11424.15801232,E,4,10,1.4,38.500,M,-12.681,M,1.0,0000*5D
$GPGGA,032742.00,3030.68133312,N,11424.15800970,E,4,10,1.4,38.489,M,-12.681,M,2.0,0000*51
$GPGGA,032743.00,3030.68133298,N,11424.15800463,E,4,10,1.4,38.491,M,-12.681,M,1.0,0000*56
$GPGGA,032744.00,3030.68133350,N,11424.15800855,E,4,10,1.4,38.505,M,-12.681,M,1.0,0000*51
$GPGGA,032745.00,3030.68133271,N,11424.15800888,E,4,10,1.4,38.503,M,-12.681,M,2.0,0000*57
$GPGGA,032746.00,3030.68133151,N,11424.15801107,E,4,10,1.4,38.496,M,-12.681,M,2.0,0000*57
$GPGGA,032747.00,3030.68133657,N,11424.15801113,E,4,10,1.4,38.490,M,-12.681,M,1.0,0000*57
$GPGGA,032748.00,3030.68133933,N,11424.15800408,E,4,10,1.4,38.476,M,-12.681,M,1.0,0000*53
$GPGGA,032749.00,3030.68133387,N,11424.15800859,E,4,10,1.4,38.495,M,-12.681,M,1.0,0000*52
$GPGGA,032750.00,3030.68133390,N,11424.15801035,E,4,10,1.4,38.499,M,-12.681,M,2.0,0000*50
$GPGGA,032751.00,3030.68134030,N,11424.15801082,E,4,10,1.4,38.478,M,-12.681,M,2.0,0000*5C
$GPGGA,032752.00,3030.68133970,N,11424.15801007,E,4,10,1.4,38.477,M,-12.681,M,1.0,0000*54
$GPGGA,032753.00,3030.68133654,N,11424.15800998,E,4,10,1.4,38.485,M,-12.681,M,1.0,0000*5F
$GPGGA,032754.00,3030.68133842,N,11424.15800762,E,4,10,1.4,38.480,M,-12.681,M,2.0,0000*5C
$GPGGA,032755.00,3030.68133806,N,11424.15800794,E,4,10,1.4,38.482,M,-12.681,M,1.0,0000*55
$GPGGA,032756.00,3030.68133746,N,11424.15801196,E,4,10,1.4,38.494,M,-12.681,M,2.0,0000*5C
$GPGGA,032757.00,3030.68133936,N,11424.15800658,E,4,10,1.4,38.468,M,-12.681,M,1.0,0000*50
$GPGGA,032758.00,3030.68134038,N,11424.15801192,E,4,10,1.4,38.473,M,-12.681,M,2.0,0000*56
$GPGGA,032759.00,3030.68134068,N,11424.15801140,E,4,11,1.4,38.478,M,-12.681,M,2.0,0000*57
$GPGGA,032800.00,3030.68133839,N,11424.15801170,E,4,11,1.4,38.485,M,-12.681,M,2.0,0000*5E
$GPGGA,032801.00,3030.68134128,N,11424.15801033,E,4,11,1.4,38.475,M,-12.681,M,1.0,0000*5B
$GPGGA,032802.00,3030.68134121,N,11424.15800979,E,4,11,1.4,38.477,M,-12.681,M,2.0,0000*56
$GPGGA,032803.00,3030.68133877,N,11424.15801731,E,4,11,1.4,38.494,M,-12.681,M,2.0,0000*54
$GPGGA,032804.00,3030.68133991,N,11424.15801356,E,4,11,1.4,38.483,M,-12.681,M,2.0,0000*59
$GPGGA,032805.00,3030.68133967,N,11424.15801354,E,4,11,1.4,38.484,M,-12.681,M,1.0,0000*57
$GPGGA,032806.00,3030.68133797,N,11424.15801316,E,4,11,1.4,38.492,M,-12.681,M,2.0,0000*57
$GPGGA,032807.00,3030.68134076,N,11424.15801130,E,4,11,1.4,38.483,M,-12.681,M,2.0,0000*5F
$GPGGA,032808.00,3030.68133903,N,11424.15801363,E,4,11,1.4,38.488,M,-12.681,M,1.0,0000*50
$GPGGA,032809.00,3030.68133619,N,11424.15801880,E,4,10,1.4,38.507,M,-12.681,M,1.0,0000*54
$GPGGA,032810.00,3030.68133571,N,11424.15801858,E,4,11,1.4,38.508,M,-12.681,M,2.0,0000*59
$GPGGA,032811.00,3030.68133870,N,11424.15801308,E,4,11,1.4,38.491,M,-12.681,M,2.0,0000*5B
$GPGGA,032812.00,3030.68133897,N,11424.15801341,E,4,11,1.4,38.488,M,-12.681,M,2.0,0000*54
$GPGGA,032813.00,3030.68133851,N,11424.15801591,E,4,11,1.4,38.496,M,-12.681,M,1.0,0000*58
$GPGGA,032814.00,3030.68134309,N,11424.15801566,E,4,11,1.4,38.478,M,-12.681,M,1.0,0000*56
$GPGGA,032815.00,3030.68134171,N,11424.15801971,E,4,09,1.4,38.496,M,-12.681,M,2.0,0000*5A
$GPGGA,032816.00,3030.68133887,N,11424.15801432,E,4,10,1.4,38.491,M,-12.681,M,1.0,0000*58
$GPGGA,032817.00,3030.68134009,N,11424.15801561,E,4,11,1.4,38.489,M,-12.681,M,1.0,0000*5F
$GPGGA,032818.00,3030.68133864,N,11424.15801637,E,4,10,1.4,38.499,M,-12.681,M,1.0,0000*54
$GPGGA,032819.00,3030.68133946,N,11424.15801457,E,4,10,1.4,38.502,M,-12.681,M,1.0,0000*53
$GPGGA,032820.00,3030.68133866,N,11424.15801643,E,4,11,1.4,38.506,M,-12.681,M,2.0,0000*5B
$GPGGA,032821.00,3030.68133990,N,11424.15800827,E,4,11,1.4,38.478,M,-12.681,M,1.0,0000*54
$GPGGA,032822.00,3030.68134120,N,11424.15801466,E,4,10,1.4,38.487,M,-12.681,M,1.0,0000*5A
$GPGGA,032823.00,3030.68134025,N,11424.15800757,E,4,10,1.4,38.491,M,-12.681,M,1.0,0000*58
$GPGGA,032824.00,3030.68134292,N,11424.15801001,E,4,11,1.4,38.484,M,-12.681,M,2.0,0000*52
$GPGGA,032825.00,3030.68134118,N,11424.15801008,E,4,10,1.4,38.486,M,-12.681,M,2.0,0000*58
$GPGGA,032826.00,3030.68134016,N,11424.15801176,E,4,10,1.5,38.490,M,-12.681,M,1.0,0000*59
$GPGGA,032827.00,3030.68133770,N,11424.15800930,E,4,10,1.5,38.498,M,-12.681,M,1.0,0000*5B
$GPGGA,032828.00,3030.68134107,N,11424.15801431,E,4,10,1.5,38.485,M,-12.681,M,1.0,0000*54
$GPGGA,032829.00,3030.68134083,N,11424.15801624,E,4,10,1.5,38.494,M,-12.681,M,2.0,0000*5D
$GPGGA,032830.00,3030.68134110,N,11424.15800879,E,4,10,1.5,38.486,M,-12.681,M,1.0,0000*59
$GPGGA,032831.00,3030.68134077,N,11424.15800915,E,4,10,1.5,38.491,M,-12.681,M,1.0,0000*55
$GPGGA,032832.00,3030.68134164,N,11424.15800852,E,4,10,1.5,38.489,M,-12.681,M,2.0,0000*5D
$GPGGA,032833.00,3030.68133997,N,11424.15801014,E,4,10,1.5,38.498,M,-12.681,M,2.0,0000*54
$GPGGA,032834.00,3030.68134129,N,11424.15801083,E,4,10,1.5,38.498,M,-12.681,M,3.0,0000*56
$GPGGA,032835.00,3030.68134129,N,11424.15801237,E,4,10,1.5,38.502,M,-12.681,M,2.0,0000*59
$GPGGA,032836.00,3030.68133891,N,11424.15802204,E,4,10,1.5,38.511,M,-12.681,M,2.0,0000*56
$GPGGA,032837.00,3030.68134017,N,11424.15801836,E,4,10,1.5,38.503,M,-12.681,M,2.0,0000*5D
$GPGGA,032838.00,3030.68134186,N,11424.15801254,E,4,10,1.5,38.496,M,-12.681,M,2.0,0000*58
$GPGGA,032839.00,3030.68134314,N,11424.15801282,E,4,10,1.5,38.492,M,-12.681,M,1.0,0000*5C
$GPGGA,032840.00,3030.68134334,N,11424.15802026,E,4,10,1.5,38.503,M,-12.681,M,2.0,0000*55
$GPGGA,032841.00,3030.68134407,N,11424.15801452,E,4,10,1.5,38.484,M,-12.681,M,2.0,0000*59
$GPGGA,032842.00,3030.68134297,N,11424.15801929,E,4,10,1.5,38.504,M,-12.681,M,2.0,0000*5D
$GPGGA,032843.00,3030.68134510,N,11424.15801612,E,4,10,1.5,38.497,M,-12.681,M,2.0,0000*58
$GPGGA,032844.00,3030.68134511,N,11424.15801416,E,4,10,1.5,38.480,M,-12.681,M,2.0,0000*5E
$GPGGA,032845.00,3030.68134062,N,11424.15801505,E,4,10,1.5,38.497,M,-12.681,M,1.0,0000*58
$GPGGA,032846.00,3030.68134254,N,11424.15801430,E,4,10,1.5,38.497,M,-12.681,M,2.0,0000*58
$GPGGA,032847.00,3030.68134457,N,11424.15801554,E,4,10,1.5,38.486,M,-12.681,M,1.0,0000*5C
$GPGGA,032848.00,3030.68134414,N,11424.15801512,E,4,10,1.5,38.493,M,-12.681,M,1.0,0000*52
$GPGGA,032849.00,3030.68134395,N,11424.15800982,E,4,10,1.5,38.495,M,-12.681,M,1.0,0000*5F
$GPGGA,032850.00,3030.68134466,N,11424.15800899,E,4,10,1.5,38.495,M,-12.681,M,2.0,0000*54
$GPGGA,032851.00,3030.68134544,N,11424.15801018,E,4,10,1.5,38.483,M,-12.681,M,2.0,0000*53
$GPGGA,032852.00,3030.68134341,N,11424.15801236,E,4,10,1.5,38.498,M,-12.681,M,1.0,0000*54
$GPGGA,032853.00,3030.68134481,N,11424.15801159,E,4,10,1.5,38.500,M,-12.681,M,2.0,0000*57
$GPGGA,032854.00,3030.68134350,N,11424.15801130,E,4,10,1.5,38.483,M,-12.681,M,1.0,0000*5D
$GPGGA,032855.00,3030.68134363,N,11424.15801470,E,4,10,1.5,38.498,M,-12.681,M,2.0,0000*54
$GPGGA,032856.00,3030.68134518,N,11424.15800951,E,4,10,1.5,38.496,M,-12.681,M,2.0,0000*5C
$GPGGA,032857.00,3030.68134739,N,11424.15800390,E,4,10,1.5,38.479,M,-12.681,M,1.0,0000*59
$GPGGA,032858.00,3030.68134934,N,11424.15799600,E,4,10,1.5,38.466,M,-12.681,M,2.0,0000*5B
$GPGGA,032859.00,3030.68134655,N,11424.15800011,E,4,10,1.5,38.478,M,-12.681,M,2.0,0000*54
$GPGGA,032900.00,3030.68134651,N,11424.15800955,E,4,10,1.5,38.483,M,-12.681,M,1.0,0000*53
$GPGGA,032901.00,3030.68134728,N,11424.15800406,E,4,10,1.5,38.471,M,-12.681,M,1.0,0000*5B
$GPGGA,032902.00,3030.68134754,N,11424.15800361,E,4,10,1.5,38.472,M,-12.681,M,2.0,0000*55
$GPGGA,032903.00,3030.68134492,N,11424.15800987,E,4,10,1.5,38.484,M,-12.681,M,1.0,0000*55
$GPGGA,032904.00,3030.68134588,N,11424.15800920,E,4,10,1.5,38.484,M,-12.681,M,1.0,0000*55
$GPGGA,032905.00,3030.68134410,N,11424.15800817,E,4,10,1.5,38.489,M,-12.681,M,1.0,0000*5C
$GPGGA,032906.00,3030.68133984,N,11424.15801272,E,4,10,1.5,38.495,M,-12.681,M,1.0,0000*5D
$GPGGA,032907.00,3030.68134071,N,11424.15801200,E,4,10,1.5,38.499,M,-12.681,M,2.0,0000*52
$GPGGA,032908.00,3030.68134351,N,11424.15801373,E,4,10,1.5,38.490,M,-12.681,M,1.0,0000*53
$GPGGA,032909.00,3030.68134369,N,11424.15801023,E,4,10,1.5,38.493,M,-12.681,M,2.0,0000*5F
$GPGGA,032910.00,3030.68133806,N,11424.15801948,E,4,10,1.5,38.511,M,-12.681,M,1.0,0000*5E
$GPGGA,032911.00,3030.68134071,N,11424.15800959,E,4,10,1.5,38.495,M,-12.681,M,2.0,0000*5F
$GPGGA,032912.00,3030.68134308,N,11424.15800539,E,4,10,1.5,38.478,M,-12.681,M,1.0,0000*5B
$GPGGA,032913.00,3030.68134462,N,11424.15800457,E,4,10,1.5,38.481,M,-12.681,M,1.0,0000*5E
$GPGGA,032914.00,3030.68134357,N,11424.15800700,E,4,10,1.5,38.493,M,-12.681,M,1.0,0000*5A
$GPGGA,032915.00,3030.68134408,N,11424.15800898,E,4,10,1.5,38.482,M,-12.681,M,1.0,0000*58
$GPGGA,032916.00,3030.68134469,N,11424.15800874,E,4,10,1.5,38.489,M,-12.681,M,2.0,0000*56
$GPGGA,032917.00,3030.68134335,N,11424.15800550,E,4,10,1.5,38.490,M,-12.681,M,1.0,0000*59
$GPGGA,032918.00,3030.68134247,N,11424.15800944,E,4,10,1.5,38.489,M,-12.681,M,1.0,0000*53
$GPGGA,032919.00,3030.68134492,N,11424.15800538,E,4,10,1.5,38.490,M,-12.681,M,2.0,0000*50
$GPGGA,032920.00,3030.68134248,N,11424.15800892,E,4,10,1.5,38.486,M,-12.681,M,1.0,0000*52
$GPGGA,032921.00,3030.68134530,N,11424.15801107,E,4,10,1.5,38.478,M,-12.681,M,1.0,0000*5E
$GPGGA,032922.00,3030.68134500,N,11424.15800949,E,4,10,1.5,38.479,M,-12.681,M,2.0,0000*5F
$GPGGA,032923.00,3030.68134292,N,11424.15801443,E,4,10,1.5,38.496,M,-12.681,M,1.0,0000*56
$GPGGA,032924.00,3030.68134319,N,11424.15801054,E,4,10,1.5,38.495,M,-12.681,M,2.0,0000*51
$GPGGA,032925.00,3030.68134158,N,11424.15801380,E,4,10,1.5,38.492,M,-12.681,M,1.0,0000*59
$GPGGA,032926.00,3030.68134149,N,11424.15801652,E,4,10,1.5,38.501,M,-12.681,M,1.0,0000*5B
$GPGGA,032927.00,3030.68134156,N,11424.15801579,E,4,10,1.5,38.495,M,-12.681,M,1.0,0000*52
$GPGGA,032928.00,3030.68134189,N,11424.15801887,E,4,10,1.5,38.500,M,-12.681,M,2.0,0000*5D
$GPGGA,032929.00,3030.68134256,N,11424.15801135,E,4,10,1.5,38.497,M,-12.681,M,2.0,0000*52
$GPGGA,032930.00,3030.68134465,N,11424.15801569,E,4,10,1.5,38.489,M,-12.681,M,1.0,0000*5D
$GPGGA,032931.00,3030.68134117,N,11424.15801415,E,4,10,1.5,38.492,M,-12.681,M,1.0,0000*5C
$GPGGA,032932.00,3030.68134102,N,11424.15801280,E,4,10,1.5,38.488,M,-12.681,M,2.0,0000*59
$GPGGA,032933.00,3030.68134145,N,11424.15801752,E,4,10,1.5,38.505,M,-12.681,M,2.0,0000*55
$GPGGA,032934.00,3030.68134247,N,11424.15801440,E,4,10,1.5,38.483,M,-12.681,M,1.0,0000*5F
$GPGGA,032935.00,3030.68134387,N,11424.15801668,E,4,10,1.5,38.486,M,-12.681,M,1.0,0000*5E
$GPGGA,032936.00,3030.68134060,N,11424.15801498,E,4,10,1.5,38.489,M,-12.681,M,1.0,0000*55
$GPGGA,032937.00,3030.68134005,N,11424.15801762,E,4,10,1.5,38.493,M,-12.681,M,2.0,0000*59
$GPGGA,032938.00,3030.68134136,N,11424.15802331,E,4,10,1.5,38.498,M,-12.681,M,1.0,0000*5E
$GPGGA,032939.00,3030.68133950,N,11424.15801954,E,4,10,1.5,38.500,M,-12.681,M,1.0,0000*5A
$GPGGA,032940.00,3030.68134218,N,11424.15802311,E,4,10,1.5,38.495,M,-12.681,M,1.0,0000*51
$GPGGA,032941.00,3030.68134165,N,11424.15801937,E,4,10,1.5,38.493,M,-12.681,M,2.0,0000*51
$GPGGA,032942.00,3030.68134302,N,11424.15801594,E,4,10,1.5,38.490,M,-12.681,M,1.0,0000*54
$GPGGA,032943.00,3030.68134305,N,11424.15801891,E,4,10,1.5,38.485,M,-12.681,M,1.0,0000*5E
$GPGGA,032944.00,3030.68134159,N,11424.15801942,E,4,10,1.5,38.499,M,-12.681,M,1.0,0000*50
$GPGGA,032945.00,3030.68134244,N,11424.15801968,E,4,10,1.5,38.499,M,-12.681,M,2.0,0000*55
$GPGGA,032946.00,3030.68134113,N,11424.15802083,E,4,10,1.5,38.505,M,-12.681,M,2.0,0000*5C
$GPGGA,032947.00,3030.68134402,N,11424.15802284,E,4,10,1.5,38.492,M,-12.681,M,1.0,0000*51
$GPGGA,032948.00,3030.68134371,N,11424.15802450,E,4,10,1.5,38.497,M,-12.681,M,2.0,0000*54
$GPGGA,032949.00,3030.68134205,N,11424.15802566,E,4,10,1.5,38.506,M,-12.681,M,2.0,0000*5A
$GPGGA,032950.00,3030.68134448,N,11424.15801229,E,4,10,1.5,38.490,M,-12.681,M,2.0,0000*5C
$GPGGA,032951.00,3030.68134279,N,11424.15801957,E,4,10,1.5,38.497,M,-12.681,M,2.0,0000*5C
$GPGGA,032952.00,3030.68134264,N,11424.15801965,E,4,10,1.5,38.496,M,-12.681,M,1.0,0000*50
$GPGGA,032953.00,3030.68134351,N,11424.15801996,E,4,10,1.5,38.495,M,-12.681,M,1.0,0000*59
$GPGGA,032954.00,3030.68134407,N,11424.15801896,E,4,10,1.5,38.498,M,-12.681,M,2.0,0000*55
$GPGGA,032955.00,3030.68134182,N,11424.15801687,E,4,10,1.5,38.498,M,-12.681,M,1.0,0000*51
$GPGGA,032956.00,3030.68134309,N,11424.15801857,E,4,10,1.5,38.497,M,-12.681,M,1.0,0000*5F
$GPGGA,032957.00,3030.68134402,N,11424.15802119,E,4,10,1.5,38.485,M,-12.681,M,1.0,0000*51
$GPGGA,032958.00,3030.68134369,N,11424.15802072,E,4,10,1.5,38.486,M,-12.681,M,2.0,0000*58
$GPGGA,032959.00,3030.68134197,N,11424.15802200,E,4,10,1.5,38.497,M,-12.681,M,1.0,0000*5E
$GPGGA,033000.00,3030.68134141,N,11424.15803037,E,4,10,1.5,38.510,M,-12.681,M,1.0,0000*58
$GPGGA,033001.00,3030.68134176,N,11424.15802463,E,4,10,1.5,38.506,M,-12.681,M,1.0,0000*5E
$GPGGA,033002.00,3030.68134208,N,11424.15802080,E,4,10,1.5,38.502,M,-12.681,M,1.0,0000*5A
$GPGGA,033003.00,3030.68134233,N,11424.15802350,E,4,10,1.5,38.502,M,-12.681,M,2.0,0000*5E
$GPGGA,033004.00,3030.68134297,N,11424.15802040,E,4,10,1.5,38.494,M,-12.681,M,1.0,0000*58
$GPGGA,033005.00,3030.68134388,N,11424.15802221,E,4,10,1.5,38.494,M,-12.681,M,2.0,0000*50
$GPGGA,033006.00,3030.68134103,N,11424.15802441,E,4,10,1.5,38.505,M,-12.681,M,2.0,0000*5B
$GPGGA,033007.00,3030.68134324,N,11424.15801864,E,4,10,1.5,38.495,M,-12.681,M,2.0,0000*5D
$GPGGA,033008.00,3030.68134227,N,11424.15802397,E,4,10,1.5,38.502,M,-12.681,M,1.0,0000*58
$GPGGA,033009.00,3030.68134228,N,11424.15801919,E,4,10,1.5,38.491,M,-12.681,M,1.0,0000*52
$GPGGA,033010.00,3030.68134357,N,11424.15802302,E,4,10,1.5,38.500,M,-12.681,M,1.0,0000*59
$GPGGA,033011.00,3030.68134257,N,11424.15802184,E,4,10,1.5,38.499,M,-12.681,M,1.0,0000*54
$GPGGA,033012.00,3030.68134368,N,11424.15802057,E,4,10,1.5,38.487,M,-12.681,M,2.0,0000*59
$GPGGA,033013.00,3030.68134372,N,11424.15802194,E,4,10,1.5,38.479,M,-12.681,M,2.0,0000*5C
$GPGGA,033014.00,3030.68133941,N,11424.15802031,E,4,10,1.5,38.499,M,-12.681,M,2.0,0000*56
$GPGGA,033015.00,3030.68134033,N,11424.15802272,E,4,10,1.5,38.496,M,-12.681,M,3.0,0000*57
$GPGGA,033016.00,3030.68134193,N,11424.15802896,E,4,10,1.5,38.481,M,-12.681,M,3.0,0000*59
$GPGGA,033017.00,3030.68134212,N,11424.15803326,E,4,10,1.5,38.487,M,-12.681,M,3.0,0000*55
$GPGGA,033018.00,3030.68134122,N,11424.15803085,E,4,10,1.5,38.506,M,-12.681,M,2.0,0000*59
$GPGGA,033019.00,3030.68134183,N,11424.15802851,E,4,10,1.5,38.488,M,-12.681,M,2.0,0000*54
$GPGGA,033020.00,3030.68134063,N,11424.15803113,E,4,10,1.5,38.506,M,-12.681,M,1.0,0000*5B
$GPGGA,033021.00,3030.68134280,N,11424.15803034,E,4,10,1.5,38.492,M,-12.681,M,1.0,0000*5D
$GPGGA,033022.00,3030.68134217,N,11424.15802977,E,4,10,1.5,38.492,M,-12.681,M,2.0,0000*5C
$GPGGA,033023.00,3030.68134595,N,11424.15802778,E,4,10,1.5,38.483,M,-12.681,M,1.0,0000*52
$GPGGA,033024.00,3030.68134102,N,11424.15802642,E,4,10,1.5,38.497,M,-12.681,M,1.0,0000*52
$GPGGA,033025.00,3030.68134409,N,11424.15802658,E,4,09,1.5,38.488,M,-12.681,M,1.0,0000*50
$GPGGA,033026.00,3030.68134640,N,11424.15802328,E,4,10,1.5,38.479,M,-12.681,M,1.0,0000*58
$GPGGA,033027.00,3030.68134723,N,11424.15802185,E,4,10,1.5,38.464,M,-12.681,M,2.0,0000*57
$GPGGA,033028.00,3030.68134617,N,11424.15802054,E,4,10,1.5,38.466,M,-12.681,M,2.0,0000*51
$GPGGA,033029.00,3030.68134490,N,11424.15802392,E,4,10,1.5,38.476,M,-12.681,M,2.0,0000*55
$GPGGA,033030.00,3030.68134492,N,11424.15802524,E,4,10,1.5,38.483,M,-12.681,M,1.0,0000*5D
$GPGGA,033031.00,3030.68134492,N,11424.15802605,E,4,10,1.5,38.485,M,-12.681,M,1.0,0000*5A
$GPGGA,033032.00,3030.68134270,N,11424.15802962,E,4,10,1.5,38.493,M,-12.681,M,1.0,0000*5A
$GPGGA,033033.00,3030.68134266,N,11424.15802989,E,4,10,1.5,38.488,M,-12.681,M,2.0,0000*50
$GPGGA,033034.00,3030.68134221,N,11424.15802975,E,4,10,1.5,38.490,M,-12.681,M,2.0,0000*5E
$GPGGA,033035.00,3030.68134483,N,11424.15802369,E,4,10,1.5,38.475,M,-12.681,M,3.0,0000*5C
$GPGGA,033036.00,3030.68134603,N,11424.15802436,E,4,10,1.5,38.472,M,-12.681,M,3.0,0000*5F
$GPGGA,033037.00,3030.68134249,N,11424.15802674,E,4,10,1.5,38.487,M,-12.681,M,2.0,0000*5B
$GPGGA,033038.00,3030.68134459,N,11424.15802802,E,4,10,1.5,38.484,M,-12.681,M,2.0,0000*5F
$GPGGA,033039.00,3030.68134128,N,11424.15803420,E,4,10,1.5,38.507,M,-12.681,M,1.0,0000*59
$GPGGA,033040.00,3030.68134286,N,11424.15803698,E,4,09,1.5,38.493,M,-12.681,M,2.0,0000*56
$GPGGA,033041.00,3030.68134467,N,11424.15803354,E,4,10,1.5,38.483,M,-12.681,M,2.0,0000*52
$GPGGA,033042.00,3030.68134338,N,11424.15803292,E,4,10,1.5,38.481,M,-12.681,M,2.0,0000*55
$GPGGA,033043.00,3030.68134109,N,11424.15803656,E,4,10,1.5,38.491,M,-12.681,M,2.0,0000*59
$GPGGA,033044.00,3030.68134243,N,11424.15803335,E,4,10,1.5,38.477,M,-12.681,M,2.0,0000*5B
$GPGGA,033045.00,3030.68134254,N,11424.15803207,E,4,10,1.5,38.481,M,-12.681,M,2.0,0000*55
$GPGGA,033046.00,3030.68134399,N,11424.15803556,E,4,10,1.5,38.481,M,-12.681,M,2.0,0000*55
$GPGGA,033047.00,3030.68134084,N,11424.15803487,E,4,10,1.5,38.494,M,-12.681,M,2.0,0000*52
$GPGGA,033048.00,3030.68134271,N,11424.15803634,E,4,10,1.5,38.499,M,-12.681,M,1.0,0000*51
$GPGGA,033049.00,3030.68134252,N,11424.15803673,E,4,10,1.5,38.492,M,-12.681,M,2.0,0000*5A
$GPGGA,033050.00,3030.68134510,N,11424.15803239,E,4,10,1.5,38.488,M,-12.681,M,1.0,0000*51
$GPGGA,033051.00,3030.68134464,N,11424.15803512,E,4,10,1.5,38.485,M,-12.681,M,1.0,0000*51
$GPGGA,033052.00,3030.68134603,N,11424.15802838,E,4,10,1.5,38.487,M,-12.681,M,1.0,0000*57
$GPGGA,033053.00,3030.68134418,N,11424.15803515,E,4,10,1.5,38.488,M,-12.681,M,2.0,0000*51
$GPGGA,033054.00,3030.68134124,N,11424.15804043,E,4,10,1.5,38.500,M,-12.681,M,2.0,0000*5C
$GPGGA,033055.00,3030.68134462,N,11424.15803494,E,4,10,1.5,38.495,M,-12.681,M,1.0,0000*5D
$GPGGA,033056.00,3030.68134380,N,11424.15803733,E,4,10,1.5,38.497,M,-12.681,M,1.0,0000*59
$GPGGA,033057.00,3030.68134148,N,11424.15803554,E,4,10,1.5,38.505,M,-12.681,M,1.0,0000*57
$GPGGA,033058.00,3030.68134710,N,11424.15803481,E,4,10,1.5,38.473,M,-12.681,M,1.0,0000*5A
$GPGGA,033059.00,3030.68134553,N,11424.15803668,E,4,10,1.5,38.483,M,-12.681,M,1.0,0000*54
$GPGGA,033100.00,3030.68134570,N,11424.15803585,E,4,10,1.5,38.485,M,-12.681,M,1.0,0000*5E
$GPGGA,033101.00,3030.68134399,N,11424.15803912,E,4,10,1.5,38.494,M,-12.681,M,1.0,0000*5C
$GPGGA,033102.00,3030.68134325,N,11424.15804164,E,4,10,1.5,38.489,M,-12.681,M,2.0,0000*59
$GPGGA,033103.00,3030.68134511,N,11424.15803526,E,4,10,1.5,38.478,M,-12.681,M,2.0,0000*52
$GPGGA,033104.00,3030.68134551,N,11424.15803778,E,4,10,1.5,38.490,M,-12.681,M,1.0,0000*5D
$GPGGA,033105.00,3030.68134305,N,11424.15803729,E,4,10,1.5,38.495,M,-12.681,M,1.0,0000*5A
$GPGGA,033106.00,3030.68134395,N,11424.15803595,E,4,10,1.5,38.488,M,-12.681,M,2.0,0000*5A
$GPGGA,033107.00,3030.68134638,N,11424.15803168,E,4,10,1.5,38.475,M,-12.681,M,2.0,0000*5D
$GPGGA,033108.00,3030.68134559,N,11424.15803535,E,4,10,1.5,38.485,M,-12.681,M,2.0,0000*55
$GPGGA,033109.00,3030.68134543,N,11424.15803243,E,4,10,1.5,38.476,M,-12.681,M,1.0,0000*56
$GPGGA,033110.00,3030.68134528,N,11424.15803162,E,4,10,1.5,38.473,M,-12.681,M,2.0,0000*55
$GPGGA,033111.00,3030.68134504,N,11424.15803599,E,4,10,1.5,38.487,M,-12.681,M,1.0,0000*52
$GPGGA,033112.00,3030.68134546,N,11424.15803630,E,4,10,1.5,38.483,M,-12.681,M,1.0,0000*53
$GPGGA,033113.00,3030.68134637,N,11424.15803724,E,4,10,1.5,38.480,M,-12.681,M,2.0,0000*53
$GPGGA,033114.00,3030.68134328,N,11424.15803499,E,4,10,1.5,38.494,M,-12.681,M,1.0,0000*5C
$GPGGA,033115.00,3030.68134349,N,11424.15803280,E,4,10,1.5,38.492,M,-12.681,M,2.0,0000*51
$GPGGA,033116.00,3030.68134348,N,11424.15803807,E,4,10,1.5,38.491,M,-12.681,M,2.0,0000*55
$GPGGA,033117.00,3030.68134447,N,11424.15803163,E,4,10,1.5,38.491,M,-12.681,M,1.0,0000*54
$GPGGA,033118.00,3030.68134513,N,11424.15803157,E,4,10,1.5,38.489,M,-12.681,M,2.0,0000*56
$GPGGA,033119.00,3030.68134608,N,11424.15803372,E,4,10,1.5,38.490,M,-12.681,M,2.0,0000*53
$GPGGA,033120.00,3030.68134601,N,11424.15803347,E,4,10,1.5,38.495,M,-12.681,M,2.0,0000*53
$GPGGA,033121.00,3030.68134643,N,11424.15803659,E,4,10,1.5,38.489,M,-12.681,M,1.0,0000*50
$GPGGA,033122.00,3030.68134411,N,11424.15803792,E,4,10,1.5,38.491,M,-12.681,M,1.0,0000*59
$GPGGA,033123.00,3030.68134267,N,11424.15804273,E,4,10,1.5,38.500,M,-12.681,M,1.0,0000*5B
$GPGGA,033124.00,3030.68134357,N,11424.15803712,E,4,10,1.5,38.494,M,-12.681,M,1.0,0000*57
$GPGGA,033125.00,3030.68134532,N,11424.15803541,E,4,10,1.5,38.492,M,-12.681,M,1.0,0000*51
$GPGGA,033126.00,3030.68134630,N,11424.15803953,E,4,10,1.5,38.493,M,-12.681,M,1.0,0000*5D
$GPGGA,033127.00,3030.68134502,N,11424.15803605,E,4,10,1.5,38.488,M,-12.681,M,1.0,0000*58
$GPGGA,033128.00,3030.68134376,N,11424.15803365,E,4,10,1.5,38.494,M,-12.681,M,1.0,0000*5C
$GPGGA,033129.00,3030.68134412,N,11424.15803745,E,4,10,1.5,38.493,M,-12.681,M,2.0,0000*5A
$GPGGA,033130.00,3030.68134459,N,11424.15803619,E,4,10,1.5,38.487,M,-12.681,M,1.0,0000*53
$GPGGA,033131.00,3030.68134487,N,11424.15803773,E,4,10,1.5,38.500,M,-12.681,M,1.0,0000*52
$GPGGA,033132.00,3030.68134373,N,11424.15803688,E,4,10,1.5,38.499,M,-12.681,M,2.0,0000*5A
$GPGGA,033133.00,3030.68134525,N,11424.15803974,E,4,10,1.5,38.488,M,-12.681,M,2.0,0000*52
$GPGGA,033134.00,3030.68134798,N,11424.15803466,E,4,10,1.5,38.479,M,-12.681,M,2.0,0000*51
$GPGGA,033135.00,3030.68134327,N,11424.15803971,E,4,10,1.5,38.500,M,-12.681,M,2.0,0000*54
$GPGGA,033136.00,3030.68134420,N,11424.15803598,E,4,10,1.5,38.489,M,-12.681,M,1.0,0000*5F
$GPGGA,033137.00,3030.68134469,N,11424.15803992,E,4,10,1.5,38.495,M,-12.681,M,2.0,0000*5B
$GPGGA,033138.00,3030.68134538,N,11424.15803515,E,4,10,1.5,38.494,M,-12.681,M,1.0,0000*50
$GPGGA,033139.00,3030.68134446,N,11424.15803719,E,4,10,1.5,38.497,M,-12.681,M,2.0,0000*57
$GPGGA,033140.00,3030.68134757,N,11424.15803185,E,4,10,1.5,38.481,M,-12.681,M,1.0,0000*5D
$GPGGA,033141.00,3030.68134504,N,11424.15803613,E,4,10,1.5,38.490,M,-12.681,M,1.0,0000*50
$GPGGA,033142.00,3030.68134436,N,11424.15803971,E,4,10,1.5,38.498,M,-12.681,M,1.0,0000*50
$GPGGA,033143.00,3030.68134521,N,11424.15803602,E,4,10,1.5,38.494,M,-12.681,M,1.0,0000*51
$GPGGA,033144.00,3030.68134512,N,11424.15803846,E,4,10,1.5,38.498,M,-12.681,M,2.0,0000*57
$GPGGA,033145.00,3030.68134306,N,11424.15804097,E,4,10,1.5,38.508,M,-12.681,M,2.0,0000*5E
$GPGGA,033146.00,3030.68134369,N,11424.15803572,E,4,10,1.5,38.495,M,-12.681,M,1.0,0000*5B
$GPGGA,033147.00,3030.68134441,N,11424.15803620,E,4,10,1.5,38.497,M,-12.681,M,2.0,0000*52
$GPGGA,033148.00,3030.68134378,N,11424.15803548,E,4,10,1.5,38.499,M,-12.681,M,2.0,0000*53
$GPGGA,033149.00,3030.68134263,N,11424.15803771,E,4,10,1.5,38.510,M,-12.681,M,2.0,0000*51
$GPGGA,033150.00,3030.68134417,N,11424.15803575,E,4,10,1.5,38.502,M,-12.681,M,2.0,0000*59
$GPGGA,033151.00,3030.68134466,N,11424.15803348,E,4,10,1.5,38.499,M,-12.681,M,1.0,0000*56
$GPGGA,033152.00,3030.68134502,N,11424.15803346,E,4,10,1.5,38.496,M,-12.681,M,1.0,0000*57
$GPGGA,033153.00,3030.68134421,N,11424.15803666,E,4,10,1.5,38.502,M,-12.681,M,2.0,0000*5E
$GPGGA,033154.00,3030.68134214,N,11424.15803314,E,4,10,1.5,38.505,M,-12.681,M,1.0,0000*5D
$GPGGA,033155.00,3030.68134588,N,11424.15803345,E,4,10,1.5,38.487,M,-12.681,M,1.0,0000*51
$GPGGA,033156.00,3030.68134232,N,11424.15803829,E,4,10,1.5,38.505,M,-12.681,M,1.0,0000*5E
$GPGGA,033157.00,3030.68134032,N,11424.15803411,E,4,10,1.5,38.509,M,-12.681,M,1.0,0000*56
$GPGGA,033158.00,3030.68134063,N,11424.15803032,E,4,10,1.5,38.511,M,-12.681,M,2.0,0000*52
$GPGGA,033159.00,3030.68134501,N,11424.15802719,E,4,10,1.5,38.492,M,-12.681,M,2.0,0000*57
$GPGGA,033200.00,3030.68134235,N,11424.15803527,E,4,10,1.5,38.510,M,-12.681,M,1.0,0000*5E
$GPGGA,033201.00,3030.68134255,N,11424.15803069,E,4,10,1.5,38.509,M,-12.681,M,1.0,0000*5E
$GPGGA,033202.00,3030.68134595,N,11424.15803764,E,4,10,1.5,38.503,M,-12.681,M,1.0,0000*56
$GPGGA,033203.00,3030.68134261,N,11424.15803297,E,4,10,1.5,38.497,M,-12.681,M,1.0,0000*5E
$GPGGA,033204.00,3030.68134390,N,11424.15804182,E,4,10,1.5,38.513,M,-12.681,M,1.0,0000*5B
$GPGGA,033205.00,3030.68134280,N,11424.15803272,E,4,10,1.5,38.506,M,-12.681,M,1.0,0000*55
$GPGGA,033206.00,3030.68134352,N,11424.15803665,E,4,10,1.5,38.510,M,-12.681,M,2.0,0000*5E
$GPGGA,033207.00,3030.68134513,N,11424.15802918,E,4,10,1.5,38.492,M,-12.681,M,1.0,0000*50
$GPGGA,033208.00,3030.68134583,N,11424.15802844,E,4,10,1.5,38.494,M,-12.681,M,2.0,0000*5B
$GPGGA,033209.00,3030.68134372,N,11424.15802877,E,4,10,1.5,38.499,M,-12.681,M,1.0,0000*5C
$GPGGA,033210.00,3030.68134417,N,11424.15802646,E,4,10,1.5,38.499,M,-12.681,M,2.0,0000*5F
$GPGGA,033211.00,3030.68134510,N,11424.15803364,E,4,10,1.5,38.497,M,-12.681,M,1.0,0000*51
$GPGGA,033212.00,3030.68134363,N,11424.15803407,E,4,10,1.5,38.512,M,-12.681,M,1.0,0000*5E
$GPGGA,033213.00,3030.68134332,N,11424.15803516,E,4,10,1.5,38.512,M,-12.681,M,1.0,0000*5A
$GPGGA,033214.00,3030.68134444,N,11424.15803197,E,4,10,1.5,38.509,M,-12.681,M,2.0,0000*5F
$GPGGA,033215.00,3030.68134273,N,11424.15802630,E,4,10,1.5,38.507,M,-12.681,M,2.0,0000*59
$GPGGA,033216.00,3030.68134356,N,11424.15803057,E,4,10,1.5,38.515,M,-12.681,M,2.0,0000*59
$GPGGA,033217.00,3030.68134446,N,11424.15802226,E,4,10,1.5,38.497,M,-12.681,M,1.0,0000*53
$GPGGA,033218.00,3030.68134682,N,11424.15802333,E,4,10,1.5,38.506,M,-12.681,M,2.0,0000*59
$GPGGA,033219.00,3030.68134411,N,11424.15802651,E,4,10,1.5,38.499,M,-12.681,M,1.0,0000*55
$GPGGA,033220.00,3030.68134614,N,11424.15802811,E,4,10,1.5,38.500,M,-12.681,M,1.0,0000*53
$GPGGA,033221.00,3030.68134476,N,11424.15802439,E,4,10,1.5,38.500,M,-12.681,M,1.0,0000*52
$GPGGA,033222.00,3030.68134524,N,11424.15803108,E,4,10,1.5,38.509,M,-12.681,M,1.0,0000*58
$GPGGA,033223.00,3030.68134677,N,11424.15803105,E,4,10,1.5,38.508,M,-12.681,M,2.0,0000*53
$GPGGA,033224.00,3030.68134700,N,11424.15802594,E,4,10,1.5,38.494,M,-12.681,M,2.0,0000*5C
$GPGGA,033225.00,3030.68134528,N,11424.15802978,E,4,09,1.5,38.516,M,-12.681,M,2.0,0000*58
$GPGGA,033226.00,3030.68134693,N,11424.15803081,E,4,10,1.5,38.497,M,-12.681,M,1.0,0000*55
$GPGGA,033227.00,3030.68134708,N,11424.15803338,E,4,10,1.5,38.501,M,-12.681,M,2.0,0000*5B
$GPGGA,033228.00,3030.68134473,N,11424.15803271,E,4,10,1.5,38.513,M,-12.681,M,2.0,0000*54
$GPGGA,033229.00,3030.68134806,N,11424.15802782,E,4,10,1.5,38.491,M,-12.681,M,2.0,0000*58
$GPGGA,033230.00,3030.68134747,N,11424.15802870,E,4,10,1.5,38.498,M,-12.681,M,2.0,0000*51
$GPGGA,033231.00,3030.68134805,N,11424.15801850,E,4,10,1.5,38.490,M,-12.681,M,2.0,0000*50
$GPGGA,033232.00,3030.68134978,N,11424.15802628,E,4,10,1.5,38.491,M,-12.681,M,2.0,0000*5B
$GPGGA,033233.00,3030.68134576,N,11424.15802790,E,4,10,1.5,38.505,M,-12.681,M,1.0,0000*55
$GPGGA,033234.00,3030.68134652,N,11424.15802903,E,4,10,1.5,38.507,M,-12.681,M,2.0,0000*52
$GPGGA,033235.00,3030.68134632,N,11424.15803109,E,4,10,1.5,38.500,M,-12.681,M,2.0,0000*51
$GPGGA,033236.00,3030.68134675,N,11424.15802820,E,4,10,1.5,38.502,M,-12.681,M,2.0,0000*50
$GPGGA,033237.00,3030.68134798,N,11424.15802439,E,4,10,1.5,38.497,M,-12.681,M,3.0,0000*5B
$GPGGA,033238.00,3030.68134584,N,11424.15803074,E,4,10,1.5,38.505,M,-12.681,M,3.0,0000*5D
