$GPGGA,031835.00,3030.67463554,N,11424.15864068,E,4,12,0.7,36.639,M,-12.681,M,2.0,0000*53
$GPGGA,031836.00,3030.67463635,N,11424.15863845,E,4,12,0.7,36.639,M,-12.681,M,2.0,0000*54
$GPGGA,031837.00,3030.67463529,N,11424.15863925,E,4,12,0.7,36.627,M,-12.681,M,1.0,0000*50
$GPGGA,031838.00,3030.67463797,N,11424.15863615,E,4,12,0.7,36.637,M,-12.681,M,1.0,0000*55
$GPGGA,031839.00,3030.67463746,N,11424.15863733,E,4,12,0.7,36.639,M,-12.681,M,2.0,0000*50
$GPGGA,031840.00,3030.67464003,N,11424.15863743,E,4,12,0.7,36.630,M,-12.681,M,2.0,0000*51
$GPGGA,031841.00,3030.67463619,N,11424.15863883,E,4,12,0.7,36.639,M,-12.681,M,1.0,0000*53
$GPGGA,031842.00,3030.67463606,N,11424.15863564,E,4,12,0.7,36.623,M,-12.681,M,2.0,0000*52
$GPGGA,031843.00,3030.67463766,N,11424.15863684,E,4,12,0.7,36.629,M,-12.681,M,2.0,0000*53
$GPGGA,031844.00,3030.67463861,N,11424.15863537,E,4,12,0.7,36.602,M,-12.681,M,1.0,0000*5D
$GPGGA,031845.00,3030.67463756,N,11424.15863800,E,4,12,0.7,36.623,M,-12.681,M,1.0,0000*5D
$GPGGA,031846.00,3030.67463612,N,11424.15863935,E,4,12,0.7,36.622,M,-12.681,M,2.0,0000*5A
$GPGGA,031847.00,3030.67463651,N,11424.15863542,E,4,12,0.7,36.609,M,-12.681,M,2.0,0000*59
$GPGGA,031848.00,3030.67463849,N,11424.15863506,E,4,12,0.7,36.603,M,-12.681,M,2.0,0000*5B
$GPGGA,031849.00,3030.67463836,N,11424.15863749,E,4,12,0.7,36.627,M,-12.681,M,1.0,0000*5E
$GPGGA,031850.00,3030.67463975,N,11424.15863505,E,4,12,0.7,36.609,M,-12.681,M,1.0,0000*56
$GPGGA,031851.00,3030.67463853,N,11424.15863384,E,4,12,0.7,36.614,M,-12.681,M,2.0,0000*52
$GPGGA,031852.00,3030.67463766,N,11424.15863508,E,4,12,0.7,36.624,M,-12.681,M,2.0,0000*59
$GPGGA,031853.00,3030.67463574,N,11424.15863777,E,4,12,0.7,36.624,M,-12.681,M,2.0,0000*53
$GPGGA,031854.00,3030.67464020,N,11424.15863047,E,4,12,0.7,36.609,M,-12.681,M,1.0,0000*5F
$GPGGA,031855.00,3030.67463778,N,11424.15863432,E,4,12,0.7,36.618,M,-12.681,M,2.0,0000*56
$GPGGA,031856.00,3030.67463523,N,11424.15863912,E,4,12,0.7,36.619,M,-12.681,M,1.0,0000*54
$GPGGA,031857.00,3030.67463673,N,11424.15863343,E,4,12,0.7,36.618,M,-12.681,M,2.0,0000*5F
$GPGGA,031858.00,3030.67464147,N,11424.15863012,E,4,12,0.7,36.621,M,-12.681,M,1.0,0000*59
$GPGGA,031859.00,3030.67463652,N,11424.15863448,E,4,12,0.7,36.635,M,-12.681,M,2.0,0000*51
$GPGGA,031900.00,3030.67463797,N,11424.15863469,E,4,12,0.7,36.621,M,-12.681,M,2.0,0000*52
$GPGGA,031901.00,3030.67463576,N,11424.15863777,E,4,12,0.7,36.640,M,-12.681,M,2.0,0000*55
$GPGGA,031902.00,3030.67463731,N,11424.15863472,E,4,12,0.7,36.644,M,-12.681,M,2.0,0000*55
$GPGGA,031903.00,3030.67463737,N,11424.15863427,E,4,12,0.7,36.623,M,-12.681,M,1.0,0000*50
$GPGGA,031904.00,3030.67464012,N,11424.15863126,E,4,12,0.7,36.624,M,-12.681,M,1.0,0000*53
$GPGGA,031905.00,3030.67463517,N,11424.15863717,E,4,12,0.7,36.635,M,-12.681,M,1.0,0000*51
$GPGGA,031906.00,3030.67463536,N,11424.15864188,E,4,12,0.7,36.636,M,-12.681,M,1.0,0000*55
$GPGGA,031907.00,3030.67463515,N,11424.15864202,E,4,12,0.7,36.638,M,-12.681,M,1.0,0000*5A
$GPGGA,031908.00,3030.67463591,N,11424.15864030,E,4,12,0.7,36.648,M,-12.681,M,2.0,0000*5E
$GPGGA,031909.00,3030.67463734,N,11424.15863845,E,4,12,0.7,36.641,M,-12.681,M,2.0,0000*56
$GPGGA,031910.00,3030.67463675,N,11424.15863530,E,4,12,0.7,36.637,M,-12.681,M,2.0,0000*54
$GPGGA,031911.00,3030.67463541,N,11424.15864046,E,4,12,0.7,36.648,M,-12.681,M,1.0,0000*59
$GPGGA,031912.00,3030.67463430,N,11424.15864138,E,4,12,0.7,36.640,M,-12.681,M,1.0,0000*5D
$GPGGA,031913.00,3030.67463436,N,11424.15864122,E,4,12,0.7,36.648,M,-12.681,M,2.0,0000*5A
$GPGGA,031914.00,3030.67463457,N,11424.15864009,E,4,12,0.7,36.641,M,-12.681,M,2.0,0000*5B
$GPGGA,031915.00,3030.67463428,N,11424.15863820,E,4,12,0.7,36.642,M,-12.681,M,2.0,0000*55
$GPGGA,031916.00,3030.67463744,N,11424.15863631,E,4,12,0.7,36.636,M,-12.681,M,2.0,0000*52
$GPGGA,031917.00,3030.67463505,N,11424.15863916,E,4,12,0.7,36.626,M,-12.681,M,2.0,0000*5F
$GPGGA,031918.00,3030.67463411,N,11424.15863991,E,4,12,0.7,36.633,M,-12.681,M,2.0,0000*5F
$GPGGA,031919.00,3030.67463622,N,11424.15863702,E,4,12,0.7,36.632,M,-12.681,M,1.0,0000*5A
$GPGGA,031920.00,3030.67463626,N,11424.15863866,E,4,12,0.7,36.639,M,-12.681,M,1.0,0000*52
$GPGGA,031921.00,3030.67463239,N,11424.15863929,E,4,12,0.7,36.638,M,-12.681,M,1.0,0000*52
$GPGGA,031922.00,3030.67463381,N,11424.15863970,E,4,12,0.7,36.630,M,-12.681,M,2.0,0000*54
$GPGGA,031923.00,3030.67463903,N,11424.15863540,E,4,12,0.7,36.627,M,-12.681,M,1.0,0000*5F
$GPGGA,031924.00,3030.67463674,N,11424.15863913,E,4,12,0.7,36.619,M,-12.681,M,1.0,0000*50
$GPGGA,031925.00,3030.67463275,N,11424.15864253,E,4,12,0.7,36.658,M,-12.681,M,2.0,0000*5A
$GPGGA,031926.00,3030.67463685,N,11424.15863929,E,4,12,0.7,36.620,M,-12.681,M,1.0,0000*5F
$GPGGA,031927.00,3030.67463730,N,11424.15863543,E,4,12,0.7,36.611,M,-12.681,M,2.0,0000*50
$GPGGA,031928.00,3030.67463063,N,11424.15864007,E,4,12,0.7,36.639,M,-12.681,M,1.0,0000*55
$GPGGA,031929.00,3030.67463716,N,11424.15863960,E,4,12,0.7,36.618,M,-12.681,M,1.0,0000*5D
$GPGGA,031930.00,3030.67463611,N,11424.15863784,E,4,11,0.7,36.622,M,-12.681,M,1.0,0000*5D
$GPGGA,031931.00,3030.67463393,N,11424.15863880,E,4,11,0.7,36.626,M,-12.681,M,1.0,0000*5C
$GPGGA,031932.00,3030.67463859,N,11424.15863342,E,4,11,0.7,36.596,M,-12.681,M,1.0,0000*5F
$GPGGA,031933.00,3030.67464142,N,11424.15863402,E,4,11,0.7,36.607,M,-12.681,M,1.0,0000*52
$GPGGA,031934.00,3030.67463290,N,11424.15863721,E,4,11,0.7,36.637,M,-12.681,M,1.0,0000*5F
$GPGGA,031935.00,3030.67463594,N,11424.15863689,E,4,11,0.7,36.638,M,-12.681,M,2.0,0000*52
$GPGGA,031936.00,3030.67463981,N,11424.15863566,E,4,11,0.7,36.600,M,-12.681,M,1.0,0000*53
$GPGGA,031937.00,3030.67463380,N,11424.15863726,E,4,11,0.7,36.621,M,-12.681,M,1.0,0000*5C
$GPGGA,031938.00,3030.67463703,N,11424.15863818,E,4,11,0.7,36.630,M,-12.681,M,1.0,0000*5E
$GPGGA,031939.00,3030.67463666,N,11424.15863842,E,4,11,0.7,36.635,M,-12.681,M,2.0,0000*54
$GPGGA,031940.00,3030.67463622,N,11424.15863956,E,4,11,0.7,36.625,M,-12.681,M,1.0,0000*5C
$GPGGA,031941.00,3030.67463538,N,11424.15863563,E,4,11,0.7,36.623,M,-12.681,M,1.0,0000*59
$GPGGA,031942.00,3030.67463901,N,11424.15863331,E,4,11,0.7,36.598,M,-12.681,M,1.0,0000*5E
$GPGGA,031943.00,3030.67463462,N,11424.15863951,E,4,11,0.7,36.621,M,-12.681,M,1.0,0000*5A
$GPGGA,031944.00,3030.67463607,N,11424.15863720,E,4,11,0.7,36.626,M,-12.681,M,2.0,0000*50
$GPGGA,031945.00,3030.67463455,N,11424.15863912,E,4,11,0.7,36.632,M,-12.681,M,1.0,0000*5D
$GPGGA,031946.00,3030.67463564,N,11424.15863551,E,4,11,0.7,36.615,M,-12.681,M,1.0,0000*53
$GPGGA,031947.00,3030.67463594,N,11424.15863412,E,4,11,0.7,36.623,M,-12.681,M,2.0,0000*5D
$GPGGA,031948.00,3030.67463348,N,11424.15864107,E,4,11,0.7,36.631,M,-12.681,M,1.0,0000*53
$GPGGA,031949.00,3030.67463421,N,11424.15863754,E,4,11,0.7,36.634,M,-12.681,M,1.0,0000*58
$GPGGA,031950.00,3030.67463512,N,11424.15864038,E,4,11,0.7,36.619,M,-12.681,M,1.0,0000*54
$GPGGA,031951.00,3030.67463510,N,11424.15863866,E,4,11,0.7,36.617,M,-12.681,M,1.0,0000*5D
$GPGGA,031952.00,3030.67463339,N,11424.15864094,E,4,11,0.7,36.623,M,-12.681,M,2.0,0000*55
$GPGGA,031953.00,3030.67463633,N,11424.15863817,E,4,11,0.7,36.623,M,-12.681,M,1.0,0000*5C
$GPGGA,031954.00,3030.67463342,N,11424.15864125,E,4,11,0.7,36.629,M,-12.681,M,1.0,0000*5D
$GPGGA,031955.00,3030.67463562,N,11424.15863756,E,4,11,0.7,36.624,M,-12.681,M,2.0,0000*53
$GPGGA,031956.00,3030.67463311,N,11424.15864148,E,4,11,0.7,36.629,M,-12.681,M,2.0,0000*51
$GPGGA,031957.00,3030.67463413,N,11424.15864255,E,4,11,0.7,36.621,M,-12.681,M,1.0,0000*51
$GPGGA,031958.00,3030.67463584,N,11424.15863577,E,4,11,0.7,36.614,M,-12.681,M,1.0,0000*57
$GPGGA,031959.00,3030.67463007,N,11424.15863891,E,4,11,0.7,36.639,M,-12.681,M,1.0,0000*52
$GPGGA,032000.00,3030.67463141,N,11424.15864304,E,4,11,0.7,36.642,M,-12.681,M,2.0,0000*58
$GPGGA,032001.00,3030.67462997,N,11424.15864399,E,4,11,0.7,36.650,M,-12.681,M,1.0,0000*5F
$GPGGA,032002.00,3030.67463798,N,11424.15863705,E,4,11,0.7,36.618,M,-12.681,M,1.0,0000*56
$GPGGA,032003.00,3030.67463898,N,11424.15863948,E,4,11,0.7,36.599,M,-12.681,M,1.0,0000*55
$GPGGA,032004.00,3030.67463888,N,11424.15863760,E,4,11,0.7,36.614,M,-12.681,M,1.0,0000*51
$GPGGA,032005.00,3030.67463822,N,11424.15863690,E,4,11,0.7,36.617,M,-12.681,M,2.0,0000*5E
$GPGGA,032006.00,3030.67463765,N,11424.15863858,E,4,11,0.7,36.614,M,-12.681,M,1.0,0000*5B
$GPGGA,032007.00,3030.67463661,N,11424.15863723,E,4,11,0.7,36.622,M,-12.681,M,1.0,0000*59
$GPGGA,032008.00,3030.67463653,N,11424.15864083,E,4,11,0.7,36.633,M,-12.681,M,1.0,0000*5D
$GPGGA,032009.00,3030.67463489,N,11424.15864067,E,4,11,0.7,36.634,M,-12.681,M,2.0,0000*57
$GPGGA,032010.00,3030.67463314,N,11424.15864665,E,4,11,0.7,36.648,M,-12.681,M,1.0,0000*50
$GPGGA,032011.00,3030.67463347,N,11424.15864191,E,4,11,0.7,36.643,M,-12.681,M,1.0,0000*50
$GPGGA,032012.00,3030.67463688,N,11424.15864291,E,4,11,0.7,36.630,M,-12.681,M,1.0,0000*52
$GPGGA,032013.00,3030.67463552,N,11424.15864404,E,4,11,0.7,36.639,M,-12.681,M,2.0,0000*57
$GPGGA,032014.00,3030.67463391,N,11424.15864268,E,4,11,0.7,36.647,M,-12.681,M,1.0,0000*5F
$GPGGA,032015.00,3030.67463321,N,11424.15864514,E,4,11,0.7,36.644,M,-12.681,M,1.0,0000*5A
$GPGGA,032016.00,3030.67463115,N,11424.15864619,E,4,11,0.7,36.650,M,-12.681,M,2.0,0000*54
$GPGGA,032017.00,3030.67463431,N,11424.15864299,E,4,11,0.7,36.641,M,-12.681,M,1.0,0000*59
$GPGGA,032018.00,3030.67463334,N,11424.15864374,E,4,11,0.7,36.644,M,-12.681,M,2.0,0000*50
$GPGGA,032019.00,3030.67463537,N,11424.15864518,E,4,11,0.7,36.627,M,-12.681,M,1.0,0000*5E
$GPGGA,032020.00,3030.67463093,N,11424.15864559,E,4,11,0.7,36.645,M,-12.681,M,1.0,0000*5E
$GPGGA,032021.00,3030.67463028,N,11424.15864661,E,4,11,0.7,36.646,M,-12.681,M,1.0,0000*54
$GPGGA,032022.00,3030.67463313,N,11424.15864618,E,4,11,0.7,36.638,M,-12.681,M,1.0,0000*5B
$GPGGA,032023.00,3030.67463179,N,11424.15864459,E,4,11,0.7,36.644,M,-12.681,M,1.0,0000*58
$GPGGA,032024.00,3030.67463096,N,11424.15864629,E,4,11,0.7,36.645,M,-12.681,M,1.0,0000*5B
$GPGGA,032025.00,3030.67463080,N,11424.15864570,E,4,12,0.7,36.645,M,-12.681,M,2.0,0000*52
$GPGGA,032026.00,3030.67463359,N,11424.15864560,E,4,12,0.7,36.640,M,-12.681,M,1.0,0000*51
$GPGGA,032027.00,3030.67463376,N,11424.15864315,E,4,12,0.7,36.634,M,-12.681,M,1.0,0000*5A
$GPGGA,032028.00,3030.67463444,N,11424.15864380,E,4,12,0.7,36.634,M,-12.681,M,1.0,0000*5F
$GPGGA,032029.00,3030.67463326,N,11424.15864379,E,4,12,0.7,36.643,M,-12.681,M,2.0,0000*58
$GPGGA,032030.00,3030.67463393,N,11424.15864302,E,4,12,0.7,36.643,M,-12.681,M,3.0,0000*53
$GPGGA,032031.00,3030.67463567,N,11424.15864085,E,4,12,0.7,36.644,M,-12.681,M,2.0,0000*55
$GPGGA,032032.00,3030.67463395,N,11424.15864479,E,4,12,0.7,36.639,M,-12.681,M,2.0,0000*50
$GPGGA,032033.00,3030.67463451,N,11424.15864161,E,4,12,0.7,36.642,M,-12.681,M,1.0,0000*5D
$GPGGA,032034.00,3030.67463387,N,11424.15864053,E,4,12,0.7,36.645,M,-12.681,M,2.0,0000*52
$GPGGA,032035.00,3030.67463242,N,11424.15864469,E,4,12,0.7,36.641,M,-12.681,M,2.0,0000*52
$GPGGA,032036.00,3030.67463157,N,11424.15864464,E,4,12,0.7,36.643,M,-12.681,M,2.0,0000*59
$GPGGA,032037.00,3030.67463664,N,11424.15864010,E,4,12,0.7,36.637,M,-12.681,M,1.0,0000*58
$GPGGA,032038.00,3030.67464163,N,11424.15863731,E,4,12,0.7,36.610,M,-12.681,M,1.0,0000*56
$GPGGA,032039.00,3030.67463284,N,11424.15864568,E,4,12,0.7,36.639,M,-12.681,M,1.0,0000*58
$GPGGA,032040.00,3030.67463889,N,11424.15863885,E,4,12,0.7,36.617,M,-12.681,M,1.0,0000*54
$GPGGA,032041.00,3030.67463501,N,11424.15864235,E,4,12,0.7,36.626,M,-12.681,M,1.0,0000*5C
$GPGGA,032042.00,3030.67463192,N,11424.15864472,E,4,12,0.7,36.647,M,-12.681,M,2.0,0000*50
$GPGGA,032043.00,3030.67463546,N,11424.15864177,E,4,12,0.7,36.636,M,-12.681,M,2.0,0000*5A
$GPGGA,032044.00,3030.67463827,N,11424.15864007,E,4,12,0.7,36.607,M,-12.681,M,1.0,0000*50
$GPGGA,032045.00,3030.67463601,N,11424.15864288,E,4,12,0.7,36.628,M,-12.681,M,2.0,0000*50
$GPGGA,032046.00,3030.67463665,N,11424.15864519,E,4,12,0.7,36.623,M,-12.681,M,1.0,0000*56
$GPGGA,032047.00,3030.67463234,N,11424.15864594,E,4,12,0.7,36.637,M,-12.681,M,1.0,0000*57
$GPGGA,032048.00,3030.67463326,N,11424.15864790,E,4,12,0.7,36.643,M,-12.681,M,1.0,0000*5F
$GPGGA,032049.00,3030.67463743,N,11424.15864263,E,4,12,0.7,36.633,M,-12.681,M,1.0,0000*57
$GPGGA,032050.00,3030.67463401,N,11424.15864647,E,4,12,0.7,36.637,M,-12.681,M,1.0,0000*5C
$GPGGA,032051.00,3030.67463457,N,11424.15864564,E,4,12,0.7,36.645,M,-12.681,M,2.0,0000*5A
$GPGGA,032052.00,3030.67463198,N,11424.15864400,E,4,12,0.7,36.653,M,-12.681,M,2.0,0000*5B
$GPGGA,032053.00,3030.67463063,N,11424.15864894,E,4,12,0.7,36.636,M,-12.681,M,1.0,0000*5E
$GPGGA,032054.00,3030.67463297,N,11424.15864729,E,4,12,0.7,36.650,M,-12.681,M,1.0,0000*59
$GPGGA,032055.00,3030.67463242,N,11424.15864802,E,4,12,0.7,36.658,M,-12.681,M,2.0,0000*5D
$GPGGA,032056.00,3030.67463278,N,11424.15864811,E,4,12,0.7,36.665,M,-12.681,M,2.0,0000*5B
$GPGGA,032057.00,3030.67463407,N,11424.15864911,E,4,12,0.7,36.631,M,-12.681,M,1.0,0000*57
$GPGGA,032058.00,3030.67463624,N,11424.15864498,E,4,12,0.7,36.632,M,-12.681,M,1.0,0000*54
$GPGGA,032059.00,3030.67463703,N,11424.15864240,E,4,12,0.7,36.632,M,-12.681,M,1.0,0000*52
$GPGGA,032100.00,3030.67463372,N,11424.15864628,E,4,12,0.7,36.637,M,-12.681,M,1.0,0000*52
$GPGGA,032101.00,3030.67463850,N,11424.15864401,E,4,12,0.7,36.634,M,-12.681,M,1.0,0000*52
$GPGGA,032102.00,3030.67463196,N,11424.15864715,E,4,12,0.7,36.649,M,-12.681,M,1.0,0000*5E
$GPGGA,032103.00,3030.67463265,N,11424.15864552,E,4,12,0.7,36.641,M,-12.681,M,2.0,0000*5A
$GPGGA,032104.00,3030.67463453,N,11424.15864783,E,4,12,0.7,36.636,M,-12.681,M,1.0,0000*53
$GPGGA,032105.00,3030.67463400,N,11424.15864748,E,4,12,0.7,36.645,M,-12.681,M,1.0,0000*57
$GPGGA,032106.00,3030.67463243,N,11424.15864797,E,4,12,0.7,36.648,M,-12.681,M,1.0,0000*5A
$GPGGA,032107.00,3030.67463629,N,11424.15864870,E,4,12,0.7,36.633,M,-12.681,M,1.0,0000*59
$GPGGA,032108.00,3030.67463351,N,11424.15865046,E,4,12,0.7,36.654,M,-12.681,M,2.0,0000*52
$GPGGA,032109.00,3030.67463313,N,11424.15864762,E,4,12,0.7,36.649,M,-12.681,M,2.0,0000*59
$GPGGA,032110.00,3030.67463448,N,11424.15865110,E,4,12,0.7,36.636,M,-12.681,M,1.0,0000*51
$GPGGA,032111.00,3030.67463527,N,11424.15864645,E,4,12,0.7,36.638,M,-12.681,M,1.0,0000*50
$GPGGA,032112.00,3030.67463208,N,11424.15864934,E,4,12,0.7,36.660,M,-12.681,M,1.0,0000*5D
$GPGGA,032113.00,3030.67463228,N,11424.15864918,E,4,12,0.7,36.665,M,-12.681,M,2.0,0000*56
$GPGGA,032114.00,3030.67463700,N,11424.15864691,E,4,12,0.7,36.632,M,-12.681,M,1.0,0000*51
$GPGGA,032115.00,3030.67463007,N,11424.15864964,E,4,13,0.6,36.650,M,-12.681,M,1.0,0000*51
$GPGGA,032116.00,3030.67463683,N,11424.15864854,E,4,12,0.6,36.630,M,-12.681,M,1.0,0000*5D
$GPGGA,032117.00,3030.67463518,N,11424.15864604,E,4,12,0.6,36.632,M,-12.681,M,2.0,0000*57
$GPGGA,032118.00,3030.67463526,N,11424.15864817,E,4,12,0.6,36.643,M,-12.681,M,2.0,0000*5F
$GPGGA,032119.00,3030.67463660,N,11424.15864627,E,4,13,0.6,36.640,M,-12.681,M,1.0,0000*53
$GPGGA,032120.00,3030.67463537,N,11424.15864854,E,4,13,0.6,36.631,M,-12.681,M,1.0,0000*54
$GPGGA,032121.00,3030.67463886,N,11424.15864688,E,4,13,0.6,36.614,M,-12.681,M,1.0,0000*5A
$GPGGA,032122.00,3030.67463412,N,11424.15865001,E,4,13,0.6,36.636,M,-12.681,M,2.0,0000*5D
$GPGGA,032123.00,3030.67463322,N,11424.15864985,E,4,13,0.6,36.646,M,-12.681,M,3.0,0000*5A
$GPGGA,032124.00,3030.67463382,N,11424.15864860,E,4,13,0.6,36.656,M,-12.681,M,3.0,0000*5C
$GPGGA,032125.00,3030.67463723,N,11424.15864755,E,4,13,0.6,36.645,M,-12.681,M,2.0,0000*58
$GPGGA,032126.00,3030.67463690,N,11424.15864357,E,4,13,0.6,36.648,M,-12.681,M,2.0,0000*59
$GPGGA,032127.00,3030.67463520,N,11424.15864756,E,4,13,0.6,36.630,M,-12.681,M,1.0,0000*59
$GPGGA,032128.00,3030.67463669,N,11424.15864790,E,4,13,0.6,36.640,M,-12.681,M,1.0,0000*55
$GPGGA,032129.00,3030.67463410,N,11424.15864438,E,4,13,0.6,36.639,M,-12.681,M,1.0,0000*57
$GPGGA,032130.00,3030.67463525,N,11424.15864722,E,4,13,0.6,36.636,M,-12.681,M,1.0,0000*5F
$GPGGA,032131.00,3030.67463605,N,11424.15864501,E,4,13,0.6,36.631,M,-12.681,M,1.0,0000*5B
$GPGGA,032132.00,3030.67463434,N,11424.15864407,E,4,13,0.6,36.625,M,-12.681,M,1.0,0000*5A
$GPGGA,032133.00,3030.67463687,N,11424.15864719,E,4,13,0.6,36.622,M,-12.681,M,1.0,0000*5A
$GPGGA,032134.00,3030.67463655,N,11424.15864570,E,4,13,0.6,36.635,M,-12.681,M,2.0,0000*5A
$GPGGA,032135.00,3030.67463587,N,11424.15864551,E,4,13,0.6,36.646,M,-12.681,M,2.0,0000*50
$GPGGA,032136.00,3030.67463433,N,11424.15864533,E,4,13,0.6,36.621,M,-12.681,M,1.0,0000*5B
$GPGGA,032137.00,3030.67463750,N,11424.15864760,E,4,13,0.6,36.643,M,-12.681,M,1.0,0000*5C
$GPGGA,032138.00,3030.67463640,N,11424.15864746,E,4,13,0.6,36.641,M,-12.681,M,2.0,0000*56
$GPGGA,032139.00,3030.67463405,N,11424.15864668,E,4,13,0.6,36.631,M,-12.681,M,2.0,0000*5E
$GPGGA,032140.00,3030.67463451,N,11424.15864621,E,4,13,0.6,36.632,M,-12.681,M,1.0,0000*5C
$GPGGA,032141.00,3030.67463055,N,11424.15865127,E,4,13,0.6,36.629,M,-12.681,M,1.0,0000*57
$GPGGA,032142.00,3030.67463384,N,11424.15864603,E,4,13,0.6,36.618,M,-12.681,M,2.0,0000*5A
$GPGGA,032143.00,3030.67463421,N,11424.15864492,E,4,13,0.6,36.640,M,-12.681,M,1.0,0000*57
$GPGGA,032144.00,3030.67463255,N,11424.15864864,E,4,13,0.6,36.649,M,-12.681,M,2.0,0000*5A
$GPGGA,032145.00,3030.67463154,N,11424.15864903,E,4,13,0.6,36.631,M,-12.681,M,2.0,0000*56
$GPGGA,032146.00,3030.67463210,N,11424.15864573,E,4,13,0.6,36.646,M,-12.681,M,1.0,0000*5E
$GPGGA,032147.00,3030.67463499,N,11424.15864347,E,4,13,0.6,36.633,M,-12.681,M,2.0,0000*58
$GPGGA,032148.00,3030.67463443,N,11424.15864540,E,4,13,0.6,36.642,M,-12.681,M,2.0,0000*57
$GPGGA,032149.00,3030.67463792,N,11424.15864439,E,4,13,0.6,36.622,M,-12.681,M,1.0,0000*53
$GPGGA,032150.00,3030.67463415,N,11424.15864761,E,4,13,0.6,36.630,M,-12.681,M,2.0,0000*59
$GPGGA,032151.00,3030.67463293,N,11424.15864841,E,4,13,0.6,36.629,M,-12.681,M,1.0,0000*56
$GPGGA,032152.00,3030.67463131,N,11424.15865362,E,4,13,0.6,36.649,M,-12.681,M,1.0,0000*53
$GPGGA,032153.00,3030.67463250,N,11424.15865268,E,4,13,0.6,36.661,M,-12.681,M,1.0,0000*57
$GPGGA,032154.00,3030.67463255,N,11424.15865236,E,4,13,0.6,36.666,M,-12.681,M,1.0,0000*59
$GPGGA,032155.00,3030.67463203,N,11424.15865117,E,4,13,0.6,36.677,M,-12.681,M,2.0,0000*58
$GPGGA,032156.00,3030.67463036,N,11424.15865532,E,4,13,0.6,36.650,M,-12.681,M,1.0,0000*5A
$GPGGA,032157.00,3030.67463122,N,11424.15865142,E,4,13,0.6,36.643,M,-12.681,M,1.0,0000*5E
$GPGGA,032158.00,3030.67463151,N,11424.15865135,E,4,13,0.6,36.651,M,-12.681,M,1.0,0000*56
$GPGGA,032159.00,3030.67463201,N,11424.15865139,E,4,12,0.7,36.643,M,-12.681,M,1.0,0000*5E
$GPGGA,032200.00,3030.67463120,N,11424.15865176,E,4,12,0.7,36.649,M,-12.681,M,2.0,0000*53
$GPGGA,032201.00,3030.67463030,N,11424.15865464,E,4,12,0.7,36.658,M,-12.681,M,1.0,0000*57
$GPGGA,032202.00,3030.67463869,N,11424.15864747,E,4,12,0.7,36.630,M,-12.681,M,1.0,0000*5D
$GPGGA,032203.00,3030.67463358,N,11424.15865112,E,4,12,0.7,36.650,M,-12.681,M,1.0,0000*54
$GPGGA,032204.00,3030.67463190,N,11424.15865307,E,4,12,0.7,36.648,M,-12.681,M,1.0,0000*5A
$GPGGA,032205.00,3030.67463225,N,11424.15865174,E,4,12,0.7,36.641,M,-12.681,M,1.0,0000*59
$GPGGA,032206.00,3030.67463364,N,11424.15865052,E,4,12,0.7,36.632,M,-12.681,M,2.0,0000*5C
$GPGGA,032207.00,3030.67463502,N,11424.15865063,E,4,12,0.7,36.643,M,-12.681,M,1.0,0000*5C
$GPGGA,032208.00,3030.67463321,N,11424.15865299,E,4,12,0.7,36.641,M,-12.681,M,1.0,0000*51
$GPGGA,032209.00,3030.67463726,N,11424.15865284,E,4,12,0.7,36.627,M,-12.681,M,1.0,0000*5F
$GPGGA,032210.00,3030.67463556,N,11424.15865103,E,4,12,0.7,36.640,M,-12.681,M,1.0,0000*5F
$GPGGA,032211.00,3030.67463427,N,11424.15865027,E,4,12,0.7,36.639,M,-12.681,M,1.0,0000*50
$GPGGA,032212.00,3030.67463261,N,11424.15865239,E,4,12,0.7,36.647,M,-12.681,M,2.0,0000*50
$GPGGA,032213.00,3030.67463276,N,11424.15865533,E,4,12,0.7,36.668,M,-12.681,M,1.0,0000*54
$GPGGA,032214.00,3030.67463711,N,11424.15864889,E,4,12,0.7,36.616,M,-12.681,M,1.0,0000*53
$GPGGA,032215.00,3030.67463337,N,11424.15865414,E,4,12,0.7,36.636,M,-12.681,M,1.0,0000*59
$GPGGA,032216.00,3030.67463459,N,11424.15865281,E,4,12,0.7,36.636,M,-12.681,M,2.0,0000*5C
$GPGGA,032217.00,3030.67463520,N,11424.15865232,E,4,12,0.7,36.657,M,-12.681,M,2.0,0000*5D
$GPGGA,032218.00,3030.67463265,N,11424.15865296,E,4,12,0.7,36.659,M,-12.681,M,2.0,0000*54
$GPGGA,032219.00,3030.67463581,N,11424.15865330,E,4,12,0.7,36.631,M,-12.681,M,1.0,0000*58
$GPGGA,032220.00,3030.67463441,N,11424.15865408,E,4,12,0.7,36.652,M,-12.681,M,2.0,0000*55
$GPGGA,032221.00,3030.67463399,N,11424.15865309,E,4,12,0.7,36.630,M,-12.681,M,2.0,0000*54
$GPGGA,032222.00,3030.67463255,N,11424.15865547,E,4,12,0.7,36.649,M,-12.681,M,2.0,0000*54
$GPGGA,032223.00,3030.67463100,N,11424.15865630,E,4,12,0.7,36.653,M,-12.681,M,1.0,0000*5D
$GPGGA,032224.00,3030.67463573,N,11424.15865141,E,4,12,0.7,36.634,M,-12.681,M,1.0,0000*5A
$GPGGA,032225.00,3030.67463626,N,11424.15865205,E,4,12,0.7,36.638,M,-12.681,M,2.0,0000*54
$GPGGA,032226.00,3030.67463689,N,11424.15865008,E,4,12,0.7,36.640,M,-12.681,M,1.0,0000*51
$GPGGA,032227.00,3030.67463357,N,11424.15865204,E,4,12,0.7,36.649,M,-12.681,M,1.0,0000*51
$GPGGA,032228.00,3030.67463152,N,11424.15865616,E,4,12,0.7,36.648,M,-12.681,M,1.0,0000*5F
$GPGGA,032229.00,3030.67463694,N,11424.15865149,E,4,12,0.7,36.637,M,-12.681,M,2.0,0000*55
$GPGGA,032230.00,3030.67464015,N,11424.15864805,E,4,12,0.7,36.637,M,-12.681,M,2.0,0000*55
$GPGGA,032231.00,3030.67464061,N,11424.15864898,E,4,12,0.7,36.643,M,-12.681,M,3.0,0000*51
$GPGGA,032232.00,3030.67463873,N,11424.15865084,E,4,12,0.7,36.651,M,-12.681,M,3.0,0000*59
$GPGGA,032233.00,3030.67463672,N,11424.15865280,E,4,12,0.7,36.644,M,-12.681,M,2.0,0000*54
$GPGGA,032234.00,3030.67463514,N,11424.15865214,E,4,12,0.7,36.637,M,-12.681,M,2.0,0000*59
$GPGGA,032235.00,3030.67463560,N,11424.15865230,E,4,12,0.7,36.627,M,-12.681,M,2.0,0000*5C
$GPGGA,032236.00,3030.67463610,N,11424.15865069,E,4,12,0.7,36.622,M,-12.681,M,2.0,0000*50
$GPGGA,032237.00,3030.67463271,N,11424.15865581,E,4,12,0.7,36.650,M,-12.681,M,2.0,0000*54
$GPGGA,032238.00,3030.67463504,N,11424.15865267,E,4,12,0.7,36.635,M,-12.681,M,2.0,0000*52
$GPGGA,032239.00,3030.67463278,N,11424.15865656,E,4,12,0.7,36.647,M,-12.681,M,1.0,0000*5F
$GPGGA,032240.00,3030.67463763,N,11424.15865155,E,4,12,0.7,36.636,M,-12.681,M,1.0,0000*5C
$GPGGA,032241.00,3030.67463293,N,11424.15865545,E,4,12,0.7,36.679,M,-12.681,M,2.0,0000*5A
$GPGGA,032242.00,3030.67463223,N,11424.15865596,E,4,12,0.7,36.663,M,-12.681,M,1.0,0000*54
$GPGGA,032243.00,3030.67463394,N,11424.15865688,E,4,12,0.7,36.668,M,-12.681,M,1.0,0000*5F
$GPGGA,032244.00,3030.67463174,N,11424.15865467,E,4,12,0.7,36.655,M,-12.681,M,1.0,0000*59
$GPGGA,032245.00,3030.67463159,N,11424.15865565,E,4,12,0.7,36.675,M,-12.681,M,1.0,0000*56
$GPGGA,032246.00,3030.67463321,N,11424.15865317,E,4,12,0.7,36.678,M,-12.681,M,2.0,0000*55
$GPGGA,032247.00,3030.67463342,N,11424.15865280,E,4,12,0.7,36.652,M,-12.681,M,2.0,0000*56
$GPGGA,032248.00,3030.67463369,N,11424.15865395,E,4,12,0.7,36.655,M,-12.681,M,2.0,0000*52
$GPGGA,032249.00,3030.67463483,N,11424.15865397,E,4,12,0.7,36.645,M,-12.681,M,2.0,0000*53
$GPGGA,032250.00,3030.67463429,N,11424.15865413,E,4,12,0.7,36.643,M,-12.681,M,1.0,0000*55
$GPGGA,032251.00,3030.67463219,N,11424.15865553,E,4,12,0.7,36.681,M,-12.681,M,2.0,0000*59
$GPGGA,032252.00,3030.67463471,N,11424.15865634,E,4,12,0.7,36.676,M,-12.681,M,1.0,0000*5B
$GPGGA,032253.00,3030.67463012,N,11424.15866020,E,4,12,0.7,36.689,M,-12.681,M,1.0,0000*5B
$GPGGA,032254.00,3030.67463367,N,11424.15865502,E,4,12,0.7,36.651,M,-12.681,M,2.0,0000*5D
$GPGGA,032255.00,3030.67463198,N,11424.15865736,E,4,11,0.7,36.699,M,-12.681,M,2.0,0000*5C
$GPGGA,032256.00,3030.67463156,N,11424.15865835,E,4,11,0.7,36.675,M,-12.681,M,1.0,0000*50
$GPGGA,032257.00,3030.67463416,N,11424.15865127,E,4,11,0.7,36.649,M,-12.681,M,2.0,0000*56
$GPGGA,032258.00,3030.67463264,N,11424.15865257,E,4,11,0.7,36.651,M,-12.681,M,2.0,0000*57
$GPGGA,032259.00,3030.67463057,N,11424.15865694,E,4,11,0.7,36.652,M,-12.681,M,1.0,0000*5F
$GPGGA,032300.00,3030.67463407,N,11424.15865243,E,4,11,0.7,36.647,M,-12.681,M,1.0,0000*59
$GPGGA,032301.00,3030.67463109,N,11424.15865244,E,4,11,0.7,36.652,M,-12.681,M,2.0,0000*53
$GPGGA,032302.00,3030.67463062,N,11424.15865536,E,4,11,0.7,36.665,M,-12.681,M,1.0,0000*59
$GPGGA,032303.00,3030.67463204,N,11424.15865146,E,4,11,0.7,36.649,M,-12.681,M,2.0,0000*54
$GPGGA,032304.00,3030.67463285,N,11424.15865519,E,4,11,0.7,36.649,M,-12.681,M,1.0,0000*57
$GPGGA,032305.00,3030.67463640,N,11424.15865129,E,4,11,0.7,36.652,M,-12.681,M,1.0,0000*56
$GPGGA,032306.00,3030.67463097,N,11424.15865451,E,4,12,0.7,36.671,M,-12.681,M,2.0,0000*52
$GPGGA,032307.00,3030.67463099,N,11424.15865657,E,4,12,0.7,36.658,M,-12.681,M,2.0,0000*52
$GPGGA,032308.00,3030.67463190,N,11424.15865964,E,4,12,0.7,36.679,M,-12.681,M,1.0,0000*5A
$GPGGA,032309.00,3030.67463208,N,11424.15865851,E,4,12,0.7,36.681,M,-12.681,M,1.0,0000*59
$GPGGA,032310.00,3030.67462925,N,11424.15866129,E,4,12,0.7,36.684,M,-12.681,M,1.0,0000*54
$GPGGA,032311.00,3030.67463350,N,11424.15865552,E,4,12,0.7,36.648,M,-12.681,M,1.0,0000*57
$GPGGA,032312.00,3030.67462877,N,11424.15866011,E,4,12,0.7,36.695,M,-12.681,M,1.0,0000*5A
$GPGGA,032313.00,3030.67462895,N,11424.15866162,E,4,11,0.7,36.688,M,-12.681,M,1.0,0000*5D
$GPGGA,032314.00,3030.67463078,N,11424.15865616,E,4,11,0.7,36.709,M,-12.681,M,1.0,0000*5F
$GPGGA,032315.00,3030.67463056,N,11424.15865389,E,4,12,0.7,36.668,M,-12.681,M,2.0,0000*57
$GPGGA,032316.00,3030.67462990,N,11424.15865419,E,4,12,0.7,36.652,M,-12.681,M,2.0,0000*51
$GPGGA,032317.00,3030.67463222,N,11424.15865869,E,4,12,0.7,36.687,M,-12.681,M,1.0,0000*53
$GPGGA,032318.00,3030.67463095,N,11424.15865779,E,4,12,0.7,36.691,M,-12.681,M,1.0,0000*5B
$GPGGA,032319.00,3030.67462878,N,11424.15865874,E,4,12,0.7,36.707,M,-12.681,M,2.0,0000*5F
$GPGGA,032320.00,3030.67462750,N,11424.15865804,E,4,11,0.7,36.699,M,-12.681,M,2.0,0000*52
$GPGGA,032321.00,3030.67462728,N,11424.15865688,E,4,12,0.7,36.701,M,-12.681,M,3.0,0000*54
$GPGGA,032322.00,3030.67462621,N,11424.15865686,E,4,11,0.7,36.695,M,-12.681,M,4.0,0000*59
$GPGGA,032323.00,3030.67462938,N,11424.15865650,E,4,11,0.7,36.644,M,-12.681,M,3.0,0000*5F
$GPGGA,032324.00,3030.67462844,N,11424.15866287,E,4,11,0.7,36.692,M,-12.681,M,2.0,0000*55
$GPGGA,032325.00,3030.67463174,N,11424.15865409,E,4,11,0.7,36.644,M,-12.681,M,2.0,0000*57
$GPGGA,032326.00,3030.67463034,N,11424.15865251,E,4,11,0.7,36.630,M,-12.681,M,1.0,0000*5A
$GPGGA,032327.00,3030.67463140,N,11424.15865367,E,4,11,0.7,36.618,M,-12.681,M,1.0,0000*57
$GPGGA,032328.00,3030.67462965,N,11424.15865579,E,4,11,0.7,36.619,M,-12.681,M,1.0,0000*5E
$GPGGA,032329.00,3030.67463245,N,11424.15865082,E,4,11,0.7,36.635,M,-12.681,M,1.0,0000*58
$GPGGA,032330.00,3030.67463076,N,11424.15865279,E,4,11,0.7,36.624,M,-12.681,M,1.0,0000*54
$GPGGA,032331.00,3030.67463489,N,11424.15864955,E,4,11,0.7,36.612,M,-12.681,M,1.0,0000*50
$GPGGA,032332.00,3030.67463088,N,11424.15865532,E,4,11,0.7,36.617,M,-12.681,M,1.0,0000*5F
$GPGGA,032333.00,3030.67462987,N,11424.15865552,E,4,11,0.7,36.613,M,-12.681,M,2.0,0000*58
$GPGGA,032334.00,3030.67462718,N,11424.15865569,E,4,11,0.7,36.623,M,-12.681,M,2.0,0000*5C
$GPGGA,032335.00,3030.67462993,N,11424.15865332,E,4,11,0.7,36.632,M,-12.681,M,1.0,0000*5B
$GPGGA,032336.00,3030.67463201,N,11424.15865105,E,4,11,0.7,36.624,M,-12.681,M,2.0,0000*5B
$GPGGA,032337.00,3030.67463002,N,11424.15865299,E,4,11,0.7,36.635,M,-12.681,M,2.0,0000*5D
$GPGGA,032338.00,3030.67462963,N,11424.15865559,E,4,11,0.7,36.623,M,-12.681,M,1.0,0000*52
$GPGGA,032339.00,3030.67462953,N,11424.15865377,E,4,11,0.7,36.631,M,-12.681,M,2.0,0000*5A
$GPGGA,032340.00,3030.67463607,N,11424.15864833,E,4,11,0.7,36.598,M,-12.681,M,1.0,0000*52
$GPGGA,032341.00,3030.67463055,N,11424.15865247,E,4,11,0.7,36.616,M,-12.681,M,2.0,0000*5C
$GPGGA,032342.00,3030.67462715,N,11424.15865408,E,4,11,0.7,36.641,M,-12.681,M,2.0,0000*52
$GPGGA,032343.00,3030.67463655,N,11424.15864765,E,4,11,0.7,36.606,M,-12.681,M,1.0,0000*5E
$GPGGA,032344.00,3030.67463335,N,11424.15865224,E,4,11,0.7,36.596,M,-12.681,M,1.0,0000*51
$GPGGA,032345.00,3030.67463132,N,11424.15865081,E,4,11,0.7,36.600,M,-12.681,M,2.0,0000*57
$GPGGA,032346.00,3030.67463532,N,11424.15864966,E,4,11,0.7,36.597,M,-12.681,M,1.0,0000*5F
$GPGGA,032347.00,3030.67462825,N,11424.15865430,E,4,11,0.7,36.633,M,-12.681,M,1.0,0000*56
$GPGGA,032348.00,3030.67463471,N,11424.15864735,E,4,11,0.7,36.602,M,-12.681,M,1.0,0000*50
$GPGGA,032349.00,3030.67463488,N,11424.15864587,E,4,11,0.7,36.605,M,-12.681,M,1.0,0000*5B
$GPGGA,032350.00,3030.67463153,N,11424.15864899,E,4,11,0.7,36.627,M,-12.681,M,2.0,0000*51
$GPGGA,032351.00,3030.67463044,N,11424.15865115,E,4,11,0.7,36.604,M,-12.681,M,1.0,0000*59
