$GPGGA,024044.00,3030.67350216,N,11424.15058173,E,4,15,1.1,37.164,M,-12.681,M,1.0,0000*5E
$GPGGA,024045.00,3030.67350032,N,11424.15058260,E,4,15,1.1,37.162,M,-12.681,M,1.0,0000*5C
$GPGGA,024046.00,3030.67350072,N,11424.15057917,E,4,15,1.1,37.158,M,-12.681,M,1.0,0000*56
$GPGGA,024047.00,3030.67349730,N,11424.15058162,E,4,15,1.1,37.166,M,-12.681,M,1.0,0000*56
$GPGGA,024048.00,3030.67349509,N,11424.15058153,E,4,15,1.1,37.159,M,-12.681,M,1.0,0000*5F
$GPGGA,024049.00,3030.67350173,N,11424.15057972,E,4,15,1.1,37.153,M,-12.681,M,1.0,0000*51
$GPGGA,024050.00,3030.67350075,N,11424.15057883,E,4,15,1.1,37.147,M,-12.681,M,1.0,0000*54
$GPGGA,024051.00,3030.67349865,N,11424.15058142,E,4,15,1.1,37.153,M,-12.681,M,1.0,0000*5A
$GPGGA,024052.00,3030.67349802,N,11424.15058316,E,4,15,1.1,37.167,M,-12.681,M,1.0,0000*5C
$GPGGA,024053.00,3030.67349658,N,11424.15057956,E,4,15,1.1,37.169,M,-12.681,M,2.0,0000*50
$GPGGA,024054.00,3030.67350002,N,11424.15058135,E,4,15,1.1,37.158,M,-12.681,M,1.0,0000*55
$GPGGA,024055.00,3030.67349652,N,11424.15058295,E,4,15,1.1,37.159,M,-12.681,M,1.0,0000*57
$GPGGA,024056.00,3030.67349949,N,11424.15058022,E,4,15,1.1,37.145,M,-12.681,M,1.0,0000*52
$GPGGA,024057.00,3030.67349650,N,11424.15058143,E,4,15,1.1,37.143,M,-12.681,M,1.0,0000*54
$GPGGA,024058.00,3030.67350015,N,11424.15058044,E,4,15,1.0,37.155,M,-12.681,M,1.0,0000*54
$GPGGA,024059.00,3030.67349921,N,11424.15058052,E,4,15,1.1,37.143,M,-12.681,M,1.0,0000*52
$GPGGA,024100.00,3030.67349597,N,11424.15058038,E,4,15,1.1,37.151,M,-12.681,M,1.0,0000*51
$GPGGA,024101.00,3030.67349654,N,11424.15058227,E,4,15,1.1,37.160,M,-12.681,M,1.0,0000*52
$GPGGA,024102.00,3030.67350305,N,11424.15058015,E,4,15,1.1,37.151,M,-12.681,M,1.0,0000*59
$GPGGA,024103.00,3030.67349386,N,11424.15058100,E,4,15,1.1,37.146,M,-12.681,M,1.0,0000*58
$GPGGA,024104.00,3030.67350185,N,11424.15057969,E,4,15,1.1,37.161,M,-12.681,M,1.0,0000*5B
$GPGGA,024105.00,3030.67350057,N,11424.15057961,E,4,15,1.1,37.150,M,-12.681,M,1.0,0000*5E
$GPGGA,024106.00,3030.67350290,N,11424.15058316,E,4,15,1.1,37.163,M,-12.681,M,1.0,0000*51
$GPGGA,024107.00,3030.67350379,N,11424.15058014,E,4,15,1.1,37.147,M,-12.681,M,1.0,0000*51
$GPGGA,024108.00,3030.67350031,N,11424.15057671,E,4,15,0.9,37.144,M,-12.681,M,1.0,0000*51
$GPGGA,024109.00,3030.67349871,N,11424.15058086,E,4,16,0.9,37.158,M,-12.681,M,1.0,0000*5B
$GPGGA,024110.00,3030.67349767,N,11424.15058241,E,4,16,0.9,37.151,M,-12.681,M,1.0,0000*5B
$GPGGA,024111.00,3030.67349499,N,11424.15058173,E,4,16,0.9,37.153,M,-12.681,M,1.0,0000*58
$GPGGA,024112.00,3030.67350410,N,11424.15057868,E,4,16,0.9,37.142,M,-12.681,M,1.0,0000*5E
$GPGGA,024113.00,3030.67350118,N,11424.15058046,E,4,16,0.9,37.169,M,-12.681,M,1.0,0000*50
$GPGGA,024114.00,3030.67350009,N,11424.15057934,E,4,16,0.9,37.155,M,-12.681,M,1.0,0000*5A
$GPGGA,024115.00,3030.67350283,N,11424.15058214,E,4,16,0.9,37.157,M,-12.681,M,1.0,0000*5F
$GPGGA,024116.00,3030.67349846,N,11424.15058056,E,4,16,0.9,37.160,M,-12.681,M,1.0,0000*57
$GPGGA,024117.00,3030.67349866,N,11424.15058142,E,4,16,0.9,37.170,M,-12.681,M,1.0,0000*51
$GPGGA,024118.00,3030.67350145,N,11424.15058147,E,4,16,0.9,37.158,M,-12.681,M,1.0,0000*51
$GPGGA,024119.00,3030.67350391,N,11424.15058280,E,4,16,0.9,37.166,M,-12.681,M,1.0,0000*5E
$GPGGA,024120.00,3030.67349705,N,11424.15058225,E,4,16,0.9,37.163,M,-12.681,M,1.0,0000*5F
$GPGGA,024121.00,3030.67349931,N,11424.15057869,E,4,16,0.9,37.152,M,-12.681,M,1.0,0000*58
$GPGGA,024122.00,3030.67349840,N,11424.15058028,E,4,16,0.9,37.158,M,-12.681,M,1.0,0000*54
$GPGGA,024123.00,3030.67349918,N,11424.15057998,E,4,16,0.9,37.164,M,-12.681,M,1.0,0000*5B
$GPGGA,024124.00,3030.67349921,N,11424.15057957,E,4,16,0.9,37.149,M,-12.681,M,1.0,0000*5A
$GPGGA,024125.00,3030.67350115,N,11424.15057996,E,4,16,0.9,37.158,M,-12.681,M,1.0,0000*51
$GPGGA,024126.00,3030.67349602,N,11424.15058330,E,4,16,0.9,37.163,M,-12.681,M,1.0,0000*5A
$GPGGA,024127.00,3030.67350148,N,11424.15058281,E,4,16,0.9,37.159,M,-12.681,M,1.0,0000*58
$GPGGA,024128.00,3030.67350161,N,11424.15058139,E,4,16,0.9,37.162,M,-12.681,M,1.0,0000*54
$GPGGA,024129.00,3030.67349770,N,11424.15058145,E,4,16,0.9,37.162,M,-12.681,M,1.0,0000*50
$GPGGA,024130.00,3030.67350028,N,11424.15058051,E,4,16,0.9,37.165,M,-12.681,M,1.0,0000*59
$GPGGA,024131.00,3030.67349949,N,11424.15057993,E,4,17,0.9,37.153,M,-12.681,M,1.0,0000*52
$GPGGA,024132.00,3030.67350212,N,11424.15058001,E,4,17,0.9,37.161,M,-12.681,M,1.0,0000*50
$GPGGA,024133.00,3030.67350118,N,11424.15057925,E,4,17,0.9,37.157,M,-12.681,M,1.0,0000*5D
$GPGGA,024134.00,3030.67350279,N,11424.15057889,E,4,17,0.9,37.150,M,-12.681,M,1.0,0000*5E
$GPGGA,024135.00,3030.67349953,N,11424.15058006,E,4,17,0.9,37.165,M,-12.681,M,1.0,0000*52
$GPGGA,024136.00,3030.67349995,N,11424.15058153,E,4,16,0.9,37.153,M,-12.681,M,1.0,0000*5E
$GPGGA,024137.00,3030.67350427,N,11424.15057709,E,4,17,0.9,37.152,M,-12.681,M,1.0,0000*55
$GPGGA,024138.00,3030.67350121,N,11424.15058115,E,4,17,0.9,37.169,M,-12.681,M,1.0,0000*55
$GPGGA,024139.00,3030.67349790,N,11424.15058173,E,4,17,0.9,37.158,M,-12.681,M,1.0,0000*52
$GPGGA,024140.00,3030.67350153,N,11424.15058013,E,4,17,0.9,37.143,M,-12.681,M,1.0,0000*50
$GPGGA,024141.00,3030.67349804,N,11424.15057942,E,4,17,0.9,37.157,M,-12.681,M,1.0,0000*55
$GPGGA,024142.00,3030.67350294,N,11424.15058000,E,4,17,0.9,37.155,M,-12.681,M,1.0,0000*5F
$GPGGA,024143.00,3030.67350008,N,11424.15058039,E,4,16,0.9,37.159,M,-12.681,M,1.0,0000*5E
$GPGGA,024144.00,3030.67350573,N,11424.15057939,E,4,16,0.9,37.153,M,-12.681,M,1.0,0000*5C
$GPGGA,024145.00,3030.67350547,N,11424.15058030,E,4,16,0.9,37.157,M,-12.681,M,1.0,0000*51
$GPGGA,024146.00,3030.67350125,N,11424.15057832,E,4,16,0.9,37.154,M,-12.681,M,1.0,0000*54
$GPGGA,024147.00,3030.67349870,N,11424.15058012,E,4,16,0.9,37.166,M,-12.681,M,1.0,0000*50
$GPGGA,024148.00,3030.67350092,N,11424.15057953,E,4,17,0.9,37.160,M,-12.681,M,1.0,0000*57
$GPGGA,024149.00,3030.67349704,N,11424.15057935,E,4,17,0.9,37.157,M,-12.681,M,1.0,0000*52
$GPGGA,024150.00,3030.67350180,N,11424.15057713,E,4,17,0.9,37.155,M,-12.681,M,1.0,0000*50
$GPGGA,024151.00,3030.67350060,N,11424.15058033,E,4,17,0.9,37.156,M,-12.681,M,1.0,0000*57
$GPGGA,024152.00,3030.67349985,N,11424.15058056,E,4,17,0.9,37.162,M,-12.681,M,2.0,0000*59
$GPGGA,024153.00,3030.67350023,N,11424.15057808,E,4,17,0.9,37.156,M,-12.681,M,1.0,0000*5D
$GPGGA,024154.00,3030.67349527,N,11424.15058128,E,4,17,0.9,37.156,M,-12.681,M,1.0,0000*57
$GPGGA,024155.00,3030.67349683,N,11424.15058080,E,4,17,0.9,37.158,M,-12.681,M,1.0,0000*56
$GPGGA,024156.00,3030.67349904,N,11424.15058136,E,4,17,0.9,37.161,M,-12.681,M,1.0,0000*53
$GPGGA,024157.00,3030.67349762,N,11424.15057823,E,4,17,0.9,37.153,M,-12.681,M,1.0,0000*5F
$GPGGA,024158.00,3030.67349361,N,11424.15058122,E,4,16,0.9,37.151,M,-12.681,M,1.0,0000*53
$GPGGA,024159.00,3030.67349614,N,11424.15057932,E,4,17,0.9,37.160,M,-12.681,M,1.0,0000*50
$GPGGA,024200.00,3030.67349450,N,11424.15058080,E,4,17,0.9,37.156,M,-12.681,M,1.0,0000*57
$GPGGA,024201.00,3030.67350091,N,11424.15057867,E,4,17,0.9,37.155,M,-12.681,M,1.0,0000*5A
$GPGGA,024202.00,3030.67350426,N,11424.15057957,E,4,17,0.9,37.161,M,-12.681,M,1.0,0000*54
$GPGGA,024203.00,3030.67349330,N,11424.15058238,E,4,17,0.9,37.156,M,-12.681,M,1.0,0000*54
$GPGGA,024204.00,3030.67349497,N,11424.15057957,E,4,17,0.9,37.167,M,-12.681,M,1.0,0000*56
$GPGGA,024205.00,3030.67349164,N,11424.15057983,E,4,17,0.9,37.149,M,-12.681,M,1.0,0000*5B
$GPGGA,024206.00,3030.67349827,N,11424.15057976,E,4,17,0.9,37.157,M,-12.681,M,1.0,0000*53
$GPGGA,024207.00,3030.67350066,N,11424.15058070,E,4,17,0.9,37.159,M,-12.681,M,1.0,0000*59
$GPGGA,024208.00,3030.67349804,N,11424.15057832,E,4,17,0.9,37.156,M,-12.681,M,1.0,0000*5C
$GPGGA,024209.00,3030.67349795,N,11424.15057879,E,4,17,0.9,37.160,M,-12.681,M,2.0,0000*53
$GPGGA,024210.00,3030.67349206,N,11424.15058172,E,4,17,0.9,37.171,M,-12.681,M,2.0,0000*59
$GPGGA,024211.00,3030.67349468,N,11424.15058001,E,4,17,0.9,37.172,M,-12.681,M,3.0,0000*51
$GPGGA,024212.00,3030.67350190,N,11424.15057864,E,4,17,0.8,37.171,M,-12.681,M,2.0,0000*5F
$GPGGA,024213.00,3030.67349393,N,11424.15058024,E,4,17,0.9,37.168,M,-12.681,M,2.0,0000*5D
$GPGGA,024214.00,3030.67349793,N,11424.15057949,E,4,17,0.9,37.158,M,-12.681,M,1.0,0000*53
$GPGGA,024215.00,3030.67350161,N,11424.15057900,E,4,17,0.9,37.167,M,-12.681,M,1.0,0000*50
$GPGGA,024216.00,3030.67350475,N,11424.15057942,E,4,17,0.9,37.172,M,-12.681,M,1.0,0000*51
$GPGGA,024217.00,3030.67350124,N,11424.15057860,E,4,17,0.9,37.174,M,-12.681,M,2.0,0000*55
$GPGGA,024218.00,3030.67350165,N,11424.15057707,E,4,17,0.9,37.172,M,-12.681,M,3.0,0000*56
$GPGGA,024219.00,3030.67349931,N,11424.15057730,E,4,17,0.9,37.167,M,-12.681,M,4.0,0000*51
$GPGGA,024220.00,3030.67349769,N,11424.15057755,E,4,17,0.8,37.170,M,-12.681,M,5.0,0000*5D
$GPGGA,024221.00,3030.67349724,N,11424.15057901,E,4,16,0.8,37.172,M,-12.681,M,6.0,0000*5A
$GPGGA,024222.00,3030.67349829,N,11424.15057673,E,4,17,0.8,37.170,M,-12.681,M,7.0,0000*53
$GPGGA,024223.00,3030.67349724,N,11424.15057702,E,4,17,0.9,37.172,M,-12.681,M,8.0,0000*5B
$GPGGA,024224.00,3030.67349399,N,11424.15057953,E,4,17,0.9,37.177,M,-12.681,M,9.0,0000*50
$GPGGA,024225.00,3030.67349251,N,11424.15057745,E,4,17,0.9,37.174,M,-12.681,M,10.0,0000*66
$GPGGA,024226.00,3030.67349248,N,11424.15057828,E,4,17,0.9,37.169,M,-12.681,M,11.0,0000*64
$GPGGA,024227.00,3030.67349233,N,11424.15057707,E,4,17,0.9,37.170,M,-12.681,M,12.0,0000*60
$GPGGA,024228.00,3030.67349604,N,11424.15057646,E,4,17,0.9,37.173,M,-12.681,M,13.0,0000*69
$GPGGA,024229.00,3030.67348972,N,11424.15057649,E,4,17,0.9,37.173,M,-12.681,M,14.0,0000*6F
$GPGGA,024230.00,3030.67349033,N,11424.15057537,E,4,17,0.9,37.166,M,-12.681,M,15.0,0000*65
$GPGGA,024231.00,3030.67348850,N,11424.15057539,E,4,17,0.9,37.169,M,-12.681,M,16.0,0000*6A
$GPGGA,024232.00,3030.67346235,N,11424.15062864,E,4,07,0.9,37.240,M,-12.681,M,1.0,0000*52
$GPGGA,024233.00,3030.67347381,N,11424.15062592,E,4,07,0.9,37.237,M,-12.681,M,1.0,0000*58
$GPGGA,024234.00,3030.67346073,N,11424.15063235,E,4,07,0.9,37.241,M,-12.681,M,1.0,0000*5A
$GPGGA,024235.00,3030.67346313,N,11424.15063222,E,4,07,0.9,37.243,M,-12.681,M,2.0,0000*59
$GPGGA,024236.00,3030.67348820,N,11424.15058822,E,4,07,0.9,37.214,M,-12.681,M,2.0,0000*5F
$GPGGA,024237.00,3030.67348499,N,11424.15058814,E,4,07,0.9,37.192,M,-12.681,M,1.0,0000*5B
$GPGGA,024238.00,3030.67348472,N,11424.15058773,E,4,07,0.8,37.189,M,-12.681,M,1.0,0000*54
$GPGGA,024239.00,3030.67348642,N,11424.15058808,E,4,07,0.8,37.198,M,-12.681,M,1.0,0000*57
$GPGGA,024240.00,3030.67348432,N,11424.15058816,E,4,07,0.8,37.202,M,-12.681,M,2.0,0000*50
$GPGGA,024241.00,3030.67346957,N,11424.15059275,E,4,07,0.8,37.207,M,-12.681,M,2.0,0000*5A
$GPGGA,024242.00,3030.67348463,N,11424.15058768,E,4,07,0.8,37.186,M,-12.681,M,2.0,0000*5F
$GPGGA,024243.00,3030.67348319,N,11424.15059027,E,4,07,0.8,37.205,M,-12.681,M,1.0,0000*52
$GPGGA,024244.00,3030.67348894,N,11424.15058912,E,4,06,0.9,37.214,M,-12.681,M,1.0,0000*55
$GPGGA,024245.00,3030.67349427,N,11424.15058345,E,4,06,0.9,37.161,M,-12.681,M,1.0,0000*58
$GPGGA,024246.00,3030.67348064,N,11424.15059364,E,4,06,0.9,37.196,M,-12.681,M,1.0,0000*53
$GPGGA,024247.00,3030.67348530,N,11424.15059152,E,4,06,0.9,37.194,M,-12.681,M,1.0,0000*53
$GPGGA,024248.00,3030.67349750,N,11424.15059132,E,4,06,0.9,37.184,M,-12.681,M,1.0,0000*5E
$GPGGA,024249.00,3030.67348448,N,11424.15059694,E,4,06,0.9,37.204,M,-12.681,M,1.0,0000*54
$GPGGA,024250.00,3030.67348880,N,11424.15059908,E,4,06,0.9,37.206,M,-12.681,M,1.0,0000*5C
$GPGGA,024251.00,3030.67347330,N,11424.15060638,E,4,06,0.9,37.225,M,-12.681,M,1.0,0000*55
$GPGGA,024252.00,3030.67348920,N,11424.15060071,E,4,06,0.9,37.201,M,-12.681,M,1.0,0000*5F
$GPGGA,024253.00,3030.67347805,N,11424.15060688,E,4,06,0.9,37.205,M,-12.681,M,1.0,0000*53
$GPGGA,024254.00,3030.67349012,N,11424.15060733,E,4,06,0.9,37.216,M,-12.681,M,1.0,0000*57
$GPGGA,024255.00,3030.67348343,N,11424.15060999,E,4,05,0.9,37.215,M,-12.681,M,1.0,0000*5E
$GPGGA,024256.00,3030.67348641,N,11424.15060893,E,4,05,0.9,37.213,M,-12.681,M,1.0,0000*57
$GPGGA,024257.00,3030.67348557,N,11424.15060847,E,4,05,0.9,37.213,M,-12.681,M,1.0,0000*5B
$GPGGA,024258.00,3030.67348800,N,11424.15060664,E,4,05,0.9,37.209,M,-12.681,M,1.0,0000*5F
$GPGGA,024259.00,3030.67348575,N,11424.15060622,E,4,05,0.9,37.207,M,-12.681,M,1.0,0000*5D
$GPGGA,024300.00,3030.67348647,N,11424.15060722,E,4,05,0.9,37.215,M,-12.681,M,1.0,0000*50
$GPGGA,024301.00,3030.67348614,N,11424.15060784,E,4,05,0.9,37.219,M,-12.681,M,1.0,0000*57
$GPGGA,024302.00,3030.67348406,N,11424.15060795,E,4,05,0.9,37.222,M,-12.681,M,1.0,0000*5D
$GPGGA,024303.00,3030.67348915,N,11424.15060579,E,4,05,0.9,37.215,M,-12.681,M,1.0,0000*57
$GPGGA,024304.00,3030.67349154,N,11424.15060526,E,4,05,0.9,37.210,M,-12.681,M,1.0,0000*53
$GPGGA,024305.00,3030.67349328,N,11424.15060354,E,4,05,0.9,37.206,M,-12.681,M,1.0,0000*5F
$GPGGA,024306.00,3030.67349455,N,11424.15060262,E,4,05,0.9,37.206,M,-12.681,M,1.0,0000*55
$GPGGA,024307.00,3030.67349057,N,11424.15060376,E,4,05,0.9,37.213,M,-12.681,M,1.0,0000*52
$GPGGA,024308.00,3030.67349282,N,11424.15060196,E,4,05,0.9,37.208,M,-12.681,M,1.0,0000*51
$GPGGA,024309.00,3030.67349255,N,11424.15060170,E,4,04,0.9,37.201,M,-12.681,M,1.0,0000*5A
$GPGGA,024310.00,3030.67349182,N,11424.15059995,E,4,04,0.9,37.189,M,-12.681,M,2.0,0000*52
$GPGGA,024311.00,3030.67349202,N,11424.15060029,E,4,04,0.9,37.197,M,-12.681,M,1.0,0000*50
$GPGGA,024312.00,3030.67349135,N,11424.15060147,E,4,04,0.9,37.203,M,-12.681,M,1.0,0000*53
$GPGGA,024313.00,3030.67349620,N,11424.15059837,E,4,04,0.9,37.196,M,-12.681,M,1.0,0000*5A
$GPGGA,024314.00,3030.67349337,N,11424.15060012,E,4,04,0.9,37.199,M,-12.681,M,2.0,0000*57
$GPGGA,024315.00,3030.67349526,N,11424.15059935,E,4,04,0.9,37.204,M,-12.681,M,1.0,0000*52
$GPGGA,024316.00,3030.67349333,N,11424.15059812,E,4,04,0.9,37.200,M,-12.681,M,2.0,0000*50
$GPGGA,024317.00,3030.67349360,N,11424.15059913,E,4,04,0.9,37.210,M,-12.681,M,1.0,0000*55
$GPGGA,024318.00,3030.67349368,N,11424.15059919,E,4,04,0.9,37.208,M,-12.681,M,1.0,0000*51
$GPGGA,024319.00,3030.67349424,N,11424.15059742,E,4,04,0.9,37.202,M,-12.681,M,1.0,0000*55
$GPGGA,024320.00,3030.67349586,N,11424.15059658,E,4,04,0.9,37.204,M,-12.681,M,1.0,0000*5A
$GPGGA,024321.00,3030.67349716,N,11424.15059508,E,5,04,0.9,37.196,M,-12.681,M,1.0,0000*5F
$GPGGA,024322.00,3030.67349579,N,11424.15059514,E,5,04,0.9,37.198,M,-12.681,M,1.0,0000*54
$GPGGA,024323.00,3030.67349786,N,11424.15059439,E,5,04,0.9,37.196,M,-12.681,M,1.0,0000*57
$GPGGA,024324.00,3030.67349748,N,11424.15059275,E,5,04,0.9,37.188,M,-12.681,M,1.0,0000*53
$GPGGA,024325.00,3030.67349714,N,11424.15059616,E,5,04,0.9,37.199,M,-12.681,M,1.0,0000*5A
$GPGGA,024326.00,3030.67349605,N,11424.15058931,E,5,04,0.9,37.178,M,-12.681,M,1.0,0000*5C
$GPGGA,024327.00,3030.67350171,N,11424.15059026,E,5,04,0.9,37.190,M,-12.681,M,1.0,0000*59
$GPGGA,024328.00,3030.67349897,N,11424.15059356,E,5,04,0.9,37.208,M,-12.681,M,1.0,0000*59
$GPGGA,024329.00,3030.67350179,N,11424.15059361,E,5,04,0.9,37.210,M,-12.681,M,1.0,0000*54
$GPGGA,024330.00,3030.67350512,N,11424.15059398,E,5,04,0.9,37.204,M,-12.681,M,1.0,0000*56
$GPGGA,024331.00,3030.67348053,N,11424.15059646,E,5,04,0.9,37.226,M,-12.681,M,1.0,0000*58
$GPGGA,024332.00,3030.67348004,N,11424.15059241,E,5,04,0.9,37.194,M,-12.681,M,1.0,0000*50
$GPGGA,024333.00,3030.67348235,N,11424.15059081,E,5,04,0.9,37.201,M,-12.681,M,1.0,0000*50
$GPGGA,024334.00,3030.67348531,N,11424.15059466,E,5,04,0.9,37.210,M,-12.681,M,1.0,0000*59
$GPGGA,024335.00,3030.67348196,N,11424.15059489,E,5,04,0.9,37.213,M,-12.681,M,1.0,0000*53
$GPGGA,024336.00,3030.67347840,N,11424.15059272,E,5,04,0.9,37.207,M,-12.681,M,1.0,0000*5A
$GPGGA,024337.00,3030.67348518,N,11424.15059092,E,5,04,0.9,37.211,M,-12.681,M,1.0,0000*5F
$GPGGA,024338.00,3030.67348520,N,11424.15058855,E,5,04,0.9,37.202,M,-12.681,M,1.0,0000*5B
$GPGGA,024339.00,3030.67348745,N,11424.15059188,E,5,04,0.9,37.222,M,-12.681,M,1.0,0000*51
$GPGGA,024340.00,3030.67348391,N,11424.15058951,E,5,04,0.9,37.208,M,-12.681,M,1.0,0000*57
$GPGGA,024341.00,3030.67348096,N,11424.15059114,E,5,04,0.9,37.209,M,-12.681,M,1.0,0000*5B
$GPGGA,024342.00,3030.67348058,N,11424.15058847,E,5,04,0.9,37.209,M,-12.681,M,1.0,0000*54
$GPGGA,024343.00,3030.67349107,N,11424.15058910,E,5,04,0.9,37.213,M,-12.681,M,1.0,0000*57
$GPGGA,024344.00,3030.67347673,N,11424.15059175,E,5,04,0.9,37.208,M,-12.681,M,1.0,0000*5A
$GPGGA,024345.00,3030.67347697,N,11424.15059207,E,5,04,0.9,37.218,M,-12.681,M,1.0,0000*56
$GPGGA,024346.00,3030.67347598,N,11424.15059074,E,5,04,0.9,37.213,M,-12.681,M,1.0,0000*54
$GPGGA,024347.00,3030.67347759,N,11424.15058876,E,5,04,0.9,37.211,M,-12.681,M,1.0,0000*53
$GPGGA,024348.00,3030.67347347,N,11424.15058960,E,5,04,0.9,37.203,M,-12.681,M,1.0,0000*52
$GPGGA,024349.00,3030.67347036,N,11424.15058836,E,5,04,0.9,37.210,M,-12.681,M,1.0,0000*56
$GPGGA,024350.00,3030.67348208,N,11424.15058948,E,5,04,0.9,37.234,M,-12.681,M,1.0,0000*50
$GPGGA,024351.00,3030.67347415,N,11424.15059032,E,5,04,0.9,37.233,M,-12.681,M,1.0,0000*56
$GPGGA,024352.00,3030.67347439,N,11424.15058783,E,5,04,0.9,37.228,M,-12.681,M,1.0,0000*5D
$GPGGA,024353.00,3030.67346875,N,11424.15059292,E,5,04,0.9,37.235,M,-12.681,M,1.0,0000*51
$GPGGA,024354.00,3030.67346636,N,11424.15059035,E,5,04,0.9,37.242,M,-12.681,M,1.0,0000*50
$GPGGA,024355.00,3030.67347609,N,11424.15059372,E,5,04,0.9,37.247,M,-12.681,M,2.0,0000*5A
$GPGGA,024356.00,3030.67347018,N,11424.15058922,E,5,04,0.9,37.235,M,-12.681,M,1.0,0000*57
$GPGGA,024357.00,3030.67346827,N,11424.15059033,E,5,04,0.9,37.232,M,-12.681,M,1.0,0000*5C
$GPGGA,024358.00,3030.67347882,N,11424.15058567,E,5,04,0.9,37.219,M,-12.681,M,1.0,0000*51
$GPGGA,024359.00,3030.67347308,N,11424.15059217,E,5,04,0.9,37.235,M,-12.681,M,1.0,0000*56
$GPGGA,024400.00,3030.67347060,N,11424.15058914,E,5,04,0.9,37.236,M,-12.681,M,1.0,0000*5A
$GPGGA,024401.00,3030.67347269,N,11424.15058904,E,5,04,0.9,37.221,M,-12.681,M,1.0,0000*57
$GPGGA,024402.00,3030.67347498,N,11424.15058787,E,5,04,0.9,37.218,M,-12.681,M,2.0,0000*50
$GPGGA,024403.00,3030.67346780,N,11424.15058882,E,5,04,0.9,37.222,M,-12.681,M,1.0,0000*5A
$GPGGA,024404.00,3030.67347083,N,11424.15058789,E,5,04,0.9,37.218,M,-12.681,M,1.0,0000*55
$GPGGA,024405.00,3030.67347031,N,11424.15058895,E,5,04,0.9,37.243,M,-12.681,M,1.0,0000*51
$GPGGA,024406.00,3030.67347017,N,11424.15058979,E,5,04,0.9,37.239,M,-12.681,M,1.0,0000*58
$GPGGA,024407.00,3030.67347093,N,11424.15058516,E,5,04,0.9,37.225,M,-12.681,M,1.0,0000*5D
$GPGGA,024408.00,3030.67347027,N,11424.15058740,E,5,04,0.9,37.231,M,-12.681,M,1.0,0000*59
$GPGGA,024409.00,3030.67346604,N,11424.15058680,E,5,04,0.9,37.237,M,-12.681,M,1.0,0000*55
$GPGGA,024410.00,3030.67347208,N,11424.15058994,E,5,04,0.9,37.235,M,-12.681,M,2.0,0000*5F
$GPGGA,024411.00,3030.67346938,N,11424.15058640,E,5,04,0.9,37.222,M,-12.681,M,2.0,0000*57
$GPGGA,024412.00,3030.67347453,N,11424.15058211,E,5,04,0.9,37.214,M,-12.681,M,3.0,0000*51
$GPGGA,024413.00,3030.67347466,N,11424.15058143,E,5,04,0.9,37.210,M,-12.681,M,2.0,0000*57
$GPGGA,024414.00,3030.67347028,N,11424.15058524,E,5,04,0.9,37.232,M,-12.681,M,2.0,0000*5B
$GPGGA,024415.00,3030.67347855,N,11424.15058254,E,5,04,0.9,37.227,M,-12.681,M,1.0,0000*5F
$GPGGA,024416.00,3030.67347567,N,11424.15058117,E,5,04,0.9,37.219,M,-12.681,M,2.0,0000*5A
$GPGGA,024417.00,3030.67347486,N,11424.15058304,E,5,04,0.9,37.220,M,-12.681,M,1.0,0000*5C
$GPGGA,024418.00,3030.67347562,N,11424.15058044,E,5,04,0.9,37.209,M,-12.681,M,1.0,0000*54
$GPGGA,024419.00,3030.67347836,N,11424.15057920,E,5,04,0.9,37.198,M,-12.681,M,1.0,0000*56
$GPGGA,024420.00,3030.67347057,N,11424.15057702,E,5,04,0.9,37.199,M,-12.681,M,1.0,0000*5C
$GPGGA,024421.00,3030.67347901,N,11424.15057691,E,5,04,0.9,37.191,M,-12.681,M,1.0,0000*54
$GPGGA,024422.00,3030.67347411,N,11424.15057867,E,5,04,0.9,37.224,M,-12.681,M,1.0,0000*51
$GPGGA,024423.00,3030.67347147,N,11424.15057676,E,5,04,0.9,37.206,M,-12.681,M,1.0,0000*58
$GPGGA,024424.00,3030.67346912,N,11424.15057938,E,5,04,0.9,37.219,M,-12.681,M,1.0,0000*5D
$GPGGA,024425.00,3030.67347886,N,11424.15057493,E,5,04,0.9,37.197,M,-12.681,M,1.0,0000*58
$GPGGA,024426.00,3030.67347794,N,11424.15057370,E,5,04,0.9,37.198,M,-12.681,M,1.0,0000*52
$GPGGA,024427.00,3030.67347377,N,11424.15057659,E,5,04,0.9,37.198,M,-12.681,M,1.0,0000*54
$GPGGA,024428.00,3030.67347355,N,11424.15057509,E,5,04,0.9,37.205,M,-12.681,M,1.0,0000*5A
$GPGGA,024429.00,3030.67346624,N,11424.15057918,E,5,04,0.9,37.209,M,-12.681,M,1.0,0000*59
$GPGGA,024430.00,3030.67347555,N,11424.15057333,E,5,04,0.9,37.187,M,-12.681,M,1.0,0000*53
$GPGGA,024431.00,3030.67348162,N,11424.15057321,E,5,04,0.9,37.182,M,-12.681,M,1.0,0000*5B
$GPGGA,024432.00,3030.67347889,N,11424.15057066,E,5,04,1.0,37.197,M,-12.681,M,1.0,0000*57
$GPGGA,024433.00,3030.67348452,N,11424.15057120,E,5,04,1.0,37.202,M,-12.681,M,1.0,0000*5F
$GPGGA,024434.00,3030.67348914,N,11424.15056985,E,5,04,1.0,37.190,M,-12.681,M,1.0,0000*59
$GPGGA,024435.00,3030.67348510,N,11424.15057179,E,5,04,1.0,37.190,M,-12.681,M,1.0,0000*5A
$GPGGA,024436.00,3030.67348193,N,11424.15057183,E,5,04,1.0,37.219,M,-12.681,M,1.0,0000*51
$GPGGA,024437.00,3030.67348135,N,11424.15057108,E,5,04,1.0,37.216,M,-12.681,M,1.0,0000*50
$GPGGA,024438.00,3030.67347513,N,11424.15057248,E,5,04,1.0,37.210,M,-12.681,M,1.0,0000*51
$GPGGA,024439.00,3030.67347704,N,11424.15056515,E,5,04,1.0,37.199,M,-12.681,M,1.0,0000*58
$GPGGA,024440.00,3030.67347280,N,11424.15056676,E,5,04,1.0,37.207,M,-12.681,M,1.0,0000*5D
$GPGGA,024441.00,3030.67347196,N,11424.15056803,E,5,04,1.0,37.212,M,-12.681,M,1.0,0000*50
$GPGGA,024442.00,3030.67347447,N,11424.15057005,E,5,04,1.0,37.222,M,-12.681,M,1.0,0000*56
$GPGGA,024443.00,3030.67347399,N,11424.15056521,E,5,04,1.0,37.210,M,-12.681,M,1.0,0000*50
$GPGGA,024444.00,3030.67347671,N,11424.15056785,E,5,04,1.0,37.219,M,-12.681,M,1.0,0000*51
$GPGGA,024445.00,3030.67347560,N,11424.15056857,E,5,04,1.0,37.211,M,-12.681,M,1.0,0000*5B
$GPGGA,024446.00,3030.67347721,N,11424.15056849,E,5,04,1.0,37.215,M,-12.681,M,2.0,0000*57
$GPGGA,024447.00,3030.67347725,N,11424.15056522,E,5,04,1.0,37.193,M,-12.681,M,1.0,0000*5C
$GPGGA,024448.00,3030.67347503,N,11424.15056485,E,5,04,1.0,37.200,M,-12.681,M,1.0,0000*50
$GPGGA,024449.00,3030.67348510,N,11424.15055896,E,5,04,1.0,37.203,M,-12.681,M,1.0,0000*52
$GPGGA,024450.00,3030.67348201,N,11424.15056143,E,5,04,1.0,37.226,M,-12.681,M,1.0,0000*58
$GPGGA,024451.00,3030.67348066,N,11424.15055690,E,5,04,1.0,37.193,M,-12.681,M,1.0,0000*5D
$GPGGA,024452.00,3030.67347548,N,11424.15056282,E,5,04,1.0,37.214,M,-12.681,M,1.0,0000*50
$GPGGA,024453.00,3030.67348180,N,11424.15056142,E,5,04,1.0,37.228,M,-12.681,M,1.0,0000*5E
$GPGGA,024454.00,3030.67347775,N,11424.15055946,E,5,04,1.0,37.201,M,-12.681,M,1.0,0000*5E
$GPGGA,024455.00,3030.67349096,N,11424.15055503,E,5,04,1.0,37.199,M,-12.681,M,1.0,0000*54
$GPGGA,024456.00,3030.67348114,N,11424.15055613,E,5,04,1.0,37.204,M,-12.681,M,1.0,0000*58
$GPGGA,024457.00,3030.67348124,N,11424.15055567,E,5,04,0.9,37.225,M,-12.681,M,1.0,0000*51
$GPGGA,024458.00,3030.67349019,N,11424.15054882,E,5,04,0.9,37.204,M,-12.681,M,1.0,0000*54
$GPGGA,024459.00,3030.67349073,N,11424.15055272,E,5,04,0.9,37.216,M,-12.681,M,1.0,0000*5E
$GPGGA,024500.00,3030.67349178,N,11424.15054966,E,5,04,0.9,37.206,M,-12.681,M,1.0,0000*57
$GPGGA,024501.00,3030.67348924,N,11424.15054993,E,5,04,0.9,37.202,M,-12.681,M,1.0,0000*58
$GPGGA,024502.00,3030.67349032,N,11424.15054969,E,5,04,0.9,37.200,M,-12.681,M,1.0,0000*53
$GPGGA,024503.00,3030.67348609,N,11424.15054928,E,5,04,0.9,37.192,M,-12.681,M,1.0,0000*50
$GPGGA,024504.00,3030.67348316,N,11424.15054812,E,5,04,0.9,37.210,M,-12.681,M,2.0,0000*5E
$GPGGA,024505.00,3030.67348321,N,11424.15055137,E,5,04,0.9,37.192,M,-12.681,M,1.0,0000*5E
$GPGGA,024506.00,3030.67348425,N,11424.15054940,E,5,04,1.0,37.198,M,-12.681,M,1.0,0000*55
$GPGGA,024507.00,3030.67349567,N,11424.15054477,E,5,04,1.0,37.197,M,-12.681,M,1.0,0000*54
$GPGGA,024508.00,3030.67348886,N,11424.15054500,E,5,04,1.0,37.200,M,-12.681,M,2.0,0000*57
$GPGGA,024509.00,3030.67349390,N,11424.15054431,E,5,04,1.0,37.175,M,-12.681,M,1.0,0000*5A
$GPGGA,024510.00,3030.67349483,N,11424.15054152,E,5,04,1.0,37.199,M,-12.681,M,1.0,0000*55
$GPGGA,024511.00,3030.67349686,N,11424.15054442,E,5,04,0.9,37.214,M,-12.681,M,1.0,0000*59
$GPGGA,024512.00,3030.67349503,N,11424.15054193,E,5,04,0.9,37.184,M,-12.681,M,2.0,0000*54
$GPGGA,024513.00,3030.67349521,N,11424.15054338,E,5,04,0.9,37.184,M,-12.681,M,1.0,0000*55
$GPGGA,024514.00,3030.67350033,N,11424.15053795,E,5,04,0.9,37.188,M,-12.681,M,1.0,0000*54
$GPGGA,024515.00,3030.67349277,N,11424.15054070,E,5,04,0.9,37.196,M,-12.681,M,1.0,0000*5B
$GPGGA,024516.00,3030.67349260,N,11424.15054109,E,5,04,0.9,37.185,M,-12.681,M,2.0,0000*50
$GPGGA,024517.00,3030.67348789,N,11424.15054273,E,5,04,0.9,37.209,M,-12.681,M,1.0,0000*58
$GPGGA,024518.00,3030.67348538,N,11424.15054274,E,5,04,0.9,37.190,M,-12.681,M,1.0,0000*5B
$GPGGA,024519.00,3030.67347841,N,11424.15054667,E,5,04,0.9,37.203,M,-12.681,M,1.0,0000*59
$GPGGA,024520.00,3030.67347530,N,11424.15054473,E,5,04,0.9,37.183,M,-12.681,M,1.0,0000*54
$GPGGA,024521.00,3030.67348413,N,11424.15054354,E,5,04,0.9,37.186,M,-12.681,M,1.0,0000*5D
$GPGGA,024522.00,3030.67347993,N,11424.15054497,E,5,04,0.9,37.193,M,-12.681,M,1.0,0000*58
$GPGGA,024523.00,3030.67348062,N,11424.15054402,E,5,04,0.9,37.207,M,-12.681,M,1.0,0000*53
$GPGGA,024524.00,3030.67347663,N,11424.15054488,E,5,04,0.9,37.193,M,-12.681,M,1.0,0000*50
$GPGGA,024525.00,3030.67347813,N,11424.15053924,E,5,04,0.9,37.182,M,-12.681,M,1.0,0000*54
$GPGGA,024526.00,3030.67347199,N,11424.15054439,E,5,04,0.9,37.196,M,-12.681,M,1.0,0000*5F
$GPGGA,024527.00,3030.67347744,N,11424.15054228,E,5,04,0.9,37.182,M,-12.681,M,1.0,0000*5B
$GPGGA,024528.00,3030.67347878,N,11424.15054119,E,5,04,0.9,37.187,M,-12.681,M,1.0,0000*50
$GPGGA,024529.00,3030.67347981,N,11424.15054018,E,5,04,0.9,37.181,M,-12.681,M,1.0,0000*50
$GPGGA,024530.00,3030.67348751,N,11424.15053830,E,5,04,0.9,37.190,M,-12.681,M,1.0,0000*51
$GPGGA,024531.00,3030.67348546,N,11424.15053890,E,5,04,0.9,37.202,M,-12.681,M,1.0,0000*56
$GPGGA,024532.00,3030.67348535,N,11424.15053922,E,5,04,0.9,37.179,M,-12.681,M,1.0,0000*56
$GPGGA,024533.00,3030.67348371,N,11424.15054024,E,5,04,0.9,37.195,M,-12.681,M,1.0,0000*5B
$GPGGA,024534.00,3030.67347760,N,11424.15054349,E,5,04,0.9,37.204,M,-12.681,M,1.0,0000*54
$GPGGA,024535.00,3030.67348350,N,11424.15054373,E,5,04,0.9,37.200,M,-12.681,M,1.0,0000*50
$GPGGA,024536.00,3030.67348029,N,11424.15053825,E,5,04,0.9,37.173,M,-12.681,M,1.0,0000*56
$GPGGA,024537.00,3030.67348094,N,11424.15053531,E,5,04,0.9,37.170,M,-12.681,M,1.0,0000*5A
$GPGGA,024538.00,3030.67347797,N,11424.15054003,E,5,04,0.9,37.183,M,-12.681,M,1.0,0000*51
$GPGGA,024539.00,3030.67347557,N,11424.15053916,E,5,04,0.9,37.183,M,-12.681,M,1.0,0000*54
$GPGGA,024540.00,3030.67348004,N,11424.15053845,E,5,04,0.9,37.189,M,-12.681,M,1.0,0000*5B
$GPGGA,024541.00,3030.67348042,N,11424.15053492,E,5,04,0.9,37.143,M,-12.681,M,1.0,0000*58
$GPGGA,024542.00,3030.67348073,N,11424.15053522,E,5,04,0.9,37.178,M,-12.681,M,1.0,0000*5B
$GPGGA,024543.00,3030.67348278,N,11424.15053226,E,5,04,0.9,37.175,M,-12.681,M,1.0,0000*5D
$GPGGA,024544.00,3030.67348671,N,11424.15052767,E,5,04,0.9,37.157,M,-12.681,M,1.0,0000*56
$GPGGA,024545.00,3030.67347340,N,11424.15053763,E,5,04,0.9,37.196,M,-12.681,M,1.0,0000*57
$GPGGA,024546.00,3030.67347679,N,11424.15053769,E,5,04,0.9,37.194,M,-12.681,M,2.0,0000*50
$GPGGA,024547.00,3030.67347550,N,11424.15053526,E,5,04,0.9,37.170,M,-12.681,M,1.0,0000*59
