$GPGGA,103442.00,3030.67828761,N,11424.06329053,E,4,16,0.8,55.258,M,-12.686,M,1.0,0000*59
$GPGGA,103443.00,3030.67828906,N,11424.06328768,E,4,16,0.8,55.252,M,-12.686,M,1.0,0000*53
$GPGGA,103444.00,3030.67828664,N,11424.06328877,E,4,16,0.8,55.252,M,-12.686,M,1.0,0000*5E
$GPGGA,103445.00,3030.67828515,N,11424.06327688,E,4,16,0.8,55.281,M,-12.686,M,1.0,0000*55
$GPGGA,103446.00,3030.67829659,N,11424.06326755,E,4,16,0.8,55.297,M,-12.686,M,1.0,0000*5B
$GPGGA,103447.00,3030.67828975,N,11424.06328058,E,4,16,0.8,55.259,M,-12.686,M,1.0,0000*5C
$GPGGA,103448.00,3030.67829754,N,11424.06326199,E,4,16,0.8,55.311,M,-12.686,M,1.0,0000*50
$GPGGA,103449.00,3030.67829931,N,11424.06325919,E,4,16,0.8,55.315,M,-12.686,M,1.0,0000*5B
$GPGGA,103450.00,3030.67829633,N,11424.06324820,E,4,16,0.8,55.326,M,-12.686,M,1.0,0000*54
$GPGGA,103451.00,3030.67829750,N,11424.06325022,E,4,16,0.8,55.323,M,-12.686,M,1.0,0000*5F
$GPGGA,103452.00,3030.67829671,N,11424.06325296,E,4,16,0.8,55.322,M,-12.686,M,2.0,0000*51
$GPGGA,103453.00,3030.67830315,N,11424.06324239,E,4,16,0.8,55.346,M,-12.686,M,1.0,0000*5A
$GPGGA,103454.00,3030.67830536,N,11424.06324560,E,4,16,0.8,55.335,M,-12.686,M,1.0,0000*55
$GPGGA,103455.00,3030.67830009,N,11424.06325072,E,4,16,0.8,55.336,M,-12.686,M,1.0,0000*59
$GPGGA,103456.00,3030.67830723,N,11424.06324401,E,4,16,0.8,55.339,M,-12.686,M,1.0,0000*5B
$GPGGA,103457.00,3030.67830812,N,11424.06323416,E,4,16,0.8,55.344,M,-12.686,M,1.0,0000*5C
$GPGGA,103458.00,3030.67830616,N,11424.06322878,E,4,16,0.8,55.352,M,-12.686,M,1.0,0000*5B
$GPGGA,103459.00,3030.67830864,N,11424.06322760,E,4,16,0.8,55.372,M,-12.686,M,1.0,0000*55
$GPGGA,103500.00,3030.67830696,N,11424.06323314,E,4,16,0.8,55.363,M,-12.686,M,2.0,0000*5E
$GPGGA,103501.00,3030.67831521,N,11424.06320872,E,4,16,0.8,55.400,M,-12.686,M,1.0,0000*58
$GPGGA,103502.00,3030.67831553,N,11424.06321140,E,4,16,0.8,55.386,M,-12.686,M,1.0,0000*5E
$GPGGA,103503.00,3030.67830972,N,11424.06321909,E,4,15,0.8,55.373,M,-12.686,M,1.0,0000*5D
$GPGGA,103504.00,3030.67831647,N,11424.06320460,E,4,16,0.8,55.405,M,-12.686,M,1.0,0000*54
$GPGGA,103505.00,3030.67831720,N,11424.06319977,E,4,16,0.8,55.403,M,-12.686,M,1.0,0000*52
$GPGGA,103506.00,3030.67831779,N,11424.06319917,E,4,17,0.7,55.400,M,-12.686,M,2.0,0000*55
$GPGGA,103507.00,3030.67831813,N,11424.06320917,E,4,17,0.7,55.394,M,-12.686,M,2.0,0000*57
$GPGGA,103508.00,3030.67832139,N,11424.06319189,E,4,17,0.7,55.417,M,-12.686,M,1.0,0000*50
$GPGGA,103509.00,3030.67832408,N,11424.06319814,E,4,17,0.7,55.407,M,-12.686,M,1.0,0000*5A
$GPGGA,103510.00,3030.67832359,N,11424.06319292,E,4,17,0.7,55.415,M,-12.686,M,1.0,0000*56
$GPGGA,103511.00,3030.67832642,N,11424.06318420,E,4,17,0.7,55.445,M,-12.686,M,1.0,0000*53
$GPGGA,103512.00,3030.67832581,N,11424.06318489,E,4,17,0.7,55.440,M,-12.686,M,2.0,0000*59
$GPGGA,103513.00,3030.67832648,N,11424.06319907,E,4,17,0.7,55.411,M,-12.686,M,1.0,0000*53
$GPGGA,103514.00,3030.67833057,N,11424.06317739,E,4,17,0.7,55.455,M,-12.686,M,1.0,0000*50
$GPGGA,103515.00,3030.67833344,N,11424.06317264,E,4,17,0.7,55.451,M,-12.686,M,1.0,0000*59
$GPGGA,103516.00,3030.67833410,N,11424.06317274,E,4,17,0.7,55.447,M,-12.686,M,2.0,0000*59
$GPGGA,103517.00,3030.67833394,N,11424.06316665,E,4,17,0.7,55.452,M,-12.686,M,1.0,0000*51
$GPGGA,103518.00,3030.67833743,N,11424.06316578,E,4,17,0.7,55.478,M,-12.686,M,1.0,0000*57
$GPGGA,103519.00,3030.67833860,N,11424.06315847,E,4,17,0.7,55.484,M,-12.686,M,1.0,0000*59
$GPGGA,103520.00,3030.67834119,N,11424.06314797,E,4,17,0.7,55.509,M,-12.686,M,1.0,0000*54
$GPGGA,103521.00,3030.67834300,N,11424.06316783,E,4,17,0.7,55.471,M,-12.686,M,1.0,0000*56
$GPGGA,103522.00,3030.67834067,N,11424.06315113,E,4,17,0.7,55.498,M,-12.686,M,1.0,0000*5C
$GPGGA,103523.00,3030.67834724,N,11424.06313633,E,4,17,0.7,55.524,M,-12.686,M,1.0,0000*58
$GPGGA,103524.00,3030.67834233,N,11424.06315274,E,4,17,0.7,55.490,M,-12.686,M,1.0,0000*53
$GPGGA,103525.00,3030.67834276,N,11424.06315362,E,5,17,0.7,55.491,M,-12.686,M,2.0,0000*56
$GPGGA,103526.00,3030.67834834,N,11424.06313405,E,5,17,0.7,55.518,M,-12.686,M,1.0,0000*5A
$GPGGA,103527.00,3030.67835302,N,11424.06312576,E,5,17,0.7,55.542,M,-12.686,M,1.0,0000*5F
$GPGGA,103528.00,3030.67834827,N,11424.06312869,E,5,17,0.7,55.529,M,-12.686,M,1.0,0000*53
$GPGGA,103529.00,3030.67835093,N,11424.06312861,E,5,17,0.7,55.531,M,-12.686,M,1.0,0000*55
$GPGGA,103530.00,3030.67835853,N,11424.06311050,E,5,17,0.7,55.576,M,-12.686,M,1.0,0000*53
$GPGGA,103531.00,3030.67835856,N,11424.06312421,E,5,17,0.7,55.549,M,-12.686,M,1.0,0000*5A
$GPGGA,103532.00,3030.67835719,N,11424.06312373,E,5,17,0.7,55.548,M,-12.686,M,2.0,0000*5F
$GPGGA,103533.00,3030.67835423,N,11424.06311974,E,5,17,0.7,55.559,M,-12.686,M,2.0,0000*5A
$GPGGA,103534.00,3030.67836347,N,11424.06310362,E,5,17,0.7,55.579,M,-12.686,M,1.0,0000*56
$GPGGA,103535.00,3030.67836387,N,11424.06310457,E,5,17,0.7,55.579,M,-12.686,M,2.0,0000*59
$GPGGA,103536.00,3030.67835999,N,11424.06311827,E,5,17,0.7,55.552,M,-12.686,M,1.0,0000*5C
$GPGGA,103537.00,3030.67835964,N,11424.06311635,E,5,17,0.7,55.554,M,-12.686,M,2.0,0000*57
$GPGGA,103538.00,3030.67836934,N,11424.06310241,E,5,17,0.7,55.590,M,-12.686,M,1.0,0000*53
$GPGGA,103539.00,3030.67836695,N,11424.06309380,E,5,17,0.7,55.600,M,-12.686,M,1.0,0000*58
$GPGGA,103540.00,3030.67825670,N,11424.06339818,E,4,17,0.7,55.102,M,-12.686,M,1.0,0000*52
$GPGGA,103541.00,3030.67825593,N,11424.06339487,E,4,17,0.7,55.103,M,-12.686,M,2.0,0000*55
$GPGGA,103542.00,3030.67825814,N,11424.06339171,E,4,17,0.7,55.102,M,-12.686,M,2.0,0000*59
$GPGGA,103543.00,3030.67825714,N,11424.06339868,E,4,17,0.7,55.094,M,-12.686,M,1.0,0000*5B
$GPGGA,103544.00,3030.67825865,N,11424.06339871,E,4,17,0.7,55.094,M,-12.686,M,1.0,0000*5D
$GPGGA,103545.00,3030.67826011,N,11424.06340502,E,4,17,0.7,55.085,M,-12.686,M,1.0,0000*53
$GPGGA,103546.00,3030.67825706,N,11424.06339016,E,4,17,0.7,55.103,M,-12.686,M,1.0,0000*53
$GPGGA,103547.00,3030.67825601,N,11424.06339310,E,4,17,0.7,55.102,M,-12.686,M,1.0,0000*50
$GPGGA,103548.00,3030.67825580,N,11424.06339535,E,4,17,0.7,55.103,M,-12.686,M,2.0,0000*56
$GPGGA,103549.00,3030.67825694,N,11424.06339799,E,4,17,0.7,55.096,M,-12.686,M,1.0,0000*5B
$GPGGA,103550.00,3030.67825866,N,11424.06339153,E,4,17,0.7,55.105,M,-12.686,M,1.0,0000*5B
$GPGGA,103551.00,3030.67825778,N,11424.06338983,E,4,17,0.7,55.110,M,-12.686,M,2.0,0000*59
$GPGGA,103552.00,3030.67825742,N,11424.06339994,E,4,17,0.7,55.093,M,-12.686,M,1.0,0000*5D
$GPGGA,103553.00,3030.67825802,N,11424.06338927,E,4,17,0.7,55.106,M,-12.686,M,1.0,0000*53
$GPGGA,103554.00,3030.67825750,N,11424.06338868,E,4,17,0.7,55.108,M,-12.686,M,1.0,0000*58
$GPGGA,103555.00,3030.67825621,N,11424.06339245,E,4,17,0.7,55.110,M,-12.686,M,2.0,0000*50
$GPGGA,103556.00,3030.67825735,N,11424.06339809,E,4,17,0.7,55.099,M,-12.686,M,2.0,0000*55
$GPGGA,103557.00,3030.67825729,N,11424.06339750,E,4,17,0.7,55.100,M,-12.686,M,3.0,0000*5A
$GPGGA,103558.00,3030.67825664,N,11424.06339274,E,4,17,0.7,55.110,M,-12.686,M,2.0,0000*5E
$GPGGA,103559.00,3030.67825783,N,11424.06339769,E,4,17,0.7,55.107,M,-12.686,M,2.0,0000*58
$GPGGA,103600.00,3030.67825846,N,11424.06339657,E,4,17,0.7,55.097,M,-12.686,M,1.0,0000*56
$GPGGA,103601.00,3030.67825804,N,11424.06338691,E,4,17,0.7,55.118,M,-12.686,M,1.0,0000*5C
$GPGGA,103602.00,3030.67825582,N,11424.06339254,E,4,17,0.7,55.105,M,-12.686,M,1.0,0000*5C
$GPGGA,103603.00,3030.67825758,N,11424.06339458,E,4,17,0.7,55.107,M,-12.686,M,1.0,0000*50
$GPGGA,103604.00,3030.67825861,N,11424.06339102,E,4,17,0.7,55.107,M,-12.686,M,1.0,0000*58
$GPGGA,103605.00,3030.67825948,N,11424.06339285,E,4,17,0.7,55.111,M,-12.686,M,1.0,0000*58
$GPGGA,103606.00,3030.67825999,N,11424.06338773,E,4,17,0.7,55.117,M,-12.686,M,1.0,0000*5C
$GPGGA,103607.00,3030.67825736,N,11424.06339643,E,4,17,0.7,55.101,M,-12.686,M,2.0,0000*51
$GPGGA,103608.00,3030.67825648,N,11424.06338053,E,4,17,0.7,55.125,M,-12.686,M,1.0,0000*55
$GPGGA,103609.00,3030.67825735,N,11424.06338725,E,4,17,0.7,55.115,M,-12.686,M,1.0,0000*5A
$GPGGA,103610.00,3030.67825789,N,11424.06339279,E,4,17,0.7,55.106,M,-12.686,M,1.0,0000*5A
$GPGGA,103611.00,3030.67825639,N,11424.06339087,E,4,17,0.7,55.113,M,-12.686,M,1.0,0000*56
$GPGGA,103612.00,3030.67825956,N,11424.06338804,E,4,17,0.7,55.117,M,-12.686,M,1.0,0000*55
$GPGGA,103613.00,3030.67825700,N,11424.06339149,E,4,17,0.7,55.113,M,-12.686,M,1.0,0000*5C
$GPGGA,103614.00,3030.67825731,N,11424.06339366,E,4,17,0.7,55.113,M,-12.686,M,1.0,0000*56
$GPGGA,103615.00,3030.67825885,N,11424.06338647,E,4,17,0.7,55.118,M,-12.686,M,1.0,0000*5B
$GPGGA,103616.00,3030.67825914,N,11424.06338973,E,4,16,0.7,55.112,M,-12.686,M,1.0,0000*52
$GPGGA,103617.00,3030.67825841,N,11424.06338943,E,4,17,0.7,55.119,M,-12.686,M,1.0,0000*5B
$GPGGA,103618.00,3030.67826084,N,11424.06339310,E,4,17,0.7,55.116,M,-12.686,M,1.0,0000*54
$GPGGA,103619.00,3030.67825688,N,11424.06338112,E,4,17,0.7,55.131,M,-12.686,M,1.0,0000*58
$GPGGA,103620.00,3030.67825785,N,11424.06339781,E,4,17,0.7,55.102,M,-12.686,M,1.0,0000*53
$GPGGA,103621.00,3030.67825774,N,11424.06338119,E,4,17,0.7,55.131,M,-12.686,M,1.0,0000*5A
$GPGGA,103622.00,3030.67825793,N,11424.06339011,E,4,17,0.7,55.117,M,-12.686,M,1.0,0000*5C
$GPGGA,103623.00,3030.67825870,N,11424.06338669,E,4,17,0.7,55.128,M,-12.686,M,1.0,0000*5B
$GPGGA,103624.00,3030.67825776,N,11424.06338816,E,4,17,0.7,55.115,M,-12.686,M,1.0,0000*5D
$GPGGA,103625.00,3030.67825785,N,11424.06338867,E,4,17,0.7,55.118,M,-12.686,M,1.0,0000*5B
$GPGGA,103626.00,3030.67825724,N,11424.06338767,E,4,17,0.7,55.113,M,-12.686,M,2.0,0000*54
$GPGGA,103627.00,3030.67825651,N,11424.06338180,E,4,17,0.7,55.124,M,-12.686,M,1.0,0000*5E
$GPGGA,103628.00,3030.67825273,N,11424.06337297,E,4,17,0.7,55.131,M,-12.686,M,1.0,0000*5B
$GPGGA,103629.00,3030.67825806,N,11424.06338671,E,4,17,0.7,55.118,M,-12.686,M,1.0,0000*5A
$GPGGA,103630.00,3030.67825569,N,11424.06337766,E,4,17,0.7,55.123,M,-12.686,M,1.0,0000*56
$GPGGA,103631.00,3030.67825554,N,11424.06337687,E,4,17,0.7,55.116,M,-12.686,M,1.0,0000*51
$GPGGA,103632.00,3030.67825832,N,11424.06338179,E,4,17,0.7,55.123,M,-12.686,M,1.0,0000*50
$GPGGA,103633.00,3030.67825778,N,11424.06337898,E,4,17,0.7,55.138,M,-12.686,M,1.0,0000*53
$GPGGA,103634.00,3030.67825745,N,11424.06338441,E,4,17,0.7,55.121,M,-12.686,M,1.0,0000*55
$GPGGA,103635.00,3030.67825652,N,11424.06338467,E,4,17,0.8,55.124,M,-12.686,M,1.0,0000*5D
$GPGGA,103636.00,3030.67825890,N,11424.06338514,E,4,17,0.8,55.121,M,-12.686,M,1.0,0000*5E
$GPGGA,103637.00,3030.67825920,N,11424.06338434,E,4,17,0.8,55.128,M,-12.686,M,1.0,0000*5F
$GPGGA,103638.00,3030.67825443,N,11424.06336703,E,4,17,0.8,55.137,M,-12.686,M,1.0,0000*5F
$GPGGA,103639.00,3030.67825527,N,11424.06337252,E,4,17,0.8,55.131,M,-12.686,M,2.0,0000*58
$GPGGA,103640.00,3030.67826294,N,11424.06335507,E,4,17,0.8,55.161,M,-12.686,M,1.0,0000*59
$GPGGA,103641.00,3030.67826599,N,11424.06337027,E,4,17,0.8,55.149,M,-12.686,M,1.0,0000*5D
$GPGGA,103642.00,3030.67826214,N,11424.06336861,E,4,17,0.8,55.138,M,-12.686,M,1.0,0000*51
$GPGGA,103643.00,3030.67826770,N,11424.06334941,E,4,17,0.8,55.167,M,-12.686,M,1.0,0000*5C
$GPGGA,103644.00,3030.67827034,N,11424.06335890,E,4,17,0.8,55.157,M,-12.686,M,1.0,0000*52
$GPGGA,103645.00,3030.67826651,N,11424.06335823,E,4,17,0.8,55.161,M,-12.686,M,1.0,0000*5A
$GPGGA,103646.00,3030.67827190,N,11424.06334409,E,4,17,0.8,55.190,M,-12.686,M,1.0,0000*59
$GPGGA,103647.00,3030.67827490,N,11424.06333329,E,4,17,0.8,55.209,M,-12.686,M,1.0,0000*5C
$GPGGA,103648.00,3030.67827367,N,11424.06334265,E,4,17,0.8,55.192,M,-12.686,M,1.0,0000*53
$GPGGA,103649.00,3030.67827357,N,11424.06334841,E,4,17,0.8,55.186,M,-12.686,M,2.0,0000*5B
$GPGGA,103650.00,3030.67827230,N,11424.06335294,E,4,17,0.8,55.173,M,-12.686,M,2.0,0000*5A
$GPGGA,103651.00,3030.67828179,N,11424.06333168,E,4,17,0.8,55.213,M,-12.686,M,1.0,0000*5A
$GPGGA,103652.00,3030.67827927,N,11424.06331963,E,4,17,0.8,55.231,M,-12.686,M,1.0,0000*54
$GPGGA,103653.00,3030.67828306,N,11424.06333005,E,4,17,0.8,55.236,M,-12.686,M,1.0,0000*5F
$GPGGA,103654.00,3030.67828624,N,11424.06332171,E,4,17,0.8,55.234,M,-12.686,M,1.0,0000*5C
$GPGGA,103655.00,3030.67828684,N,11424.06331887,E,4,17,0.8,55.232,M,-12.686,M,1.0,0000*52
$GPGGA,103656.00,3030.67828743,N,11424.06331812,E,4,17,0.8,55.232,M,-12.686,M,1.0,0000*57
$GPGGA,103657.00,3030.67828831,N,11424.06332638,E,4,17,0.8,55.216,M,-12.686,M,1.0,0000*5F
$GPGGA,103658.00,3030.67829516,N,11424.06331005,E,4,17,0.8,55.256,M,-12.686,M,1.0,0000*56
$GPGGA,103659.00,3030.67829403,N,11424.06329421,E,4,17,0.8,55.277,M,-12.686,M,1.0,0000*5A
$GPGGA,103700.00,3030.67828924,N,11424.06331015,E,4,17,0.8,55.241,M,-12.686,M,1.0,0000*51
$GPGGA,103701.00,3030.67829291,N,11424.06329429,E,4,17,0.8,55.279,M,-12.686,M,1.0,0000*5D
$GPGGA,103702.00,3030.67829660,N,11424.06327306,E,4,17,0.8,55.303,M,-12.686,M,1.0,0000*5C
$GPGGA,103703.00,3030.67829609,N,11424.06329279,E,4,17,0.8,55.270,M,-12.686,M,1.0,0000*50
$GPGGA,103704.00,3030.67829654,N,11424.06329721,E,4,17,0.8,55.271,M,-12.686,M,1.0,0000*56
$GPGGA,103705.00,3030.67830023,N,11424.06328890,E,4,17,0.8,55.285,M,-12.686,M,1.0,0000*56
$GPGGA,103706.00,3030.67830171,N,11424.06327464,E,4,17,0.8,55.296,M,-12.686,M,1.0,0000*59
$GPGGA,103707.00,3030.67830293,N,11424.06328278,E,4,17,0.8,55.286,M,-12.686,M,1.0,0000*52
$GPGGA,103708.00,3030.67830202,N,11424.06328327,E,4,17,0.8,55.287,M,-12.686,M,2.0,0000*5C
$GPGGA,103709.00,3030.67830948,N,11424.06327275,E,4,17,0.8,55.309,M,-12.686,M,1.0,0000*55
$GPGGA,103710.00,3030.67830784,N,11424.06327122,E,4,17,0.8,55.320,M,-12.686,M,1.0,0000*59
$GPGGA,103711.00,3030.67831054,N,11424.06327352,E,4,17,0.8,55.315,M,-12.686,M,1.0,0000*50
$GPGGA,103712.00,3030.67831290,N,11424.06325783,E,4,17,0.8,55.342,M,-12.686,M,1.0,0000*51
$GPGGA,103713.00,3030.67831426,N,11424.06326292,E,4,17,0.8,55.332,M,-12.686,M,2.0,0000*59
$GPGGA,103714.00,3030.67831385,N,11424.06324887,E,4,17,0.8,55.356,M,-12.686,M,1.0,0000*5D
$GPGGA,103715.00,3030.67831728,N,11424.06325328,E,4,17,0.8,55.351,M,-12.686,M,1.0,0000*57
$GPGGA,103716.00,3030.67831672,N,11424.06324762,E,4,17,0.7,55.358,M,-12.686,M,1.0,0000*57
$GPGGA,103717.00,3030.67831727,N,11424.06324166,E,4,17,0.8,55.363,M,-12.686,M,1.0,0000*52
$GPGGA,103718.00,3030.67831727,N,11424.06324791,E,4,17,0.8,55.361,M,-12.686,M,1.0,0000*51
$GPGGA,103719.00,3030.67832133,N,11424.06324174,E,4,17,0.8,55.371,M,-12.686,M,1.0,0000*5C
$GPGGA,103720.00,3030.67832424,N,11424.06323672,E,4,17,0.8,55.378,M,-12.686,M,1.0,0000*5A
$GPGGA,103721.00,3030.67832380,N,11424.06323261,E,4,17,0.8,55.384,M,-12.686,M,2.0,0000*54
$GPGGA,103722.00,3030.67832388,N,11424.06322444,E,4,17,0.8,55.392,M,-12.686,M,2.0,0000*58
$GPGGA,103723.00,3030.67833064,N,11424.06322141,E,4,17,0.7,55.410,M,-12.686,M,1.0,0000*58
$GPGGA,103724.00,3030.67833062,N,11424.06322542,E,4,17,0.7,55.401,M,-12.686,M,2.0,0000*5D
$GPGGA,103725.00,3030.67833370,N,11424.06322132,E,4,17,0.7,55.405,M,-12.686,M,1.0,0000*58
$GPGGA,103726.00,3030.67833212,N,11424.06320966,E,4,17,0.7,55.415,M,-12.686,M,1.0,0000*54
$GPGGA,103727.00,3030.67833676,N,11424.06321490,E,4,17,0.7,55.427,M,-12.686,M,1.0,0000*57
$GPGGA,103728.00,3030.67833906,N,11424.06320772,E,4,17,0.7,55.434,M,-12.686,M,1.0,0000*5C
$GPGGA,103729.00,3030.67833777,N,11424.06320666,E,4,17,0.7,55.431,M,-12.686,M,2.0,0000*57
$GPGGA,103730.00,3030.67833872,N,11424.06320028,E,4,17,0.7,55.446,M,-12.686,M,1.0,0000*5A
$GPGGA,103731.00,3030.67834145,N,11424.06320370,E,4,17,0.7,55.444,M,-12.686,M,1.0,0000*5D
$GPGGA,103732.00,3030.67834018,N,11424.06320060,E,4,17,0.7,55.445,M,-12.686,M,2.0,0000*57
$GPGGA,103733.00,3030.67834507,N,11424.06319905,E,4,17,0.7,55.450,M,-12.686,M,1.0,0000*5A
$GPGGA,103734.00,3030.67834793,N,11424.06319523,E,4,17,0.7,55.459,M,-12.686,M,1.0,0000*53
$GPGGA,103735.00,3030.67834864,N,11424.06319085,E,4,17,0.7,55.472,M,-12.686,M,1.0,0000*55
$GPGGA,103736.00,3030.67835211,N,11424.06318806,E,4,17,0.7,55.481,M,-12.686,M,1.0,0000*51
$GPGGA,103737.00,3030.67835341,N,11424.06318350,E,4,17,0.7,55.474,M,-12.686,M,1.0,0000*56
$GPGGA,103738.00,3030.67835284,N,11424.06318403,E,4,17,0.7,55.477,M,-12.686,M,2.0,0000*50
$GPGGA,103739.00,3030.67835634,N,11424.06318337,E,4,17,0.7,55.479,M,-12.686,M,1.0,0000*53
$GPGGA,103740.00,3030.67835694,N,11424.06318612,E,4,17,0.7,55.473,M,-12.686,M,1.0,0000*5F
$GPGGA,103741.00,3030.67836004,N,11424.06317285,E,4,17,0.7,55.509,M,-12.686,M,1.0,0000*5B
$GPGGA,103742.00,3030.67835907,N,11424.06316970,E,4,17,0.7,55.509,M,-12.686,M,2.0,0000*52
$GPGGA,103743.00,3030.67836088,N,11424.06316702,E,4,17,0.7,55.510,M,-12.686,M,1.0,0000*5E
$GPGGA,103744.00,3030.67836308,N,11424.06316928,E,4,17,0.7,55.501,M,-12.686,M,1.0,0000*54
$GPGGA,103745.00,3030.67836395,N,11424.06315967,E,4,17,0.7,55.522,M,-12.686,M,1.0,0000*58
$GPGGA,103746.00,3030.67836844,N,11424.06316302,E,4,17,0.7,55.518,M,-12.686,M,1.0,0000*5F
$GPGGA,103747.00,3030.67836878,N,11424.06315424,E,4,17,0.7,55.529,M,-12.686,M,1.0,0000*53
$GPGGA,103748.00,3030.67837124,N,11424.06316236,E,4,17,0.7,55.516,M,-12.686,M,1.0,0000*57
$GPGGA,103749.00,3030.67837233,N,11424.06316067,E,5,17,0.7,55.521,M,-12.686,M,1.0,0000*50
$GPGGA,103750.00,3030.67837484,N,11424.06314446,E,5,17,0.7,55.547,M,-12.686,M,1.0,0000*57
$GPGGA,103751.00,3030.67837254,N,11424.06314500,E,5,17,0.7,55.545,M,-12.686,M,1.0,0000*5C
$GPGGA,103752.00,3030.67837943,N,11424.06314713,E,5,17,0.7,55.550,M,-12.686,M,1.0,0000*56
$GPGGA,103753.00,3030.67837878,N,11424.06314507,E,5,17,0.7,55.547,M,-12.686,M,1.0,0000*5F
$GPGGA,103754.00,3030.67838098,N,11424.06315190,E,5,17,0.7,55.539,M,-12.686,M,1.0,0000*53
$GPGGA,103755.00,3030.67838264,N,11424.06314327,E,5,17,0.7,55.549,M,-12.686,M,1.0,0000*5B
$GPGGA,103756.00,3030.67838258,N,11424.06314653,E,5,17,0.7,55.545,M,-12.686,M,2.0,0000*5E
$GPGGA,103757.00,3030.67838135,N,11424.06314221,E,5,17,0.7,55.547,M,-12.686,M,2.0,0000*54
$GPGGA,103758.00,3030.67837950,N,11424.06313224,E,5,17,0.7,55.561,M,-12.686,M,3.0,0000*58
$GPGGA,103759.00,3030.67838294,N,11424.06313258,E,5,17,0.7,55.568,M,-12.686,M,2.0,0000*56
$GPGGA,103800.00,3030.67838995,N,11424.06313624,E,5,17,0.7,55.575,M,-12.686,M,2.0,0000*5C
$GPGGA,103801.00,3030.67839111,N,11424.06311891,E,5,17,0.7,55.589,M,-12.686,M,1.0,0000*5A
$GPGGA,103802.00,3030.67839332,N,11424.06311944,E,5,17,0.7,55.598,M,-12.686,M,1.0,0000*53
$GPGGA,103803.00,3030.67839699,N,11424.06311332,E,5,17,0.7,55.615,M,-12.686,M,1.0,0000*5B
$GPGGA,103804.00,3030.67839671,N,11424.06311689,E,5,17,0.7,55.609,M,-12.686,M,2.0,0000*51
$GPGGA,103805.00,3030.67839896,N,11424.06310117,E,5,17,0.7,55.627,M,-12.686,M,1.0,0000*59
$GPGGA,103806.00,3030.67839829,N,11424.06310634,E,5,17,0.7,55.620,M,-12.686,M,1.0,0000*5F
$GPGGA,103807.00,3030.67840279,N,11424.06310257,E,5,17,0.7,55.633,M,-12.686,M,1.0,0000*5C
$GPGGA,103808.00,3030.67840294,N,11424.06310139,E,5,17,0.7,55.632,M,-12.686,M,2.0,0000*59
$GPGGA,103809.00,3030.67840316,N,11424.06310007,E,5,17,0.7,55.629,M,-12.686,M,2.0,0000*55
$GPGGA,103810.00,3030.67840851,N,11424.06309381,E,5,17,0.7,55.662,M,-12.686,M,1.0,0000*5C
$GPGGA,103811.00,3030.67840946,N,11424.06308277,E,5,17,0.7,55.668,M,-12.686,M,1.0,0000*59
$GPGGA,103812.00,3030.67840743,N,11424.06309267,E,5,17,0.7,55.646,M,-12.686,M,1.0,0000*5D
$GPGGA,103813.00,3030.67840873,N,11424.06309624,E,5,17,0.8,55.643,M,-12.686,M,1.0,0000*59
$GPGGA,103814.00,3030.67840856,N,11424.06308367,E,5,17,0.8,55.660,M,-12.686,M,1.0,0000*5B
$GPGGA,103815.00,3030.67841613,N,11424.06307853,E,5,17,0.8,55.678,M,-12.686,M,1.0,0000*5E
$GPGGA,103816.00,3030.67841234,N,11424.06308579,E,5,17,0.8,55.654,M,-12.686,M,1.0,0000*58
$GPGGA,103817.00,3030.67841231,N,11424.06308699,E,5,17,0.8,55.645,M,-12.686,M,2.0,0000*52
$GPGGA,103818.00,3030.67841864,N,11424.06306947,E,5,17,0.8,55.694,M,-12.686,M,1.0,0000*5A
$GPGGA,103819.00,3030.67841818,N,11424.06307393,E,5,17,0.8,55.684,M,-12.686,M,1.0,0000*53
$GPGGA,103820.00,3030.67842251,N,11424.06307249,E,5,17,0.8,55.682,M,-12.686,M,1.0,0000*5D
$GPGGA,103821.00,3030.67842214,N,11424.06306217,E,5,17,0.8,55.708,M,-12.686,M,1.0,0000*54
$GPGGA,103822.00,3030.67842768,N,11424.06305712,E,5,17,0.8,55.716,M,-12.686,M,1.0,0000*55
$GPGGA,103823.00,3030.67842879,N,11424.06305620,E,5,17,0.8,55.729,M,-12.686,M,1.0,0000*57
$GPGGA,103824.00,3030.67842420,N,11424.06306654,E,5,17,0.8,55.703,M,-12.686,M,1.0,0000*58
$GPGGA,103825.00,3030.67842643,N,11424.06305411,E,5,17,0.8,55.723,M,-12.686,M,1.0,0000*5C
$GPGGA,103826.00,3030.67843579,N,11424.06304733,E,5,17,0.8,55.746,M,-12.686,M,1.0,0000*55
$GPGGA,103827.00,3030.67843609,N,11424.06304765,E,5,17,0.8,55.743,M,-12.686,M,2.0,0000*55
$GPGGA,103828.00,3030.67843384,N,11424.06303866,E,5,17,0.8,55.753,M,-12.686,M,1.0,0000*53
$GPGGA,103829.00,3030.67843586,N,11424.06303444,E,5,17,0.8,55.766,M,-12.686,M,1.0,0000*5C
$GPGGA,103830.00,3030.67843776,N,11424.06303717,E,5,17,0.8,55.760,M,-12.686,M,1.0,0000*5A
$GPGGA,103831.00,3030.67843953,N,11424.06303976,E,5,17,0.8,55.757,M,-12.686,M,1.0,0000*5F
$GPGGA,103832.00,3030.67844093,N,11424.06302385,E,5,17,0.8,55.775,M,-12.686,M,1.0,0000*59
$GPGGA,103833.00,3030.67844352,N,11424.06302077,E,5,17,0.8,55.786,M,-12.686,M,1.0,0000*54
$GPGGA,103834.00,3030.67844542,N,11424.06303060,E,5,17,0.8,55.776,M,-12.686,M,1.0,0000*5C
$GPGGA,103835.00,3030.67844444,N,11424.06302231,E,5,17,0.8,55.785,M,-12.686,M,2.0,0000*52
$GPGGA,103836.00,3030.67844632,N,11424.06302031,E,5,17,0.8,55.794,M,-12.686,M,1.0,0000*53
$GPGGA,103837.00,3030.67844858,N,11424.06301846,E,5,17,0.8,55.798,M,-12.686,M,1.0,0000*57
$GPGGA,103838.00,3030.67844992,N,11424.06301976,E,5,17,0.8,55.794,M,-12.686,M,2.0,0000*52
$GPGGA,103839.00,3030.67845010,N,11424.06302206,E,5,17,0.8,55.788,M,-12.686,M,1.0,0000*50
$GPGGA,103840.00,3030.67845749,N,11424.06300642,E,5,17,0.8,55.818,M,-12.686,M,1.0,0000*55
$GPGGA,103841.00,3030.67846074,N,11424.06300570,E,5,17,0.8,55.821,M,-12.686,M,1.0,0000*56
$GPGGA,103842.00,3030.67846216,N,11424.06300926,E,5,17,0.8,55.822,M,-12.686,M,2.0,0000*5C
$GPGGA,103843.00,3030.67846323,N,11424.06300580,E,5,17,0.8,55.829,M,-12.686,M,2.0,0000*51
$GPGGA,103844.00,3030.67846302,N,11424.06300778,E,5,17,0.8,55.828,M,-12.686,M,3.0,0000*50
$GPGGA,103845.00,3030.67846365,N,11424.06300765,E,5,17,0.8,55.829,M,-12.686,M,4.0,0000*5A
$GPGGA,103846.00,3030.67846387,N,11424.06300846,E,5,17,0.8,55.821,M,-12.686,M,5.0,0000*52
$GPGGA,103847.00,3030.67846328,N,11424.06301209,E,5,17,0.8,55.818,M,-12.686,M,6.0,0000*5F
$GPGGA,103848.00,3030.67845924,N,11424.06301003,E,5,17,0.8,55.803,M,-12.686,M,6.0,0000*57
$GPGGA,103849.00,3030.67846518,N,11424.06300506,E,5,17,0.8,55.819,M,-12.686,M,5.0,0000*5F
$GPGGA,103850.00,3030.67846531,N,11424.06300440,E,5,17,0.8,55.824,M,-12.686,M,4.0,0000*50
$GPGGA,103851.00,3030.67846409,N,11424.06300531,E,5,17,0.8,55.821,M,-12.686,M,4.0,0000*59
$GPGGA,103852.00,3030.67846434,N,11424.06300854,E,5,17,0.8,55.814,M,-12.686,M,3.0,0000*5B
$GPGGA,103853.00,3030.67846440,N,11424.06300643,E,5,17,0.8,55.817,M,-12.686,M,2.0,0000*53
$GPGGA,103854.00,3030.67846294,N,11424.06300979,E,5,17,0.8,55.816,M,-12.686,M,2.0,0000*5C
$GPGGA,103855.00,3030.67846252,N,11424.06300701,E,5,17,0.8,55.820,M,-12.686,M,2.0,0000*53
$GPGGA,103856.00,3030.67846363,N,11424.06301344,E,5,17,0.8,55.811,M,-12.686,M,1.0,0000*56
$GPGGA,103857.00,3030.67846260,N,11424.06301237,E,5,17,0.8,55.810,M,-12.686,M,1.0,0000*51
$GPGGA,103858.00,3030.67846151,N,11424.06301431,E,5,17,0.8,55.808,M,-12.686,M,1.0,0000*56
$GPGGA,103859.00,3030.67846264,N,11424.06301150,E,5,17,0.8,55.807,M,-12.686,M,2.0,0000*5C
$GPGGA,103900.00,3030.67846288,N,11424.06301598,E,5,17,0.8,55.799,M,-12.686,M,2.0,0000*5B
$GPGGA,103901.00,3030.67846202,N,11424.06301540,E,5,17,0.8,55.798,M,-12.686,M,2.0,0000*5C
$GPGGA,103902.00,3030.67846157,N,11424.06301759,E,5,17,0.8,55.790,M,-12.686,M,1.0,0000*5D
$GPGGA,103903.00,3030.67846317,N,11424.06301854,E,5,17,0.8,55.791,M,-12.686,M,2.0,0000*5A
$GPGGA,103904.00,3030.67846360,N,11424.06302502,E,5,17,0.8,55.784,M,-12.686,M,1.0,0000*57
$GPGGA,103905.00,3030.67846164,N,11424.06302299,E,5,17,0.8,55.781,M,-12.686,M,1.0,0000*50
$GPGGA,103906.00,3030.67846137,N,11424.06301919,E,5,17,0.8,55.787,M,-12.686,M,1.0,0000*53
$GPGGA,103907.00,3030.67846309,N,11424.06302000,E,5,17,0.8,55.786,M,-12.686,M,1.0,0000*5E
$GPGGA,103908.00,3030.67846142,N,11424.06302265,E,5,17,0.8,55.782,M,-12.686,M,2.0,0000*5A
$GPGGA,103909.00,3030.67846118,N,11424.06301768,E,5,17,0.8,55.792,M,-12.686,M,1.0,0000*5D
$GPGGA,103910.00,3030.67846084,N,11424.06302234,E,5,17,0.8,55.785,M,-12.686,M,1.0,0000*58
$GPGGA,103911.00,3030.67846094,N,11424.06302090,E,5,17,0.8,55.779,M,-12.686,M,1.0,0000*57
$GPGGA,103912.00,3030.67845999,N,11424.06302104,E,5,17,0.8,55.780,M,-12.686,M,1.0,0000*59
$GPGGA,103913.00,3030.67845915,N,11424.06301765,E,5,17,0.8,55.783,M,-12.686,M,1.0,0000*5D
$GPGGA,103914.00,3030.67846027,N,11424.06302331,E,5,17,0.8,55.775,M,-12.686,M,1.0,0000*5E
$GPGGA,103915.00,3030.67846356,N,11424.06301067,E,5,17,0.8,55.776,M,-12.686,M,1.0,0000*5A
$GPGGA,103916.00,3030.67846048,N,11424.06301522,E,5,17,0.8,55.769,M,-12.686,M,1.0,0000*5F
$GPGGA,103917.00,3030.67846163,N,11424.06300551,E,5,17,0.8,55.808,M,-12.686,M,1.0,0000*5B
$GPGGA,103918.00,3030.67846452,N,11424.06300923,E,5,17,0.8,55.780,M,-12.686,M,1.0,0000*55
$GPGGA,103919.00,3030.67846076,N,11424.06300419,E,5,17,0.8,55.790,M,-12.686,M,1.0,0000*53
$GPGGA,103920.00,3030.67846205,N,11424.06301363,E,5,17,0.8,55.779,M,-12.686,M,1.0,0000*53
$GPGGA,103921.00,3030.67846132,N,11424.06300513,E,5,17,0.8,55.775,M,-12.686,M,1.0,0000*59
$GPGGA,103922.00,3030.67845957,N,11424.06301818,E,5,17,0.8,55.782,M,-12.686,M,1.0,0000*5D
$GPGGA,103923.00,3030.67845771,N,11424.06301458,E,5,17,0.8,55.787,M,-12.686,M,1.0,0000*5B
$GPGGA,103924.00,3030.67845650,N,11424.06300932,E,5,17,0.8,55.785,M,-12.686,M,1.0,0000*5C
$GPGGA,103925.00,3030.67846391,N,11424.06300429,E,5,17,0.8,55.785,M,-12.686,M,1.0,0000*51
$GPGGA,103926.00,3030.67846074,N,11424.06300005,E,5,17,0.8,55.798,M,-12.686,M,1.0,0000*5C
$GPGGA,103927.00,3030.67845862,N,11424.06299869,E,5,17,0.8,55.793,M,-12.686,M,1.0,0000*59
$GPGGA,103928.00,3030.67846189,N,11424.06300626,E,5,16,0.8,55.780,M,-12.686,M,1.0,0000*5E
$GPGGA,103929.00,3030.67845760,N,11424.06299988,E,5,16,0.8,55.793,M,-12.686,M,1.0,0000*55
$GPGGA,103930.00,3030.67845830,N,11424.06300373,E,5,17,0.8,55.789,M,-12.686,M,1.0,0000*52
$GPGGA,103931.00,3030.67846011,N,11424.06300753,E,5,17,0.8,55.773,M,-12.686,M,1.0,0000*58
$GPGGA,103932.00,3030.67845666,N,11424.06301133,E,5,17,0.8,55.778,M,-12.686,M,1.0,0000*54
$GPGGA,103933.00,3030.67846187,N,11424.06300488,E,5,17,0.8,55.780,M,-12.686,M,1.0,0000*5D
$GPGGA,103934.00,3030.67845658,N,11424.06299916,E,5,17,0.8,55.794,M,-12.686,M,2.0,0000*51
$GPGGA,103935.00,3030.67845606,N,11424.06300732,E,5,17,0.8,55.782,M,-12.686,M,2.0,0000*55
$GPGGA,103936.00,3030.67845646,N,11424.06300221,E,5,17,0.8,55.788,M,-12.686,M,1.0,0000*5C
$GPGGA,103937.00,3030.67845857,N,11424.06300575,E,5,17,0.8,55.788,M,-12.686,M,1.0,0000*55
$GPGGA,103938.00,3030.67845833,N,11424.06300073,E,5,17,0.8,55.788,M,-12.686,M,1.0,0000*5B
$GPGGA,103939.00,3030.67845599,N,11424.06300903,E,5,17,0.8,55.777,M,-12.686,M,1.0,0000*59
$GPGGA,103940.00,3030.67845861,N,11424.06298811,E,5,17,0.8,55.799,M,-12.686,M,1.0,0000*5F
$GPGGA,103941.00,3030.67845693,N,11424.06299346,E,5,17,0.8,55.800,M,-12.686,M,1.0,0000*5A
$GPGGA,103942.00,3030.67845678,N,11424.06300048,E,5,17,0.8,55.784,M,-12.686,M,1.0,0000*53
$GPGGA,103943.00,3030.67845736,N,11424.06299930,E,5,17,0.8,55.780,M,-12.686,M,1.0,0000*5A
$GPGGA,103944.00,3030.67845439,N,11424.06298928,E,5,17,0.8,55.790,M,-12.686,M,2.0,0000*5B
$GPGGA,103945.00,3030.67845730,N,11424.06300147,E,5,17,0.8,55.782,M,-12.686,M,1.0,0000*51
$GPGGA,103946.00,3030.67845570,N,11424.06299158,E,5,17,0.8,55.780,M,-12.686,M,1.0,0000*59
$GPGGA,103947.00,3030.67845656,N,11424.06299790,E,5,17,0.8,55.780,M,-12.686,M,1.0,0000*5D
$GPGGA,103948.00,3030.67845762,N,11424.06299893,E,5,17,0.8,55.764,M,-12.686,M,1.0,0000*52
$GPGGA,103949.00,3030.67845778,N,11424.06300122,E,5,17,0.8,55.775,M,-12.686,M,1.0,0000*5A
$GPGGA,103950.00,3030.67845823,N,11424.06298872,E,5,17,0.8,55.809,M,-12.686,M,1.0,0000*5B
$GPGGA,103951.00,3030.67845591,N,11424.06298782,E,5,17,0.8,55.786,M,-12.686,M,1.0,0000*56
$GPGGA,103952.00,3030.67845532,N,11424.06298580,E,5,17,0.8,55.789,M,-12.686,M,1.0,0000*53
$GPGGA,103953.00,3030.67845579,N,11424.06299468,E,5,17,0.8,55.773,M,-12.686,M,1.0,0000*5E
$GPGGA,103954.00,3030.67845315,N,11424.06299181,E,5,17,0.8,55.786,M,-12.686,M,1.0,0000*5D
$GPGGA,103955.00,3030.67845535,N,11424.06299531,E,5,16,0.8,55.771,M,-12.686,M,1.0,0000*5E
$GPGGA,103956.00,3030.67845671,N,11424.06299144,E,5,16,0.8,55.791,M,-12.686,M,1.0,0000*56
$GPGGA,103957.00,3030.67845447,N,11424.06299786,E,5,16,0.8,55.790,M,-12.686,M,1.0,0000*59
$GPGGA,103958.00,3030.67845257,N,11424.06300060,E,5,16,0.8,55.790,M,-12.686,M,2.0,0000*5C
$GPGGA,103959.00,3030.67845362,N,11424.06300369,E,5,16,0.8,55.771,M,-12.686,M,3.0,0000*5E
$GPGGA,104000.00,3030.67845253,N,11424.06300104,E,5,16,0.8,55.785,M,-12.686,M,2.0,0000*5C
$GPGGA,104001.00,3030.67845417,N,11424.06300343,E,5,16,0.8,55.772,M,-12.686,M,2.0,0000*52
$GPGGA,104002.00,3030.67845282,N,11424.06299532,E,5,16,0.8,55.796,M,-12.686,M,1.0,0000*53
$GPGGA,104003.00,3030.67845226,N,11424.06300093,E,5,16,0.8,55.786,M,-12.686,M,1.0,0000*52
$GPGGA,104004.00,3030.67845207,N,11424.06299199,E,5,16,0.8,55.800,M,-12.686,M,1.0,0000*5D
$GPGGA,104005.00,3030.67845149,N,11424.06299709,E,5,16,0.8,55.813,M,-12.686,M,1.0,0000*58
$GPGGA,104006.00,3030.67845126,N,11424.06300221,E,5,16,0.8,55.783,M,-12.686,M,1.0,0000*5A
$GPGGA,104007.00,3030.67845125,N,11424.06299991,E,5,16,0.8,55.780,M,-12.686,M,1.0,0000*5A
$GPGGA,104008.00,3030.67845373,N,11424.06300795,E,5,16,0.8,55.779,M,-12.686,M,1.0,0000*59
$GPGGA,104009.00,3030.67845352,N,11424.06300061,E,5,16,0.8,55.784,M,-12.686,M,1.0,0000*55
$GPGGA,104010.00,3030.67845305,N,11424.06299792,E,5,16,0.8,55.788,M,-12.686,M,1.0,0000*59
$GPGGA,104011.00,3030.67845481,N,11424.06299735,E,5,16,0.8,55.781,M,-12.686,M,2.0,0000*54
$GPGGA,104012.00,3030.67845349,N,11424.06299209,E,5,16,0.8,55.795,M,-12.686,M,1.0,0000*58
$GPGGA,104013.00,3030.67845662,N,11424.06298863,E,5,16,0.8,55.802,M,-12.686,M,1.0,0000*53
$GPGGA,104014.00,3030.67845695,N,11424.06299168,E,5,16,0.8,55.780,M,-12.686,M,1.0,0000*5A
$GPGGA,104015.00,3030.67845516,N,11424.06299025,E,5,16,0.8,55.798,M,-12.686,M,1.0,0000*52
$GPGGA,104016.00,3030.67845413,N,11424.06300144,E,5,16,0.8,55.788,M,-12.686,M,1.0,0000*53
$GPGGA,104017.00,3030.67845532,N,11424.06299356,E,5,16,0.8,55.787,M,-12.686,M,1.0,0000*5F
$GPGGA,104018.00,3030.67845337,N,11424.06299089,E,5,16,0.8,55.787,M,-12.686,M,1.0,0000*52
$GPGGA,104019.00,3030.67845580,N,11424.06299476,E,5,16,0.8,55.790,M,-12.686,M,2.0,0000*58
$GPGGA,104020.00,3030.67845478,N,11424.06299049,E,5,16,0.8,55.786,M,-12.686,M,2.0,0000*5B
$GPGGA,104021.00,3030.67845429,N,11424.06298511,E,5,16,0.8,55.793,M,-12.686,M,1.0,0000*50
$GPGGA,104022.00,3030.67845576,N,11424.06299851,E,5,16,0.8,55.779,M,-12.686,M,1.0,0000*54
$GPGGA,104023.00,3030.67845453,N,11424.06300015,E,5,16,0.8,55.780,M,-12.686,M,1.0,0000*5C
$GPGGA,104024.00,3030.67845491,N,11424.06299045,E,5,16,0.8,55.796,M,-12.686,M,2.0,0000*55
$GPGGA,104025.00,3030.67845396,N,11424.06299556,E,5,16,0.8,55.790,M,-12.686,M,2.0,0000*55
$GPGGA,104026.00,3030.67845316,N,11424.06299443,E,5,16,0.8,55.789,M,-12.686,M,1.0,0000*50
$GPGGA,104027.00,3030.67845205,N,11424.06299480,E,5,16,0.8,55.780,M,-12.686,M,1.0,0000*54
$GPGGA,104028.00,3030.67845316,N,11424.06298954,E,5,16,0.8,55.784,M,-12.686,M,1.0,0000*59
$GPGGA,104029.00,3030.67845295,N,11424.06300037,E,5,16,0.8,55.790,M,-12.686,M,1.0,0000*5B
$GPGGA,104030.00,3030.67845127,N,11424.06300148,E,5,16,0.8,55.784,M,-12.686,M,1.0,0000*55
$GPGGA,104031.00,3030.67845051,N,11424.06298668,E,5,16,0.8,55.800,M,-12.686,M,1.0,0000*52
$GPGGA,104032.00,3030.67845192,N,11424.06297785,E,5,16,0.8,55.818,M,-12.686,M,1.0,0000*5B
$GPGGA,104033.00,3030.67845019,N,11424.06299269,E,5,16,0.8,55.785,M,-12.686,M,1.0,0000*5A
$GPGGA,104034.00,3030.67845221,N,11424.06299680,E,5,16,0.8,55.775,M,-12.686,M,2.0,0000*5B
$GPGGA,104035.00,3030.67845118,N,11424.06299448,E,5,16,0.8,55.795,M,-12.686,M,2.0,0000*5B
$GPGGA,104036.00,3030.67844896,N,11424.06299314,E,5,16,0.8,55.774,M,-12.686,M,1.0,0000*54
$GPGGA,104037.00,3030.67844846,N,11424.06298644,E,5,16,0.8,55.803,M,-12.686,M,1.0,0000*56
$GPGGA,104038.00,3030.67844806,N,11424.06299559,E,5,16,0.8,55.786,M,-12.686,M,1.0,0000*51
$GPGGA,104039.00,3030.67844648,N,11424.06298384,E,5,16,0.8,55.821,M,-12.686,M,1.0,0000*51
$GPGGA,104040.00,3030.67844815,N,11424.06299240,E,5,16,0.8,55.792,M,-12.686,M,1.0,0000*56
$GPGGA,104041.00,3030.67844915,N,11424.06298933,E,5,16,0.8,55.800,M,-12.686,M,1.0,0000*5C
$GPGGA,104042.00,3030.67844974,N,11424.06299309,E,5,16,0.8,55.776,M,-12.686,M,1.0,0000*54
$GPGGA,104043.00,3030.67844923,N,11424.06298753,E,5,16,0.8,55.796,M,-12.686,M,2.0,0000*50
$GPGGA,104044.00,3030.67844971,N,11424.06299191,E,5,16,0.8,55.791,M,-12.686,M,2.0,0000*5E
$GPGGA,104045.00,3030.67844737,N,11424.06298594,E,5,17,0.8,55.805,M,-12.686,M,1.0,0000*53
$GPGGA,104046.00,3030.67844725,N,11424.06298787,E,5,17,0.8,55.786,M,-12.686,M,1.0,0000*57
$GPGGA,104047.00,3030.67844766,N,11424.06297676,E,5,17,0.8,55.813,M,-12.686,M,1.0,0000*52
$GPGGA,104048.00,3030.67844682,N,11424.06299028,E,5,17,0.8,55.794,M,-12.686,M,1.0,0000*55
$GPGGA,104049.00,3030.67844989,N,11424.06299607,E,5,17,0.8,55.800,M,-12.686,M,1.0,0000*59
$GPGGA,104050.00,3030.67845056,N,11424.06299814,E,5,17,0.8,55.799,M,-12.686,M,1.0,0000*58
$GPGGA,104051.00,3030.67844922,N,11424.06298888,E,5,17,0.8,55.807,M,-12.686,M,1.0,0000*5E
$GPGGA,104052.00,3030.67844830,N,11424.06299817,E,5,17,0.8,55.798,M,-12.686,M,1.0,0000*51
$GPGGA,104053.00,3030.67844816,N,11424.06299398,E,5,17,0.8,55.802,M,-12.686,M,1.0,0000*54
$GPGGA,104054.00,3030.67844797,N,11424.06297790,E,5,17,0.8,55.829,M,-12.686,M,1.0,0000*5E
$GPGGA,104055.00,3030.67844244,N,11424.06299246,E,5,17,0.8,55.795,M,-12.686,M,1.0,0000*5C
$GPGGA,104056.00,3030.67844571,N,11424.06298911,E,5,17,0.8,55.814,M,-12.686,M,1.0,0000*50
$GPGGA,104057.00,3030.67844530,N,11424.06298196,E,5,17,0.8,55.809,M,-12.686,M,1.0,0000*5F
$GPGGA,104058.00,3030.67844643,N,11424.06299402,E,5,17,0.8,55.801,M,-12.686,M,2.0,0000*55
$GPGGA,104059.00,3030.67844195,N,11424.06298410,E,5,17,0.8,55.813,M,-12.686,M,1.0,0000*5A
$GPGGA,104100.00,3030.67844243,N,11424.06298712,E,5,17,0.8,55.806,M,-12.686,M,1.0,0000*5A
$GPGGA,104101.00,3030.67844164,N,11424.06297552,E,5,17,0.8,55.820,M,-12.686,M,2.0,0000*53
$GPGGA,104102.00,3030.67844396,N,11424.06298442,E,5,17,0.8,55.827,M,-12.686,M,2.0,0000*57
$GPGGA,104103.00,3030.67844225,N,11424.06297957,E,5,17,0.8,55.818,M,-12.686,M,1.0,0000*56
$GPGGA,104104.00,3030.67844505,N,11424.06298241,E,5,17,0.8,55.822,M,-12.686,M,1.0,0000*5E
$GPGGA,104105.00,3030.67844180,N,11424.06298723,E,5,17,2.0,55.821,M,-12.686,M,1.0,0000*5E
$GPGGA,104106.00,3030.67844067,N,11424.06298854,E,5,17,2.0,55.822,M,-12.686,M,1.0,0000*59
$GPGGA,104107.00,3030.67844050,N,11424.06298883,E,5,17,2.0,55.814,M,-12.686,M,1.0,0000*53
$GPGGA,104108.00,3030.67844166,N,11424.06298608,E,5,17,2.0,55.816,M,-12.686,M,2.0,0000*54
$GPGGA,104109.00,3030.67844203,N,11424.06298613,E,5,17,2.0,55.819,M,-12.686,M,1.0,0000*53
$GPGGA,104110.00,3030.67843806,N,11424.06298443,E,5,17,2.0,55.818,M,-12.686,M,1.0,0000*55
$GPGGA,104111.00,3030.67844098,N,11424.06298262,E,5,17,2.0,55.810,M,-12.686,M,1.0,0000*51
$GPGGA,104112.00,3030.67843898,N,11424.06298297,E,5,17,2.0,55.822,M,-12.686,M,2.0,0000*55
$GPGGA,104113.00,3030.67843988,N,11424.06298543,E,5,17,2.0,55.816,M,-12.686,M,1.0,0000*5E
$GPGGA,104114.00,3030.67843972,N,11424.06299332,E,5,17,2.0,55.813,M,-12.686,M,1.0,0000*58
$GPGGA,104115.00,3030.67843979,N,11424.06298972,E,5,17,2.0,55.809,M,-12.686,M,1.0,0000*56
$GPGGA,104116.00,3030.67844072,N,11424.06299070,E,5,17,1.2,55.805,M,-12.686,M,1.0,0000*57
$GPGGA,104117.00,3030.67843856,N,11424.06298691,E,5,17,1.2,55.813,M,-12.686,M,2.0,0000*53
$GPGGA,104118.00,3030.67844123,N,11424.06298203,E,5,17,1.2,55.806,M,-12.686,M,1.0,0000*58
$GPGGA,104119.00,3030.67844265,N,11424.06299081,E,5,17,1.2,55.816,M,-12.686,M,1.0,0000*50
$GPGGA,104120.00,3030.67844042,N,11424.06297520,E,5,17,1.2,55.834,M,-12.686,M,2.0,0000*5E
$GPGGA,104121.00,3030.67844111,N,11424.06298125,E,5,17,1.2,55.827,M,-12.686,M,1.0,0000*57
$GPGGA,104122.00,3030.67844150,N,11424.06298360,E,5,17,1.2,55.828,M,-12.686,M,1.0,0000*5D
$GPGGA,104123.00,3030.67844098,N,11424.06298456,E,5,17,1.2,55.808,M,-12.686,M,1.0,0000*59
$GPGGA,104124.00,3030.67844222,N,11424.06297289,E,5,17,1.2,55.807,M,-12.686,M,1.0,0000*59
$GPGGA,104125.00,3030.67844343,N,11424.06299212,E,5,17,1.2,55.798,M,-12.686,M,1.0,0000*5B
$GPGGA,104126.00,3030.67825882,N,11424.06338879,E,4,17,1.2,55.101,M,-12.686,M,2.0,0000*50
$GPGGA,104127.00,3030.67825616,N,11424.06337719,E,4,17,1.2,55.107,M,-12.686,M,1.0,0000*51
$GPGGA,104128.00,3030.67825307,N,11424.06337600,E,4,17,1.2,55.105,M,-12.686,M,1.0,0000*50
$GPGGA,104129.00,3030.67825709,N,11424.06338683,E,4,17,1.2,55.096,M,-12.686,M,1.0,0000*54
$GPGGA,104130.00,3030.67825721,N,11424.06338570,E,4,17,1.2,55.096,M,-12.686,M,1.0,0000*59
$GPGGA,104131.00,3030.67825644,N,11424.06338821,E,4,17,1.2,55.100,M,-12.686,M,1.0,0000*5D
$GPGGA,104132.00,3030.67825417,N,11424.06337195,E,4,17,1.2,55.110,M,-12.686,M,1.0,0000*52
$GPGGA,104133.00,3030.67825594,N,11424.06337991,E,4,17,1.2,55.115,M,-12.686,M,1.0,0000*50
$GPGGA,104134.00,3030.67825615,N,11424.06337748,E,4,17,1.2,55.113,M,-12.686,M,1.0,0000*51
$GPGGA,104135.00,3030.67825793,N,11424.06339030,E,4,17,1.2,55.102,M,-12.686,M,1.0,0000*59
$GPGGA,104136.00,3030.67825643,N,11424.06338762,E,4,17,1.2,55.103,M,-12.686,M,2.0,0000*55
$GPGGA,104137.00,3030.67825741,N,11424.06337780,E,4,17,1.2,55.119,M,-12.686,M,1.0,0000*5C
$GPGGA,104138.00,3030.67825812,N,11424.06338329,E,4,17,1.2,55.110,M,-12.686,M,1.0,0000*5B
$GPGGA,104139.00,3030.67825713,N,11424.06338173,E,4,17,1.2,55.113,M,-12.686,M,1.0,0000*5A
$GPGGA,104140.00,3030.67825849,N,11424.06338266,E,4,17,1.2,55.109,M,-12.686,M,1.0,0000*58
$GPGGA,104141.00,3030.67825614,N,11424.06337884,E,4,17,1.2,55.111,M,-12.686,M,1.0,0000*5F
$GPGGA,104142.00,3030.67825503,N,11424.06338160,E,4,17,1.2,55.113,M,-12.686,M,1.0,0000*57
$GPGGA,104143.00,3030.67825694,N,11424.06338206,E,4,17,1.2,55.104,M,-12.686,M,1.0,0000*5E
$GPGGA,104144.00,3030.67825692,N,11424.06338177,E,4,17,1.2,55.118,M,-12.686,M,1.0,0000*57
$GPGGA,104145.00,3030.67825667,N,11424.06337923,E,4,17,1.2,55.117,M,-12.686,M,2.0,0000*56
$GPGGA,104146.00,3030.67825546,N,11424.06338121,E,4,17,1.2,55.120,M,-12.686,M,1.0,0000*57
$GPGGA,104147.00,3030.67825760,N,11424.06337016,E,4,17,1.2,55.125,M,-12.686,M,1.0,0000*5F
$GPGGA,104148.00,3030.67825561,N,11424.06337696,E,4,17,1.2,55.107,M,-12.686,M,1.0,0000*5D
$GPGGA,104149.00,3030.67825665,N,11424.06337540,E,4,17,1.2,55.115,M,-12.686,M,1.0,0000*50
$GPGGA,104150.00,3030.67825461,N,11424.06337612,E,4,17,1.2,55.112,M,-12.686,M,1.0,0000*5D
$GPGGA,104151.00,3030.67825401,N,11424.06337386,E,4,17,1.2,55.116,M,-12.686,M,1.0,0000*56
$GPGGA,104152.00,3030.67825615,N,11424.06337680,E,4,17,1.2,55.112,M,-12.686,M,1.0,0000*55
$GPGGA,104153.00,3030.67825380,N,11424.06336976,E,4,17,1.2,55.112,M,-12.686,M,1.0,0000*5A
$GPGGA,104154.00,3030.67825456,N,11424.06337301,E,4,17,1.2,55.121,M,-12.686,M,1.0,0000*5A
$GPGGA,104155.00,3030.67825443,N,11424.06336978,E,4,17,1.2,55.117,M,-12.686,M,1.0,0000*5F
$GPGGA,104156.00,3030.67825201,N,11424.06336999,E,4,17,1.2,55.118,M,-12.686,M,1.0,0000*5C
$GPGGA,104157.00,3030.67825578,N,11424.06337897,E,4,17,1.2,55.100,M,-12.686,M,1.0,0000*53
$GPGGA,104158.00,3030.67825327,N,11424.06337949,E,4,17,1.2,55.106,M,-12.686,M,2.0,0000*57
$GPGGA,104159.00,3030.67825495,N,11424.06337528,E,4,17,1.2,55.114,M,-12.686,M,2.0,0000*50
$GPGGA,104200.00,3030.67825525,N,11424.06337679,E,4,17,1.2,55.108,M,-12.686,M,3.0,0000*5E
$GPGGA,104201.00,3030.67825378,N,11424.06337570,E,4,17,1.2,55.106,M,-12.686,M,2.0,0000*54
$GPGGA,104202.00,3030.67825459,N,11424.06338382,E,4,17,1.2,55.088,M,-12.686,M,1.0,0000*53
$GPGGA,104203.00,3030.67825581,N,11424.06337285,E,4,17,1.2,55.110,M,-12.686,M,1.0,0000*5F
$GPGGA,104204.00,3030.67825456,N,11424.06337164,E,4,17,1.2,55.098,M,-12.686,M,1.0,0000*5E
$GPGGA,104205.00,3030.67825779,N,11424.06338145,E,4,17,1.2,55.092,M,-12.686,M,1.0,0000*57
$GPGGA,104206.00,3030.67825811,N,11424.06337744,E,4,17,1.2,55.092,M,-12.686,M,1.0,0000*5D
$GPGGA,104207.00,3030.67825819,N,11424.06337795,E,4,17,1.2,55.097,M,-12.686,M,2.0,0000*5E
$GPGGA,104208.00,3030.67825681,N,11424.06336948,E,4,17,1.2,55.103,M,-12.686,M,1.0,0000*5E
$GPGGA,104209.00,3030.67826189,N,11424.06337069,E,4,17,1.2,55.106,M,-12.686,M,1.0,0000*5D
$GPGGA,104210.00,3030.67826260,N,11424.06336866,E,4,16,1.2,55.111,M,-12.686,M,1.0,0000*50
$GPGGA,104211.00,3030.67826203,N,11424.06337574,E,4,16,1.2,55.097,M,-12.686,M,1.0,0000*54
$GPGGA,104212.00,3030.67826561,N,11424.06338144,E,4,16,0.8,55.087,M,-12.686,M,1.0,0000*56
$GPGGA,104213.00,3030.67826665,N,11424.06336478,E,4,16,0.8,55.119,M,-12.686,M,1.0,0000*52
$GPGGA,104214.00,3030.67826686,N,11424.06337030,E,4,16,0.8,55.101,M,-12.686,M,1.0,0000*58
$GPGGA,104215.00,3030.67826745,N,11424.06338139,E,4,16,0.8,55.087,M,-12.686,M,1.0,0000*5F
$GPGGA,104216.00,3030.67826567,N,11424.06337981,E,4,16,0.8,55.091,M,-12.686,M,2.0,0000*5E
$GPGGA,104217.00,3030.67827302,N,11424.06336595,E,4,15,0.8,55.114,M,-12.686,M,1.0,0000*5F
$GPGGA,104218.00,3030.67827021,N,11424.06337171,E,4,15,0.8,55.104,M,-12.686,M,1.0,0000*5C
$GPGGA,104219.00,3030.67827623,N,11424.06335762,E,4,15,0.8,55.135,M,-12.686,M,1.0,0000*5D
$GPGGA,104220.00,3030.67828095,N,11424.06336196,E,4,15,0.8,55.130,M,-12.686,M,1.0,0000*58
$GPGGA,104221.00,3030.67828194,N,11424.06336269,E,4,15,0.8,55.127,M,-12.686,M,1.0,0000*5C
$GPGGA,104222.00,3030.67828006,N,11424.06337117,E,4,15,0.8,55.107,M,-12.686,M,1.0,0000*5C
$GPGGA,104223.00,3030.67828416,N,11424.06335250,E,4,15,0.8,55.154,M,-12.686,M,1.0,0000*5C
$GPGGA,104224.00,3030.67828844,N,11424.06335485,E,4,15,0.8,55.142,M,-12.686,M,1.0,0000*59
$GPGGA,104225.00,3030.67828723,N,11424.06336229,E,4,15,0.8,55.129,M,-12.686,M,1.0,0000*58
$GPGGA,104226.00,3030.67828651,N,11424.06335959,E,4,15,0.8,55.125,M,-12.686,M,2.0,0000*5F
$GPGGA,104227.00,3030.67829165,N,11424.06335021,E,4,15,0.8,55.154,M,-12.686,M,1.0,0000*5C
$GPGGA,104228.00,3030.67829269,N,11424.06336000,E,4,15,0.8,55.135,M,-12.686,M,1.0,0000*5B
$GPGGA,104229.00,3030.67829360,N,11424.06335476,E,4,15,0.8,55.144,M,-12.686,M,1.0,0000*52
$GPGGA,104230.00,3030.67829596,N,11424.06334740,E,4,15,0.8,55.148,M,-12.686,M,1.0,0000*5E
$GPGGA,104231.00,3030.67830087,N,11424.06333449,E,4,15,0.8,55.177,M,-12.686,M,1.0,0000*53
$GPGGA,104232.00,3030.67830069,N,11424.06334136,E,4,15,0.8,55.169,M,-12.686,M,1.0,0000*55
$GPGGA,104233.00,3030.67830141,N,11424.06334257,E,4,15,0.8,55.168,M,-12.686,M,1.0,0000*5A
$GPGGA,104234.00,3030.67830545,N,11424.06334601,E,4,15,0.8,55.166,M,-12.686,M,1.0,0000*54
$GPGGA,104235.00,3030.67830550,N,11424.06335028,E,4,15,0.8,55.161,M,-12.686,M,2.0,0000*59
$GPGGA,104236.00,3030.67830536,N,11424.06333788,E,4,15,0.8,55.171,M,-12.686,M,2.0,0000*50
$GPGGA,104237.00,3030.67830431,N,11424.06334163,E,4,15,0.8,55.161,M,-12.686,M,1.0,0000*51
$GPGGA,104238.00,3030.67831260,N,11424.06333052,E,4,15,0.8,55.189,M,-12.686,M,1.0,0000*5F
$GPGGA,104239.00,3030.67831516,N,11424.06333228,E,4,15,0.8,55.187,M,-12.686,M,1.0,0000*59
$GPGGA,104240.00,3030.67831052,N,11424.06333380,E,4,15,0.8,55.180,M,-12.686,M,1.0,0000*56
$GPGGA,104241.00,3030.67831634,N,11424.06332801,E,4,15,0.8,55.193,M,-12.686,M,1.0,0000*50
$GPGGA,104242.00,3030.67831809,N,11424.06331593,E,4,15,0.8,55.222,M,-12.686,M,1.0,0000*5F
$GPGGA,104243.00,3030.67831802,N,11424.06333437,E,4,15,0.8,55.180,M,-12.686,M,1.0,0000*53
$GPGGA,104244.00,3030.67831802,N,11424.06332091,E,4,15,0.8,55.205,M,-12.686,M,1.0,0000*53
$GPGGA,104245.00,3030.67831776,N,11424.06332255,E,4,15,0.8,55.204,M,-12.686,M,2.0,0000*56
$GPGGA,104246.00,3030.67832535,N,11424.06331285,E,4,15,0.8,55.221,M,-12.686,M,1.0,0000*59
$GPGGA,104247.00,3030.67832795,N,11424.06332129,E,4,15,0.8,55.204,M,-12.686,M,1.0,0000*51
$GPGGA,104248.00,3030.67833016,N,11424.06332292,E,4,15,0.8,55.207,M,-12.686,M,1.0,0000*53
$GPGGA,104249.00,3030.67833054,N,11424.06330877,E,4,15,0.8,55.236,M,-12.686,M,1.0,0000*55
$GPGGA,104250.00,3030.67833265,N,11424.06332162,E,4,15,0.8,55.214,M,-12.686,M,1.0,0000*52
$GPGGA,104251.00,3030.67832943,N,11424.06331754,E,4,15,0.8,55.204,M,-12.686,M,1.0,0000*5C
$GPGGA,104252.00,3030.67833248,N,11424.06330753,E,4,15,0.8,55.230,M,-12.686,M,1.0,0000*5F
$GPGGA,104253.00,3030.67833795,N,11424.06330781,E,4,15,0.8,55.233,M,-12.686,M,1.0,0000*57
$GPGGA,104254.00,3030.67833839,N,11424.06331242,E,4,15,0.8,55.225,M,-12.686,M,1.0,0000*55
$GPGGA,104255.00,3030.67833919,N,11424.06330442,E,4,15,0.8,55.237,M,-12.686,M,1.0,0000*53
$GPGGA,104256.00,3030.67834217,N,11424.06330275,E,4,15,0.8,55.252,M,-12.686,M,1.0,0000*53
$GPGGA,104257.00,3030.67834539,N,11424.06329366,E,4,15,0.8,55.263,M,-12.686,M,1.0,0000*50
$GPGGA,104258.00,3030.67834525,N,11424.06330207,E,4,15,0.8,55.242,M,-12.686,M,1.0,0000*5F
$GPGGA,104259.00,3030.67834285,N,11424.06330999,E,5,15,0.8,55.238,M,-12.686,M,1.0,0000*53
$GPGGA,104300.00,3030.67835272,N,11424.06329256,E,5,15,0.8,55.269,M,-12.686,M,1.0,0000*53
$GPGGA,104301.00,3030.67835142,N,11424.06330034,E,4,15,0.8,55.253,M,-12.686,M,1.0,0000*54
$GPGGA,104302.00,3030.67835236,N,11424.06329288,E,5,15,0.8,55.254,M,-12.686,M,1.0,0000*5C
$GPGGA,104303.00,3030.67835303,N,11424.06330247,E,5,15,0.8,55.257,M,-12.686,M,1.0,0000*52
$GPGGA,104304.00,3030.67835691,N,11424.06329082,E,5,15,0.8,55.269,M,-12.686,M,1.0,0000*55
$GPGGA,104305.00,3030.67835734,N,11424.06330054,E,5,15,0.8,55.256,M,-12.686,M,1.0,0000*55
$GPGGA,104306.00,3030.67835607,N,11424.06329538,E,5,15,0.8,55.259,M,-12.686,M,1.0,0000*5F
$GPGGA,104307.00,3030.67835735,N,11424.06329847,E,5,15,0.8,55.260,M,-12.686,M,1.0,0000*51
$GPGGA,104308.00,3030.67836435,N,11424.06328722,E,5,15,0.8,55.282,M,-12.686,M,1.0,0000*5F
$GPGGA,104309.00,3030.67836951,N,11424.06328310,E,5,15,0.8,55.293,M,-12.686,M,1.0,0000*54
$GPGGA,104310.00,3030.67836194,N,11424.06329315,E,5,15,1.2,55.270,M,-12.686,M,1.0,0000*5F
$GPGGA,104311.00,3030.67836579,N,11424.06329366,E,5,15,1.2,55.271,M,-12.686,M,1.0,0000*5C
$GPGGA,104312.00,3030.67837102,N,11424.06327986,E,5,15,1.2,55.295,M,-12.686,M,1.0,0000*56
$GPGGA,104313.00,3030.67837106,N,11424.06328105,E,5,15,1.2,55.292,M,-12.686,M,1.0,0000*58
$GPGGA,104314.00,3030.67837104,N,11424.06329503,E,5,15,1.2,55.273,M,-12.686,M,1.0,0000*51
$GPGGA,104315.00,3030.67837565,N,11424.06328031,E,5,15,1.2,55.301,M,-12.686,M,1.0,0000*52
$GPGGA,104316.00,3030.67837595,N,11424.06327587,E,5,15,1.2,55.308,M,-12.686,M,2.0,0000*53
$GPGGA,104317.00,3030.67837853,N,11424.06328204,E,5,15,1.2,55.307,M,-12.686,M,1.0,0000*5A
$GPGGA,104318.00,3030.67838004,N,11424.06327059,E,5,15,1.2,55.328,M,-12.686,M,1.0,0000*58
$GPGGA,104319.00,3030.67837921,N,11424.06327252,E,5,15,1.2,55.323,M,-12.686,M,2.0,0000*59
$GPGGA,104320.00,3030.67838451,N,11424.06327406,E,5,15,1.2,55.314,M,-12.686,M,1.0,0000*56
$GPGGA,104321.00,3030.67837923,N,11424.06328145,E,5,15,1.2,55.297,M,-12.686,M,1.0,0000*57
$GPGGA,104322.00,3030.67838428,N,11424.06327141,E,5,15,1.2,55.313,M,-12.686,M,1.0,0000*5B
$GPGGA,104323.00,3030.67839263,N,11424.06327218,E,5,15,1.2,55.332,M,-12.686,M,1.0,0000*5E
$GPGGA,104324.00,3030.67839091,N,11424.06326942,E,5,15,1.2,55.323,M,-12.686,M,1.0,0000*53
$GPGGA,104325.00,3030.67838866,N,11424.06327029,E,5,15,1.2,55.324,M,-12.686,M,1.0,0000*51
$GPGGA,104326.00,3030.67839405,N,11424.06326502,E,5,15,0.8,55.337,M,-12.686,M,1.0,0000*5E
$GPGGA,104327.00,3030.67839329,N,11424.06325819,E,5,15,0.8,55.340,M,-12.686,M,1.0,0000*52
$GPGGA,104328.00,3030.67839614,N,11424.06326057,E,5,15,0.8,55.356,M,-12.686,M,1.0,0000*50
$GPGGA,104329.00,3030.67839554,N,11424.06326239,E,5,15,0.8,55.347,M,-12.686,M,2.0,0000*5F
$GPGGA,104330.00,3030.67840131,N,11424.06324977,E,5,15,0.8,55.368,M,-12.686,M,1.0,0000*53
$GPGGA,104331.00,3030.67840313,N,11424.06324363,E,5,15,0.8,55.370,M,-12.686,M,1.0,0000*56
$GPGGA,104332.00,3030.67840279,N,11424.06324507,E,5,15,0.8,55.369,M,-12.686,M,2.0,0000*57
$GPGGA,104333.00,3030.67840607,N,11424.06323404,E,5,15,0.8,55.393,M,-12.686,M,1.0,0000*58
$GPGGA,104334.00,3030.67840614,N,11424.06323522,E,5,15,0.8,55.391,M,-12.686,M,2.0,0000*59
$GPGGA,104335.00,3030.67841195,N,11424.06324231,E,5,15,0.8,55.382,M,-12.686,M,1.0,0000*54
$GPGGA,104336.00,3030.67841081,N,11424.06324442,E,5,15,0.8,55.379,M,-12.686,M,2.0,0000*56
$GPGGA,104337.00,3030.67840591,N,11424.06324372,E,5,15,0.8,55.373,M,-12.686,M,2.0,0000*5C
$GPGGA,104338.00,3030.67841631,N,11424.06324459,E,5,15,0.8,55.373,M,-12.686,M,1.0,0000*56
$GPGGA,104339.00,3030.67841775,N,11424.06324455,E,5,15,1.2,55.380,M,-12.686,M,1.0,0000*5D
$GPGGA,104340.00,3030.67841880,N,11424.06324325,E,5,15,1.2,55.389,M,-12.686,M,1.0,0000*5F
$GPGGA,104341.00,3030.67841948,N,11424.06323998,E,5,15,1.2,55.389,M,-12.686,M,2.0,0000*53
$GPGGA,104342.00,3030.67842344,N,11424.06322774,E,5,15,1.2,55.414,M,-12.686,M,2.0,0000*5B
$GPGGA,104343.00,3030.67842011,N,11424.06324223,E,5,15,1.2,55.384,M,-12.686,M,1.0,0000*55
$GPGGA,104344.00,3030.67842549,N,11424.06323681,E,5,15,1.2,55.406,M,-12.686,M,1.0,0000*5C
$GPGGA,104345.00,3030.67843229,N,11424.06322433,E,5,15,1.2,55.415,M,-12.686,M,1.0,0000*55
$GPGGA,104346.00,3030.67842950,N,11424.06323111,E,5,15,1.2,55.411,M,-12.686,M,1.0,0000*52
$GPGGA,104347.00,3030.67842467,N,11424.06323488,E,5,15,1.2,55.398,M,-12.686,M,1.0,0000*59
$GPGGA,104348.00,3030.67842508,N,11424.06323376,E,5,15,1.2,55.393,M,-12.686,M,2.0,0000*50
$GPGGA,104349.00,3030.67843655,N,11424.06322271,E,5,15,1.2,55.432,M,-12.686,M,1.0,0000*53
$GPGGA,104350.00,3030.67843374,N,11424.06321800,E,5,15,1.2,55.440,M,-12.686,M,1.0,0000*57
$GPGGA,104351.00,3030.67843510,N,11424.06322679,E,5,15,1.2,55.425,M,-12.686,M,1.0,0000*52
$GPGGA,104352.00,3030.67843567,N,11424.06323056,E,5,15,1.2,55.421,M,-12.686,M,2.0,0000*5C
$GPGGA,104353.00,3030.67844099,N,11424.06321895,E,5,15,1.2,55.435,M,-12.686,M,2.0,0000*5E
$GPGGA,104354.00,3030.67844206,N,11424.06321314,E,5,15,1.2,55.458,M,-12.686,M,1.0,0000*57
$GPGGA,104355.00,3030.67844546,N,11424.06322078,E,5,15,1.2,55.450,M,-12.686,M,1.0,0000*57
$GPGGA,104356.00,3030.67845248,N,11424.06319855,E,5,15,1.2,55.480,M,-12.686,M,1.0,0000*5E
$GPGGA,104357.00,3030.67844910,N,11424.06321087,E,5,15,1.2,55.467,M,-12.686,M,1.0,0000*5D
$GPGGA,104358.00,3030.67844961,N,11424.06321937,E,5,15,1.2,55.443,M,-12.686,M,1.0,0000*50
$GPGGA,104359.00,3030.67844960,N,11424.06322214,E,5,15,1.2,55.438,M,-12.686,M,2.0,0000*56
$GPGGA,104400.00,3030.67845390,N,11424.06320441,E,5,15,1.2,55.476,M,-12.686,M,2.0,0000*57
$GPGGA,104401.00,3030.67845358,N,11424.06320682,E,5,15,1.2,55.473,M,-12.686,M,3.0,0000*5B
$GPGGA,104402.00,3030.67845452,N,11424.06320931,E,5,15,1.2,55.477,M,-12.686,M,2.0,0000*57
$GPGGA,104403.00,3030.67845870,N,11424.06321608,E,5,15,1.2,55.464,M,-12.686,M,2.0,0000*5C
$GPGGA,104404.00,3030.67846308,N,11424.06319731,E,5,15,1.2,55.494,M,-12.686,M,1.0,0000*50
$GPGGA,104405.00,3030.67846166,N,11424.06320649,E,5,15,1.2,55.488,M,-12.686,M,1.0,0000*52
$GPGGA,104406.00,3030.67846198,N,11424.06320686,E,5,15,1.2,55.484,M,-12.686,M,2.0,0000*5C
$GPGGA,104407.00,3030.67846426,N,11424.06320168,E,5,15,1.2,55.486,M,-12.686,M,2.0,0000*58
$GPGGA,104408.00,3030.67847050,N,11424.06320118,E,5,15,1.2,55.504,M,-12.686,M,1.0,0000*5C
$GPGGA,104409.00,3030.67846749,N,11424.06319797,E,5,15,1.2,55.501,M,-12.686,M,1.0,0000*5D
$GPGGA,104410.00,3030.67847371,N,11424.06318350,E,5,15,1.2,55.530,M,-12.686,M,1.0,0000*57
$GPGGA,104411.00,3030.67847578,N,11424.06319068,E,5,15,1.2,55.529,M,-12.686,M,1.0,0000*58
$GPGGA,104412.00,3030.67847490,N,11424.06320056,E,5,15,1.2,55.498,M,-12.686,M,1.0,0000*50
$GPGGA,104413.00,3030.67847463,N,11424.06319828,E,5,15,1.2,55.502,M,-12.686,M,1.0,0000*54
$GPGGA,104414.00,3030.67847549,N,11424.06319857,E,5,15,1.2,55.501,M,-12.686,M,1.0,0000*51
$GPGGA,104415.00,3030.67847528,N,11424.06320386,E,5,15,1.2,55.491,M,-12.686,M,1.0,0000*52
$GPGGA,104416.00,3030.67847534,N,11424.06320345,E,5,15,1.2,55.492,M,-12.686,M,1.0,0000*50
$GPGGA,104417.00,3030.67847450,N,11424.06320690,E,5,15,1.2,55.486,M,-12.686,M,2.0,0000*59
$GPGGA,104418.00,3030.67847396,N,11424.06320484,E,5,15,1.2,55.493,M,-12.686,M,1.0,0000*5B
$GPGGA,104419.00,3030.67847394,N,11424.06320814,E,5,15,1.2,55.485,M,-12.686,M,1.0,0000*5A
$GPGGA,104420.00,3030.67847330,N,11424.06321201,E,5,15,0.8,55.482,M,-12.686,M,1.0,0000*5D
$GPGGA,104421.00,3030.67847355,N,11424.06320766,E,5,15,0.8,55.489,M,-12.686,M,1.0,0000*51
$GPGGA,104422.00,3030.67847242,N,11424.06320891,E,5,15,0.8,55.484,M,-12.686,M,1.0,0000*5F
$GPGGA,104423.00,3030.67847278,N,11424.06320942,E,5,15,0.8,55.480,M,-12.686,M,1.0,0000*5C
$GPGGA,104424.00,3030.67847325,N,11424.06321282,E,5,15,0.8,55.480,M,-12.686,M,1.0,0000*54
$GPGGA,104425.00,3030.67826026,N,11424.06338266,E,4,17,0.8,55.080,M,-12.686,M,1.0,0000*57
$GPGGA,104426.00,3030.67825964,N,11424.06338757,E,4,17,0.8,55.065,M,-12.686,M,1.0,0000*54
$GPGGA,104427.00,3030.67825785,N,11424.06339481,E,4,17,0.8,55.058,M,-12.686,M,1.0,0000*53
$GPGGA,104428.00,3030.67825915,N,11424.06338517,E,4,17,0.8,55.069,M,-12.686,M,1.0,0000*56
$GPGGA,104429.00,3030.67825898,N,11424.06338588,E,4,17,0.8,55.070,M,-12.686,M,1.0,0000*5D
$GPGGA,104430.00,3030.67825740,N,11424.06339019,E,4,17,0.8,55.058,M,-12.686,M,1.0,0000*59
$GPGGA,104431.00,3030.67825876,N,11424.06338667,E,4,17,0.8,55.072,M,-12.686,M,1.0,0000*54
$GPGGA,104432.00,3030.67826064,N,11424.06338920,E,4,17,0.8,55.064,M,-12.686,M,1.0,0000*54
$GPGGA,104433.00,3030.67825796,N,11424.06338281,E,4,17,0.8,55.069,M,-12.686,M,1.0,0000*51
$GPGGA,104434.00,3030.67825857,N,11424.06338988,E,4,17,0.8,55.066,M,-12.686,M,1.0,0000*59
$GPGGA,104435.00,3030.67826032,N,11424.06338984,E,4,17,0.8,55.063,M,-12.686,M,1.0,0000*59
$GPGGA,104436.00,3030.67826320,N,11424.06338297,E,4,17,0.8,55.086,M,-12.686,M,1.0,0000*58
$GPGGA,104437.00,3030.67826420,N,11424.06339036,E,4,17,0.8,55.075,M,-12.686,M,1.0,0000*5A
$GPGGA,104438.00,3030.67825849,N,11424.06338915,E,4,17,0.8,55.069,M,-12.686,M,1.0,0000*51
$GPGGA,104439.00,3030.67826008,N,11424.06339328,E,4,17,0.8,55.068,M,-12.686,M,1.0,0000*5A
$GPGGA,104440.00,3030.67826045,N,11424.06339642,E,4,17,0.8,55.058,M,-12.686,M,1.0,0000*57
$GPGGA,104441.00,3030.67825871,N,11424.06339006,E,4,17,0.8,55.067,M,-12.686,M,1.0,0000*50
$GPGGA,104442.00,3030.67825774,N,11424.06339276,E,4,17,0.8,55.064,M,-12.686,M,2.0,0000*5C
$GPGGA,104443.00,3030.67826208,N,11424.06339893,E,4,17,0.8,55.059,M,-12.686,M,1.0,0000*5C
$GPGGA,104444.00,3030.67826149,N,11424.06339166,E,4,17,0.8,55.068,M,-12.686,M,1.0,0000*5C
$GPGGA,104445.00,3030.67825965,N,11424.06339571,E,4,17,0.8,55.066,M,-12.686,M,1.0,0000*54
$GPGGA,104446.00,3030.67825971,N,11424.06339080,E,4,17,0.8,55.070,M,-12.686,M,1.0,0000*5E
$GPGGA,104447.00,3030.67826122,N,11424.06339884,E,4,17,0.8,55.055,M,-12.686,M,1.0,0000*59
$GPGGA,104448.00,3030.67826038,N,11424.06339387,E,4,17,0.8,55.072,M,-12.686,M,1.0,0000*51
$GPGGA,104449.00,3030.67825788,N,11424.06339262,E,4,17,0.8,55.071,M,-12.686,M,1.0,0000*56
$GPGGA,104450.00,3030.67826013,N,11424.06339579,E,4,17,0.8,55.066,M,-12.686,M,1.0,0000*53
$GPGGA,104451.00,3030.67826303,N,11424.06339687,E,4,17,0.8,55.064,M,-12.686,M,1.0,0000*50
$GPGGA,104452.00,3030.67826004,N,11424.06339142,E,4,17,0.8,55.075,M,-12.686,M,1.0,0000*59
$GPGGA,104453.00,3030.67825792,N,11424.06339513,E,4,17,0.8,55.072,M,-12.686,M,2.0,0000*57
$GPGGA,104454.00,3030.67826386,N,11424.06339610,E,4,17,0.8,55.059,M,-12.686,M,1.0,0000*58
$GPGGA,104455.00,3030.67826340,N,11424.06338185,E,4,17,0.8,55.090,M,-12.686,M,1.0,0000*5C
$GPGGA,104456.00,3030.67826177,N,11424.06338365,E,4,17,0.8,55.084,M,-12.686,M,1.0,0000*50
$GPGGA,104457.00,3030.67826473,N,11424.06338926,E,4,17,0.8,55.076,M,-12.686,M,1.0,0000*50
$GPGGA,104458.00,3030.67827147,N,11424.06338072,E,4,17,0.8,55.097,M,-12.686,M,1.0,0000*5B
$GPGGA,104459.00,3030.67827135,N,11424.06338216,E,4,17,0.8,55.101,M,-12.686,M,1.0,0000*51
$GPGGA,104500.00,3030.67827224,N,11424.06338581,E,4,17,0.8,55.099,M,-12.686,M,1.0,0000*56
$GPGGA,104501.00,3030.67827310,N,11424.06338515,E,4,17,0.8,55.092,M,-12.686,M,1.0,0000*57
$GPGGA,104502.00,3030.67827814,N,11424.06337161,E,4,17,0.8,55.118,M,-12.686,M,1.0,0000*50
$GPGGA,104503.00,3030.67827776,N,11424.06337171,E,4,17,0.8,55.114,M,-12.686,M,2.0,0000*54
$GPGGA,104504.00,3030.67827763,N,11424.06338527,E,4,17,0.8,55.103,M,-12.686,M,1.0,0000*5A
$GPGGA,104505.00,3030.67828314,N,11424.06337641,E,4,17,0.8,55.119,M,-12.686,M,1.0,0000*57
$GPGGA,104506.00,3030.67828672,N,11424.06336723,E,4,17,0.8,55.141,M,-12.686,M,1.0,0000*58
$GPGGA,104507.00,3030.67828374,N,11424.06337030,E,4,17,0.8,55.133,M,-12.686,M,1.0,0000*5B
$GPGGA,104508.00,3030.67828639,N,11424.06337101,E,4,17,0.8,55.142,M,-12.686,M,1.0,0000*5D
$GPGGA,104509.00,3030.67829150,N,11424.06335472,E,4,17,0.8,55.168,M,-12.686,M,1.0,0000*5E
$GPGGA,104510.00,3030.67829033,N,11424.06336819,E,4,17,0.8,55.146,M,-12.686,M,1.0,0000*5C
$GPGGA,104511.00,3030.67828735,N,11424.06336992,E,4,17,0.8,55.140,M,-12.686,M,1.0,0000*59
$GPGGA,104512.00,3030.67829436,N,11424.06336366,E,4,17,0.8,55.160,M,-12.686,M,1.0,0000*58
$GPGGA,104513.00,3030.67829864,N,11424.06335259,E,4,17,0.8,55.173,M,-12.686,M,1.0,0000*5E
$GPGGA,104514.00,3030.67829784,N,11424.06336117,E,4,17,0.8,55.172,M,-12.686,M,1.0,0000*53
$GPGGA,104515.00,3030.67829548,N,11424.06335360,E,4,17,0.8,55.177,M,-12.686,M,1.0,0000*54
$GPGGA,104516.00,3030.67830237,N,11424.06334623,E,4,17,0.8,55.192,M,-12.686,M,1.0,0000*58
$GPGGA,104517.00,3030.67830331,N,11424.06334645,E,4,17,0.8,55.188,M,-12.686,M,2.0,0000*56
$GPGGA,104518.00,3030.67830462,N,11424.06334059,E,4,17,0.8,55.206,M,-12.686,M,2.0,0000*56
$GPGGA,104519.00,3030.67830393,N,11424.06335827,E,4,17,0.8,55.172,M,-12.686,M,1.0,0000*5D
$GPGGA,104520.00,3030.67830434,N,11424.06335912,E,4,17,0.8,55.171,M,-12.686,M,2.0,0000*5A
$GPGGA,104521.00,3030.67831071,N,11424.06333840,E,4,17,0.8,55.216,M,-12.686,M,2.0,0000*5D
$GPGGA,104522.00,3030.67830862,N,11424.06334795,E,4,17,0.8,55.204,M,-12.686,M,2.0,0000*56
$GPGGA,104523.00,3030.67830751,N,11424.06334761,E,4,17,0.8,55.201,M,-12.686,M,2.0,0000*56
$GPGGA,104524.00,3030.67830672,N,11424.06334360,E,4,17,0.8,55.205,M,-12.686,M,3.0,0000*51
$GPGGA,104525.00,3030.67831483,N,11424.06333644,E,4,17,0.8,55.221,M,-12.686,M,3.0,0000*5F
$GPGGA,104526.00,3030.67831391,N,11424.06333902,E,4,17,0.8,55.226,M,-12.686,M,2.0,0000*53
$GPGGA,104527.00,3030.67831568,N,11424.06334575,E,4,17,0.8,55.222,M,-12.686,M,2.0,0000*5D
$GPGGA,104528.00,3030.67832279,N,11424.06333457,E,4,17,0.8,55.230,M,-12.686,M,1.0,0000*50
$GPGGA,104529.00,3030.67832001,N,11424.06334037,E,4,17,0.8,55.221,M,-12.686,M,1.0,0000*59
$GPGGA,104530.00,3030.67831925,N,11424.06333853,E,4,17,0.8,55.225,M,-12.686,M,2.0,0000*57
$GPGGA,104531.00,3030.67832993,N,11424.06332600,E,4,17,0.8,55.256,M,-12.686,M,1.0,0000*56
$GPGGA,104532.00,3030.67832850,N,11424.06332730,E,4,17,0.8,55.253,M,-12.686,M,2.0,0000*5F
$GPGGA,104533.00,3030.67832941,N,11424.06333268,E,4,17,0.8,55.252,M,-12.686,M,2.0,0000*57
$GPGGA,104534.00,3030.67833107,N,11424.06332978,E,4,17,0.8,55.253,M,-12.686,M,1.0,0000*52
$GPGGA,104535.00,3030.67833730,N,11424.06331289,E,4,17,0.8,55.291,M,-12.686,M,1.0,0000*59
$GPGGA,104536.00,3030.67833675,N,11424.06331437,E,4,17,0.8,55.288,M,-12.686,M,2.0,0000*52
$GPGGA,104537.00,3030.67833747,N,11424.06332146,E,4,17,0.8,55.280,M,-12.686,M,1.0,0000*58
$GPGGA,104538.00,3030.67834229,N,11424.06332098,E,4,17,0.8,55.274,M,-12.686,M,1.0,0000*54
$GPGGA,104539.00,3030.67834117,N,11424.06331897,E,4,17,0.8,55.279,M,-12.686,M,2.0,0000*51
$GPGGA,104540.00,3030.67834364,N,11424.06331560,E,4,17,0.8,55.295,M,-12.686,M,2.0,0000*5E
$GPGGA,104541.00,3030.67833836,N,11424.06331757,E,4,17,0.8,55.282,M,-12.686,M,2.0,0000*54
$GPGGA,104542.00,3030.67834827,N,11424.06330702,E,4,17,0.8,55.314,M,-12.686,M,1.0,0000*5C
$GPGGA,104543.00,3030.67834857,N,11424.06330754,E,4,17,0.8,55.315,M,-12.686,M,2.0,0000*5B
$GPGGA,104544.00,3030.67834796,N,11424.06331937,E,4,17,0.8,55.292,M,-12.686,M,1.0,0000*59
$GPGGA,104545.00,3030.67835336,N,11424.06331165,E,4,17,0.8,55.308,M,-12.686,M,1.0,0000*5A
$GPGGA,104546.00,3030.67835660,N,11424.06330496,E,4,17,0.8,55.321,M,-12.686,M,1.0,0000*5C
$GPGGA,104547.00,3030.67835656,N,11424.06331537,E,4,17,0.8,55.308,M,-12.686,M,1.0,0000*58
