$GPGGA,110928.00,3030.67966716,N,11424.06827219,E,5,11,0.7,59.852,M,-12.686,M,1.0,0000*5D
$GPGGA,110929.00,3030.67966392,N,11424.06827323,E,5,11,0.7,59.837,M,-12.686,M,1.0,0000*5F
$GPGGA,110930.00,3030.67966301,N,11424.06827334,E,5,11,0.7,59.835,M,-12.686,M,2.0,0000*5A
$GPGGA,110931.00,3030.67966476,N,11424.06827066,E,5,11,0.7,59.858,M,-12.686,M,1.0,0000*50
$GPGGA,110932.00,3030.67965972,N,11424.06827402,E,5,11,0.7,59.867,M,-12.686,M,1.0,0000*53
$GPGGA,110933.00,3030.67966151,N,11424.06827830,E,5,11,0.7,59.809,M,-12.686,M,1.0,0000*5D
$GPGGA,110934.00,3030.67965864,N,11424.06827817,E,5,11,0.7,59.820,M,-12.686,M,2.0,0000*5B
$GPGGA,110935.00,3030.67965751,N,11424.06827698,E,5,11,0.7,59.821,M,-12.686,M,3.0,0000*5A
$GPGGA,110936.00,3030.67965860,N,11424.06827649,E,5,11,0.7,59.821,M,-12.686,M,4.0,0000*5F
$GPGGA,110937.00,3030.67965769,N,11424.06827533,E,5,11,0.7,59.823,M,-12.686,M,5.0,0000*55
$GPGGA,110938.00,3030.67966166,N,11424.06826758,E,5,11,0.7,59.874,M,-12.686,M,5.0,0000*5C
$GPGGA,110939.00,3030.67966472,N,11424.06827199,E,5,11,0.7,59.864,M,-12.686,M,5.0,0000*56
$GPGGA,110940.00,3030.67865559,N,11424.07134451,E,5,11,0.7,51.896,M,-12.686,M,4.0,0000*5D
$GPGGA,110941.00,3030.67865835,N,11424.07134545,E,5,11,0.7,51.897,M,-12.686,M,4.0,0000*5E
$GPGGA,110942.00,3030.67868744,N,11424.07126460,E,5,11,0.7,52.115,M,-12.686,M,3.0,0000*5B
$GPGGA,110943.00,3030.67871494,N,11424.07118177,E,5,11,0.7,52.377,M,-12.686,M,2.0,0000*55
$GPGGA,110944.00,3030.67871599,N,11424.07117853,E,5,11,0.7,52.369,M,-12.686,M,2.0,0000*51
$GPGGA,110945.00,3030.67896211,N,11424.07057177,E,5,11,0.7,54.070,M,-12.686,M,1.0,0000*5A
$GPGGA,110946.00,3030.67896208,N,11424.07057279,E,5,11,0.7,54.074,M,-12.686,M,2.0,0000*5B
$GPGGA,110947.00,3030.67893199,N,11424.07058976,E,5,11,0.7,54.032,M,-12.686,M,1.0,0000*5E
$GPGGA,110948.00,3030.67893192,N,11424.07058895,E,5,11,0.7,54.035,M,-12.686,M,2.0,0000*52
$GPGGA,110949.00,3030.67894091,N,11424.07058556,E,5,11,0.7,54.158,M,-12.686,M,1.0,0000*5D
$GPGGA,110950.00,3030.67892716,N,11424.07059620,E,5,11,0.7,54.141,M,-12.686,M,1.0,0000*50
$GPGGA,110951.00,3030.67893497,N,11424.07060406,E,5,11,0.7,54.136,M,-12.686,M,1.0,0000*56
$GPGGA,110952.00,3030.67894401,N,11424.07058023,E,5,11,0.7,54.154,M,-12.686,M,1.0,0000*51
$GPGGA,110953.00,3030.67893910,N,11424.07059676,E,5,11,0.7,54.187,M,-12.686,M,1.0,0000*53
$GPGGA,110954.00,3030.67893659,N,11424.07059677,E,5,11,0.7,54.191,M,-12.686,M,1.0,0000*50
$GPGGA,110955.00,3030.67893399,N,11424.07059620,E,5,11,0.7,54.177,M,-12.686,M,1.0,0000*52
$GPGGA,110956.00,3030.67893442,N,11424.07059346,E,5,11,0.7,54.195,M,-12.686,M,1.0,0000*59
$GPGGA,110957.00,3030.67893630,N,11424.07059608,E,5,11,0.7,54.186,M,-12.686,M,1.0,0000*52
$GPGGA,110958.00,3030.67893573,N,11424.07059616,E,5,11,0.7,54.189,M,-12.686,M,2.0,0000*5A
$GPGGA,110959.00,3030.67893442,N,11424.07059677,E,5,11,0.7,54.178,M,-12.686,M,1.0,0000*52
$GPGGA,111000.00,3030.67893551,N,11424.07059548,E,5,11,0.7,54.191,M,-12.686,M,1.0,0000*5D
$GPGGA,111001.00,3030.67893584,N,11424.07059627,E,5,11,0.7,54.188,M,-12.686,M,1.0,0000*56
$GPGGA,111002.00,3030.67893614,N,11424.07059469,E,5,11,0.7,54.183,M,-12.686,M,1.0,0000*5C
$GPGGA,111003.00,3030.67893495,N,11424.07059483,E,5,11,0.7,54.174,M,-12.686,M,2.0,0000*59
$GPGGA,111004.00,3030.67893532,N,11424.07059715,E,5,11,0.7,54.183,M,-12.686,M,1.0,0000*55
$GPGGA,111005.00,3030.67893551,N,11424.07059619,E,5,11,0.7,54.190,M,-12.686,M,1.0,0000*5E
$GPGGA,111006.00,3030.67893467,N,11424.07059581,E,5,11,0.7,54.178,M,-12.686,M,1.0,0000*5D
$GPGGA,111007.00,3030.67893571,N,11424.07059755,E,5,11,0.7,54.182,M,-12.686,M,1.0,0000*54
$GPGGA,111008.00,3030.67893547,N,11424.07059652,E,5,11,0.7,54.196,M,-12.686,M,1.0,0000*5D
$GPGGA,111009.00,3030.67893612,N,11424.07059931,E,5,11,0.7,54.181,M,-12.686,M,1.0,0000*53
$GPGGA,111010.00,3030.67893331,N,11424.07059516,E,5,11,0.7,54.200,M,-12.686,M,1.0,0000*5C
$GPGGA,111011.00,3030.67893670,N,11424.07059767,E,5,11,0.7,54.197,M,-12.686,M,1.0,0000*54
$GPGGA,111012.00,3030.67893719,N,11424.07059738,E,5,11,0.7,54.202,M,-12.686,M,2.0,0000*5F
$GPGGA,111013.00,3030.67893489,N,11424.07059699,E,5,11,0.7,54.193,M,-12.686,M,2.0,0000*55
$GPGGA,111014.00,3030.67893442,N,11424.07059738,E,5,11,0.7,54.194,M,-12.686,M,3.0,0000*59
$GPGGA,111015.00,3030.67893470,N,11424.07059672,E,5,11,0.6,54.194,M,-12.686,M,2.0,0000*56
$GPGGA,111016.00,3030.67893689,N,11424.07059953,E,5,11,0.6,54.182,M,-12.686,M,2.0,0000*5A
$GPGGA,111017.00,3030.67893582,N,11424.07059642,E,5,11,0.6,54.197,M,-12.686,M,2.0,0000*58
$GPGGA,111018.00,3030.67893600,N,11424.07059753,E,5,11,0.6,54.204,M,-12.686,M,1.0,0000*55
$GPGGA,111019.00,3030.67893662,N,11424.07059837,E,5,11,0.6,54.213,M,-12.686,M,2.0,0000*58
$GPGGA,111020.00,3030.67893226,N,11424.07060016,E,5,11,0.6,54.179,M,-12.686,M,1.0,0000*5B
$GPGGA,111021.00,3030.67893315,N,11424.07059774,E,5,12,0.6,54.198,M,-12.686,M,1.0,0000*5E
$GPGGA,111022.00,3030.67893490,N,11424.07059844,E,5,12,0.6,54.201,M,-12.686,M,1.0,0000*58
$GPGGA,111023.00,3030.67893543,N,11424.07060166,E,5,12,0.6,54.183,M,-12.686,M,1.0,0000*5C
$GPGGA,111024.00,3030.67893363,N,11424.07059818,E,5,12,0.6,54.192,M,-12.686,M,1.0,0000*55
$GPGGA,111025.00,3030.67893306,N,11424.07059778,E,5,12,0.6,54.195,M,-12.686,M,1.0,0000*59
$GPGGA,111026.00,3030.67893459,N,11424.07060081,E,5,12,0.7,54.190,M,-12.686,M,1.0,0000*58
$GPGGA,111027.00,3030.67893488,N,11424.07059954,E,5,12,0.7,54.208,M,-12.686,M,1.0,0000*5C
$GPGGA,111028.00,3030.67893321,N,11424.07059852,E,5,12,0.7,54.201,M,-12.686,M,1.0,0000*59
$GPGGA,111029.00,3030.67893502,N,11424.07059909,E,5,12,0.7,54.199,M,-12.686,M,1.0,0000*52
$GPGGA,111030.00,3030.67893553,N,11424.07060083,E,5,12,0.7,54.195,M,-12.686,M,1.0,0000*53
$GPGGA,111031.00,3030.67893400,N,11424.07059913,E,5,12,0.7,54.196,M,-12.686,M,1.0,0000*5C
$GPGGA,111032.00,3030.67893494,N,11424.07059815,E,5,12,0.7,54.204,M,-12.686,M,1.0,0000*5D
$GPGGA,111033.00,3030.67893335,N,11424.07059722,E,5,12,0.7,54.204,M,-12.686,M,2.0,0000*58
$GPGGA,111034.00,3030.67893356,N,11424.07059886,E,5,12,0.7,54.202,M,-12.686,M,1.0,0000*5E
$GPGGA,111035.00,3030.67893153,N,11424.07059827,E,5,12,0.7,54.196,M,-12.686,M,1.0,0000*5D
$GPGGA,111036.00,3030.67893428,N,11424.07060052,E,5,12,0.7,54.199,M,-12.686,M,1.0,0000*58
$GPGGA,111037.00,3030.67893375,N,11424.07059898,E,5,12,0.7,54.201,M,-12.686,M,2.0,0000*53
$GPGGA,111038.00,3030.67893106,N,11424.07059807,E,5,12,0.7,54.199,M,-12.686,M,1.0,0000*5D
$GPGGA,111039.00,3030.67893343,N,11424.07059626,E,5,12,0.7,54.208,M,-12.686,M,1.0,0000*59
$GPGGA,111040.00,3030.67893157,N,11424.07059717,E,5,12,0.7,54.198,M,-12.686,M,1.0,0000*59
$GPGGA,111041.00,3030.67893135,N,11424.07059789,E,5,12,0.7,54.199,M,-12.686,M,1.0,0000*5A
$GPGGA,111042.00,3030.67893156,N,11424.07059858,E,5,12,0.7,54.201,M,-12.686,M,1.0,0000*5D
$GPGGA,111043.00,3030.67893113,N,11424.07059775,E,5,12,0.7,54.196,M,-12.686,M,1.0,0000*50
$GPGGA,111044.00,3030.67893194,N,11424.07059790,E,5,12,0.7,54.193,M,-12.686,M,2.0,0000*55
$GPGGA,111045.00,3030.67893020,N,11424.07059969,E,5,12,0.7,54.194,M,-12.686,M,1.0,0000*56
$GPGGA,111046.00,3030.67892955,N,11424.07059581,E,5,12,0.7,54.209,M,-12.686,M,1.0,0000*52
$GPGGA,111047.00,3030.67892850,N,11424.07059581,E,5,12,0.7,54.204,M,-12.686,M,2.0,0000*59
$GPGGA,111048.00,3030.67893074,N,11424.07059720,E,5,12,0.7,54.206,M,-12.686,M,2.0,0000*52
$GPGGA,111049.00,3030.67893010,N,11424.07059849,E,5,12,0.7,54.200,M,-12.686,M,2.0,0000*57
$GPGGA,111050.00,3030.67892911,N,11424.07059865,E,5,12,0.7,54.203,M,-12.686,M,2.0,0000*5B
$GPGGA,111051.00,3030.67893623,N,11424.07059933,E,5,12,0.7,54.215,M,-12.686,M,1.0,0000*53
$GPGGA,111052.00,3030.67893143,N,11424.07059896,E,5,12,0.7,54.205,M,-12.686,M,1.0,0000*5E
$GPGGA,111053.00,3030.67893106,N,11424.07059793,E,5,12,0.7,54.205,M,-12.686,M,1.0,0000*54
$GPGGA,111054.00,3030.67892736,N,11424.07059542,E,5,12,0.7,54.201,M,-12.686,M,2.0,0000*5E
$GPGGA,111055.00,3030.67893210,N,11424.07059643,E,5,13,0.7,54.210,M,-12.686,M,1.0,0000*5F
$GPGGA,111056.00,3030.67925142,N,11424.07029256,E,5,13,0.7,53.843,M,-12.686,M,1.0,0000*58
$GPGGA,111057.00,3030.67925053,N,11424.07029184,E,5,13,0.7,53.849,M,-12.686,M,1.0,0000*5E
$GPGGA,111058.00,3030.67924937,N,11424.07029019,E,5,13,0.7,53.848,M,-12.686,M,2.0,0000*5C
$GPGGA,111059.00,3030.67925006,N,11424.07029196,E,5,13,0.7,53.837,M,-12.686,M,1.0,0000*5A
$GPGGA,111100.00,3030.67924907,N,11424.07029407,E,5,13,0.7,53.825,M,-12.686,M,1.0,0000*50
$GPGGA,111101.00,3030.67925112,N,11424.07029077,E,5,13,0.7,53.845,M,-12.686,M,1.0,0000*59
$GPGGA,111102.00,3030.67925040,N,11424.07029039,E,5,13,0.7,53.849,M,-12.686,M,1.0,0000*5A
$GPGGA,111103.00,3030.67925116,N,11424.07029081,E,5,13,0.7,53.848,M,-12.686,M,1.0,0000*5B
$GPGGA,111104.00,3030.67924884,N,11424.07029157,E,5,13,0.7,53.830,M,-12.686,M,1.0,0000*5A
$GPGGA,111105.00,3030.67924985,N,11424.07029216,E,5,13,0.7,53.835,M,-12.686,M,1.0,0000*58
$GPGGA,111106.00,3030.67924799,N,11424.07029051,E,5,13,0.7,53.840,M,-12.686,M,1.0,0000*5B
$GPGGA,111107.00,3030.67924994,N,11424.07029162,E,5,13,0.7,53.840,M,-12.686,M,2.0,0000*5B
$GPGGA,111108.00,3030.67924713,N,11424.07029153,E,5,13,0.7,53.839,M,-12.686,M,1.0,0000*5A
$GPGGA,111109.00,3030.67924943,N,11424.07029117,E,5,13,0.7,53.845,M,-12.686,M,1.0,0000*5B
$GPGGA,111110.00,3030.67924816,N,11424.07029299,E,5,13,0.7,53.836,M,-12.686,M,1.0,0000*53
$GPGGA,111111.00,3030.67924684,N,11424.07029217,E,5,13,0.7,53.833,M,-12.686,M,2.0,0000*57
$GPGGA,111112.00,3030.67924635,N,11424.07029108,E,5,13,0.7,53.842,M,-12.686,M,1.0,0000*56
$GPGGA,111113.00,3030.67924657,N,11424.07029236,E,5,13,0.7,53.837,M,-12.686,M,1.0,0000*5F
$GPGGA,111114.00,3030.67924828,N,11424.07029230,E,5,13,0.7,53.845,M,-12.686,M,1.0,0000*5D
$GPGGA,111115.00,3030.67924638,N,11424.07029087,E,5,13,0.7,53.846,M,-12.686,M,2.0,0000*5D
$GPGGA,111116.00,3030.67924796,N,11424.07029125,E,5,13,0.7,53.841,M,-12.686,M,1.0,0000*56
$GPGGA,111117.00,3030.67924790,N,11424.07029108,E,5,13,0.7,53.839,M,-12.686,M,1.0,0000*51
$GPGGA,111118.00,3030.67924721,N,11424.07029096,E,5,13,0.7,53.850,M,-12.686,M,1.0,0000*5D
$GPGGA,111119.00,3030.67924608,N,11424.07029378,E,5,13,0.7,53.837,M,-12.686,M,1.0,0000*54
$GPGGA,111120.00,3030.67924474,N,11424.07029131,E,5,13,0.7,53.835,M,-12.686,M,2.0,0000*59
$GPGGA,111121.00,3030.67924602,N,11424.07029177,E,5,13,0.7,53.848,M,-12.686,M,1.0,0000*50
$GPGGA,111122.00,3030.67924688,N,11424.07028995,E,5,13,0.7,53.854,M,-12.686,M,1.0,0000*59
$GPGGA,111123.00,3030.67924496,N,11424.07029103,E,5,13,0.7,53.840,M,-12.686,M,1.0,0000*56
$GPGGA,111124.00,3030.67924535,N,11424.07029049,E,5,13,0.7,53.840,M,-12.686,M,2.0,0000*55
$GPGGA,111125.00,3030.67924722,N,11424.07029086,E,5,13,0.7,53.840,M,-12.686,M,1.0,0000*50
$GPGGA,111126.00,3030.67924685,N,11424.07028728,E,5,13,0.7,53.849,M,-12.686,M,1.0,0000*54
$GPGGA,111127.00,3030.67924461,N,11424.07029103,E,5,13,0.7,53.836,M,-12.686,M,1.0,0000*5B
$GPGGA,111128.00,3030.67924670,N,11424.07029113,E,5,13,0.7,53.850,M,-12.686,M,1.0,0000*57
$GPGGA,111129.00,3030.67924573,N,11424.07029083,E,5,13,0.7,53.856,M,-12.686,M,2.0,0000*5B
$GPGGA,111130.00,3030.67924510,N,11424.07028922,E,5,13,0.7,53.849,M,-12.686,M,1.0,0000*58
$GPGGA,111131.00,3030.67924605,N,11424.07029057,E,5,13,0.7,53.849,M,-12.686,M,1.0,0000*54
$GPGGA,111132.00,3030.67924549,N,11424.07029147,E,5,13,0.7,53.852,M,-12.686,M,1.0,0000*56
$GPGGA,111133.00,3030.67924496,N,11424.07029039,E,5,13,0.7,53.844,M,-12.686,M,1.0,0000*5B
$GPGGA,111134.00,3030.67924671,N,11424.07029025,E,5,13,0.7,53.843,M,-12.686,M,1.0,0000*5D
$GPGGA,111135.00,3030.67924520,N,11424.07028958,E,5,13,0.7,53.843,M,-12.686,M,1.0,0000*59
$GPGGA,111136.00,3030.67924461,N,11424.07029014,E,5,13,0.7,53.850,M,-12.686,M,1.0,0000*5C
$GPGGA,111137.00,3030.67924443,N,11424.07028911,E,5,13,0.7,53.843,M,-12.686,M,2.0,0000*51
$GPGGA,111138.00,3030.67924318,N,11424.07028719,E,5,13,0.7,53.829,M,-12.686,M,2.0,0000*5D
$GPGGA,111139.00,3030.67924343,N,11424.07029004,E,5,13,0.7,53.839,M,-12.686,M,2.0,0000*59
$GPGGA,111140.00,3030.67924527,N,11424.07029016,E,5,13,0.7,53.845,M,-12.686,M,1.0,0000*58
$GPGGA,111141.00,3030.67924328,N,11424.07028769,E,5,13,0.7,53.839,M,-12.686,M,1.0,0000*55
$GPGGA,111142.00,3030.67924701,N,11424.07028933,E,5,13,0.7,53.850,M,-12.686,M,1.0,0000*57
$GPGGA,111143.00,3030.67924645,N,11424.07029018,E,5,13,0.7,53.841,M,-12.686,M,1.0,0000*56
$GPGGA,111144.00,3030.67924702,N,11424.07029065,E,5,13,0.7,53.855,M,-12.686,M,1.0,0000*5C
$GPGGA,111145.00,3030.67924311,N,11424.07028697,E,5,13,0.7,53.846,M,-12.686,M,1.0,0000*53
$GPGGA,111146.00,3030.67924609,N,11424.07028995,E,5,13,0.7,53.851,M,-12.686,M,1.0,0000*57
$GPGGA,111147.00,3030.67924512,N,11424.07028772,E,5,13,0.7,53.857,M,-12.686,M,2.0,0000*5D
$GPGGA,111148.00,3030.67924362,N,11424.07028723,E,5,13,0.7,53.857,M,-12.686,M,2.0,0000*57
$GPGGA,111149.00,3030.67924465,N,11424.07028659,E,5,13,0.7,53.861,M,-12.686,M,1.0,0000*5C
$GPGGA,111150.00,3030.67924730,N,11424.07028806,E,5,13,0.7,53.857,M,-12.686,M,1.0,0000*56
$GPGGA,111151.00,3030.67924496,N,11424.07028734,E,5,13,0.7,53.861,M,-12.686,M,1.0,0000*53
$GPGGA,111152.00,3030.67924413,N,11424.07028770,E,5,13,0.7,53.852,M,-12.686,M,1.0,0000*5D
$GPGGA,111153.00,3030.67924473,N,11424.07028954,E,5,13,0.7,53.846,M,-12.686,M,1.0,0000*57
$GPGGA,111154.00,3030.67924589,N,11424.07028943,E,5,13,0.7,53.853,M,-12.686,M,2.0,0000*55
$GPGGA,111155.00,3030.67924682,N,11424.07028686,E,5,13,0.7,53.851,M,-12.686,M,2.0,0000*58
$GPGGA,111156.00,3030.67924383,N,11424.07028669,E,5,13,0.7,53.855,M,-12.686,M,1.0,0000*59
$GPGGA,111157.00,3030.67924498,N,11424.07028762,E,5,13,0.7,53.850,M,-12.686,M,1.0,0000*5A
$GPGGA,111158.00,3030.67924605,N,11424.07028823,E,5,12,0.7,53.855,M,-12.686,M,2.0,0000*5E
$GPGGA,111159.00,3030.67924428,N,11424.07028715,E,5,12,0.7,53.854,M,-12.686,M,1.0,0000*5A
$GPGGA,111200.00,3030.67924511,N,11424.07028592,E,5,12,0.7,53.862,M,-12.686,M,1.0,0000*56
$GPGGA,111201.00,3030.67924365,N,11424.07028757,E,5,12,0.7,53.846,M,-12.686,M,1.0,0000*5F
$GPGGA,111202.00,3030.67924507,N,11424.07028641,E,5,12,0.7,53.855,M,-12.686,M,2.0,0000*59
$GPGGA,111203.00,3030.67924286,N,11424.07028546,E,5,12,0.7,53.852,M,-12.686,M,1.0,0000*56
$GPGGA,111204.00,3030.67924579,N,11424.07028797,E,5,12,0.7,53.856,M,-12.686,M,1.0,0000*5C
$GPGGA,111205.00,3030.67924725,N,11424.07028801,E,5,12,0.7,53.860,M,-12.686,M,1.0,0000*53
$GPGGA,111206.00,3030.67924622,N,11424.07028560,E,5,12,0.7,53.847,M,-12.686,M,1.0,0000*59
$GPGGA,111207.00,3030.67891231,N,11424.07057417,E,5,12,0.7,54.105,M,-12.686,M,2.0,0000*53
$GPGGA,111208.00,3030.67892346,N,11424.07057786,E,5,12,0.7,54.149,M,-12.686,M,1.0,0000*5E
$GPGGA,111209.00,3030.67892688,N,11424.07057946,E,5,12,0.7,54.141,M,-12.686,M,1.0,0000*52
$GPGGA,111210.00,3030.67892273,N,11424.07057445,E,5,12,0.7,54.139,M,-12.686,M,1.0,0000*5B
$GPGGA,111211.00,3030.67892221,N,11424.07057664,E,5,12,0.7,54.154,M,-12.686,M,1.0,0000*57
$GPGGA,111212.00,3030.67892310,N,11424.07057750,E,5,12,0.7,54.144,M,-12.686,M,1.0,0000*50
$GPGGA,111213.00,3030.67892351,N,11424.07058002,E,5,12,0.7,54.133,M,-12.686,M,1.0,0000*5B
$GPGGA,111214.00,3030.67892005,N,11424.07057843,E,5,12,0.7,54.131,M,-12.686,M,2.0,0000*5D
$GPGGA,111215.00,3030.67892025,N,11424.07057721,E,5,12,0.7,54.129,M,-12.686,M,3.0,0000*5D
$GPGGA,111216.00,3030.67892220,N,11424.07057699,E,5,12,0.7,54.149,M,-12.686,M,2.0,0000*5C
$GPGGA,111217.00,3030.67892263,N,11424.07057427,E,5,12,0.7,54.153,M,-12.686,M,2.0,0000*56
$GPGGA,111218.00,3030.67892343,N,11424.07057791,E,5,12,0.7,54.147,M,-12.686,M,1.0,0000*52
$GPGGA,111219.00,3030.67892314,N,11424.07057691,E,5,12,0.7,54.149,M,-12.686,M,2.0,0000*5D
$GPGGA,111220.00,3030.67892356,N,11424.07057821,E,5,12,0.7,54.146,M,-12.686,M,1.0,0000*58
$GPGGA,111221.00,3030.67892059,N,11424.07057373,E,5,11,0.7,54.141,M,-12.686,M,1.0,0000*5D
$GPGGA,111222.00,3030.67892034,N,11424.07057171,E,5,11,0.7,54.145,M,-12.686,M,2.0,0000*52
$GPGGA,111223.00,3030.67891823,N,11424.07056811,E,5,11,0.7,54.166,M,-12.686,M,2.0,0000*51
$GPGGA,111224.00,3030.67892190,N,11424.07057566,E,5,11,0.7,54.150,M,-12.686,M,1.0,0000*5E
$GPGGA,111225.00,3030.67892386,N,11424.07057258,E,5,11,0.7,54.155,M,-12.686,M,1.0,0000*55
$GPGGA,111226.00,3030.67892250,N,11424.07057591,E,5,11,0.7,54.162,M,-12.686,M,1.0,0000*5A
$GPGGA,111227.00,3030.67892157,N,11424.07057573,E,5,11,0.7,54.156,M,-12.686,M,1.0,0000*54
$GPGGA,111228.00,3030.67892164,N,11424.07057462,E,5,11,0.7,54.153,M,-12.686,M,2.0,0000*5C
$GPGGA,111229.00,3030.67891969,N,11424.07057686,E,5,11,0.7,54.149,M,-12.686,M,1.0,0000*5B
$GPGGA,111230.00,3030.67891972,N,11424.07057609,E,5,11,0.7,54.152,M,-12.686,M,1.0,0000*54
$GPGGA,111231.00,3030.67891854,N,11424.07057657,E,5,11,0.7,54.151,M,-12.686,M,1.0,0000*58
$GPGGA,111232.00,3030.67891712,N,11424.07057342,E,5,11,0.7,54.154,M,-12.686,M,2.0,0000*51
$GPGGA,111233.00,3030.67891879,N,11424.07057446,E,5,11,0.7,54.146,M,-12.686,M,1.0,0000*51
$GPGGA,111234.00,3030.67892174,N,11424.07057733,E,5,11,0.7,54.143,M,-12.686,M,1.0,0000*55
$GPGGA,111235.00,3030.67891991,N,11424.07057481,E,5,11,0.7,54.153,M,-12.686,M,1.0,0000*5F
$GPGGA,111236.00,3030.67891788,N,11424.07057340,E,5,11,0.7,54.149,M,-12.686,M,2.0,0000*58
$GPGGA,111237.00,3030.67891870,N,11424.07057352,E,5,11,0.7,54.141,M,-12.686,M,2.0,0000*5A
$GPGGA,111238.00,3030.67892051,N,11424.07057723,E,5,11,0.7,54.154,M,-12.686,M,1.0,0000*58
$GPGGA,111239.00,3030.67891861,N,11424.07057665,E,5,11,0.7,54.145,M,-12.686,M,1.0,0000*52
$GPGGA,111240.00,3030.67891709,N,11424.07057490,E,5,11,0.7,54.152,M,-12.686,M,2.0,0000*50
$GPGGA,111241.00,3030.67891857,N,11424.07057537,E,5,11,0.7,54.150,M,-12.686,M,2.0,0000*5B
$GPGGA,111242.00,3030.67891975,N,11424.07057381,E,5,11,0.7,54.154,M,-12.686,M,1.0,0000*55
$GPGGA,111243.00,3030.67891819,N,11424.07057386,E,5,11,0.7,54.153,M,-12.686,M,1.0,0000*5F
$GPGGA,111244.00,3030.67892006,N,11424.07057525,E,5,11,0.7,54.151,M,-12.686,M,1.0,0000*50
$GPGGA,111245.00,3030.67892144,N,11424.07057535,E,5,11,0.7,54.156,M,-12.686,M,1.0,0000*50
$GPGGA,111246.00,3030.67892028,N,11424.07057330,E,5,11,0.7,54.152,M,-12.686,M,1.0,0000*5F
$GPGGA,111247.00,3030.67891775,N,11424.07057092,E,5,11,0.7,54.157,M,-12.686,M,2.0,0000*5F
$GPGGA,111248.00,3030.67891950,N,11424.07057218,E,5,11,0.7,54.167,M,-12.686,M,2.0,0000*5A
$GPGGA,111249.00,3030.67892200,N,11424.07057498,E,5,11,0.7,54.160,M,-12.686,M,1.0,0000*5C
$GPGGA,111250.00,3030.67891876,N,11424.07057215,E,5,11,0.7,54.158,M,-12.686,M,2.0,0000*57
$GPGGA,111251.00,3030.67891734,N,11424.07057193,E,5,11,0.7,54.154,M,-12.686,M,2.0,0000*5E
$GPGGA,111252.00,3030.67892179,N,11424.07057379,E,5,11,0.7,54.167,M,-12.686,M,1.0,0000*54
$GPGGA,111253.00,3030.67892109,N,11424.07057225,E,5,11,0.7,54.173,M,-12.686,M,2.0,0000*5C
$GPGGA,111254.00,3030.67891922,N,11424.07057848,E,5,11,0.7,54.133,M,-12.686,M,1.0,0000*5F
$GPGGA,111255.00,3030.67892340,N,11424.07057631,E,5,11,0.7,54.143,M,-12.686,M,1.0,0000*54
$GPGGA,111256.00,3030.67892408,N,11424.07057585,E,5,11,0.7,54.167,M,-12.686,M,1.0,0000*56
$GPGGA,111257.00,3030.67892276,N,11424.07057292,E,5,11,0.7,54.154,M,-12.686,M,1.0,0000*59
$GPGGA,111258.00,3030.67892198,N,11424.07057198,E,5,11,0.7,54.160,M,-12.686,M,2.0,0000*58
$GPGGA,111259.00,3030.67892302,N,11424.07057387,E,5,11,0.7,54.145,M,-12.686,M,1.0,0000*50
$GPGGA,111300.00,3030.67892038,N,11424.07057590,E,5,11,0.7,54.140,M,-12.686,M,1.0,0000*52
$GPGGA,111301.00,3030.67892095,N,11424.07057308,E,5,11,0.7,54.150,M,-12.686,M,1.0,0000*52
$GPGGA,111302.00,3030.67892213,N,11424.07057605,E,5,11,0.7,54.150,M,-12.686,M,1.0,0000*55
$GPGGA,111303.00,3030.67892236,N,11424.07057614,E,5,11,0.7,54.152,M,-12.686,M,2.0,0000*52
$GPGGA,111304.00,3030.67892231,N,11424.07057507,E,5,11,0.7,54.148,M,-12.686,M,1.0,0000*5B
$GPGGA,111305.00,3030.67892411,N,11424.07057902,E,5,11,0.7,54.132,M,-12.686,M,1.0,0000*5A
$GPGGA,111306.00,3030.67892257,N,11424.07057402,E,5,11,0.7,54.151,M,-12.686,M,1.0,0000*55
$GPGGA,111307.00,3030.67892276,N,11424.07057362,E,5,11,0.7,54.161,M,-12.686,M,2.0,0000*56
$GPGGA,111308.00,3030.67892111,N,11424.07057579,E,5,11,0.7,54.129,M,-12.686,M,1.0,0000*58
$GPGGA,111309.00,3030.67892231,N,11424.07057499,E,5,11,0.7,54.140,M,-12.686,M,1.0,0000*58
$GPGGA,111310.00,3030.67892284,N,11424.07057902,E,5,11,0.7,54.129,M,-12.686,M,1.0,0000*5E
$GPGGA,111311.00,3030.67892319,N,11424.07058040,E,5,11,0.7,54.135,M,-12.686,M,2.0,0000*54
$GPGGA,111312.00,3030.67892231,N,11424.07057364,E,5,11,0.7,54.142,M,-12.686,M,1.0,0000*55
$GPGGA,111313.00,3030.67892209,N,11424.07057660,E,5,11,0.7,54.134,M,-12.686,M,1.0,0000*5F
$GPGGA,111314.00,3030.67892316,N,11424.07057684,E,5,11,0.7,54.137,M,-12.686,M,2.0,0000*5D
$GPGGA,111315.00,3030.67892233,N,11424.07057357,E,5,11,0.7,54.150,M,-12.686,M,2.0,0000*50
$GPGGA,111316.00,3030.67892164,N,11424.07057143,E,5,11,0.7,54.153,M,-12.686,M,1.0,0000*55
$GPGGA,111317.00,3030.67892089,N,11424.07057543,E,5,11,0.7,54.146,M,-12.686,M,1.0,0000*56
$GPGGA,111318.00,3030.67892063,N,11424.07057458,E,5,11,0.7,54.152,M,-12.686,M,2.0,0000*50
$GPGGA,111319.00,3030.67892387,N,11424.07057419,E,5,11,0.7,54.149,M,-12.686,M,2.0,0000*57
$GPGGA,111320.00,3030.67892168,N,11424.07057408,E,5,11,0.7,54.150,M,-12.686,M,1.0,0000*55
$GPGGA,111321.00,3030.67892299,N,11424.07057677,E,5,11,0.7,54.142,M,-12.686,M,1.0,0000*50
$GPGGA,111322.00,3030.67892249,N,11424.07057706,E,5,11,0.7,54.137,M,-12.686,M,2.0,0000*58
$GPGGA,111323.00,3030.67892151,N,11424.07058050,E,5,11,0.7,54.118,M,-12.686,M,1.0,0000*56
$GPGGA,111324.00,3030.67892399,N,11424.07057949,E,5,11,0.7,54.130,M,-12.686,M,1.0,0000*53
$GPGGA,111325.00,3030.67892390,N,11424.07058014,E,5,11,0.7,54.137,M,-12.686,M,1.0,0000*52
$GPGGA,111326.00,3030.67892548,N,11424.07058254,E,5,11,0.7,54.127,M,-12.686,M,1.0,0000*55
$GPGGA,111327.00,3030.67892308,N,11424.07058123,E,5,11,0.7,54.130,M,-12.686,M,1.0,0000*53
$GPGGA,111328.00,3030.67892471,N,11424.07057968,E,5,11,0.7,54.116,M,-12.686,M,1.0,0000*59
$GPGGA,111329.00,3030.67892264,N,11424.07057897,E,5,11,0.7,54.151,M,-12.686,M,1.0,0000*58
$GPGGA,111330.00,3030.67892302,N,11424.07057980,E,5,11,0.7,54.131,M,-12.686,M,1.0,0000*50
$GPGGA,111331.00,3030.67892126,N,11424.07057789,E,5,11,0.7,54.139,M,-12.686,M,1.0,0000*5A
$GPGGA,111332.00,3030.67892319,N,11424.07057834,E,5,11,0.7,54.136,M,-12.686,M,2.0,0000*52
$GPGGA,111333.00,3030.67892373,N,11424.07057513,E,5,11,0.7,54.129,M,-12.686,M,1.0,0000*5A
$GPGGA,111334.00,3030.67892210,N,11424.07057793,E,5,11,0.7,54.130,M,-12.686,M,1.0,0000*5B
$GPGGA,111335.00,3030.67892423,N,11424.07057936,E,5,11,0.7,54.135,M,-12.686,M,1.0,0000*58
$GPGGA,111336.00,3030.67892359,N,11424.07057848,E,5,11,0.7,54.136,M,-12.686,M,2.0,0000*59
$GPGGA,111337.00,3030.67892272,N,11424.07057846,E,5,11,0.7,54.132,M,-12.686,M,2.0,0000*5A
$GPGGA,111338.00,3030.67892244,N,11424.07057884,E,5,11,0.7,54.109,M,-12.686,M,1.0,0000*55
$GPGGA,111339.00,3030.67892315,N,11424.07057647,E,5,11,0.7,54.133,M,-12.686,M,1.0,0000*59
$GPGGA,111340.00,3030.67892432,N,11424.07057837,E,5,11,0.7,54.134,M,-12.686,M,2.0,0000*58
$GPGGA,111341.00,3030.67892222,N,11424.07057821,E,5,11,0.7,54.123,M,-12.686,M,1.0,0000*5C
$GPGGA,111342.00,3030.67892284,N,11424.07057766,E,5,11,0.7,54.124,M,-12.686,M,1.0,0000*58
$GPGGA,111343.00,3030.67892443,N,11424.07058049,E,5,11,0.7,54.116,M,-12.686,M,1.0,0000*50
$GPGGA,111344.00,3030.67892439,N,11424.07058125,E,5,11,0.7,54.121,M,-12.686,M,2.0,0000*56
$GPGGA,111345.00,3030.67892013,N,11424.07057918,E,5,11,0.7,54.119,M,-12.686,M,2.0,0000*59
$GPGGA,111346.00,3030.67892580,N,11424.07058090,E,5,11,0.7,54.113,M,-12.686,M,1.0,0000*5A
$GPGGA,111347.00,3030.67892492,N,11424.07058158,E,5,11,0.7,54.121,M,-12.686,M,1.0,0000*5D
$GPGGA,111348.00,3030.67892371,N,11424.07057876,E,5,11,0.7,54.108,M,-12.686,M,1.0,0000*59
$GPGGA,111349.00,3030.67892317,N,11424.07057770,E,5,11,0.7,54.099,M,-12.686,M,2.0,0000*5B
$GPGGA,111350.00,3030.67892397,N,11424.07057741,E,5,11,0.7,54.118,M,-12.686,M,1.0,0000*52
$GPGGA,111351.00,3030.67892530,N,11424.07058140,E,5,11,0.7,54.114,M,-12.686,M,1.0,0000*5C
$GPGGA,111352.00,3030.67892403,N,11424.07057612,E,5,11,0.7,54.120,M,-12.686,M,1.0,0000*56
$GPGGA,111353.00,3030.67892460,N,11424.07057770,E,5,11,0.7,54.123,M,-12.686,M,1.0,0000*54
$GPGGA,111354.00,3030.67892583,N,11424.07058127,E,5,11,0.7,54.117,M,-12.686,M,1.0,0000*53
$GPGGA,111355.00,3030.67892425,N,11424.07057551,E,5,11,0.7,54.121,M,-12.686,M,1.0,0000*50
$GPGGA,111356.00,3030.67892175,N,11424.07057518,E,5,11,0.7,54.119,M,-12.686,M,2.0,0000*56
$GPGGA,111357.00,3030.67892168,N,11424.07057827,E,5,11,0.7,54.110,M,-12.686,M,2.0,0000*53
$GPGGA,111358.00,3030.67892702,N,11424.07057894,E,5,11,0.7,54.108,M,-12.686,M,1.0,0000*54
$GPGGA,111359.00,3030.67892291,N,11424.07057307,E,5,11,0.7,54.114,M,-12.686,M,1.0,0000*56
$GPGGA,111400.00,3030.67892712,N,11424.07057801,E,5,11,0.7,54.107,M,-12.686,M,1.0,0000*5C
$GPGGA,111401.00,3030.67892739,N,11424.07058181,E,5,11,0.7,54.107,M,-12.686,M,1.0,0000*5A
$GPGGA,111402.00,3030.67892521,N,11424.07057985,E,5,11,0.7,54.110,M,-12.686,M,1.0,0000*57
$GPGGA,111403.00,3030.67892568,N,11424.07057660,E,5,11,0.7,54.101,M,-12.686,M,1.0,0000*5F
$GPGGA,111404.00,3030.67892636,N,11424.07057870,E,5,11,0.7,54.118,M,-12.686,M,1.0,0000*57
$GPGGA,111405.00,3030.67892769,N,11424.07057829,E,5,11,0.7,54.118,M,-12.686,M,1.0,0000*51
$GPGGA,111406.00,3030.67892493,N,11424.07057962,E,5,11,0.7,54.109,M,-12.686,M,1.0,0000*5A
$GPGGA,111407.00,3030.67892532,N,11424.07057625,E,5,11,0.7,54.124,M,-12.686,M,1.0,0000*52
$GPGGA,111408.00,3030.67892436,N,11424.07057879,E,5,11,0.7,54.111,M,-12.686,M,1.0,0000*59
$GPGGA,111409.00,3030.67892603,N,11424.07058009,E,5,11,0.7,54.115,M,-12.686,M,1.0,0000*58
$GPGGA,111410.00,3030.67892367,N,11424.07057558,E,5,11,0.7,54.118,M,-12.686,M,1.0,0000*54
$GPGGA,111411.00,3030.67892528,N,11424.07057651,E,5,11,0.7,54.125,M,-12.686,M,1.0,0000*5C
$GPGGA,111412.00,3030.67892462,N,11424.07057541,E,5,11,0.7,54.121,M,-12.686,M,1.0,0000*56
$GPGGA,111413.00,3030.67892609,N,11424.07057548,E,5,11,0.7,54.123,M,-12.686,M,1.0,0000*53
$GPGGA,111414.00,3030.67892447,N,11424.07057489,E,5,11,0.7,54.113,M,-12.686,M,1.0,0000*53
$GPGGA,111415.00,3030.67892294,N,11424.07057303,E,5,11,0.7,54.106,M,-12.686,M,2.0,0000*58
$GPGGA,111416.00,3030.67892252,N,11424.07057143,E,5,11,0.7,54.109,M,-12.686,M,3.0,0000*59
$GPGGA,111417.00,3030.67892569,N,11424.07057764,E,5,11,0.7,54.111,M,-12.686,M,2.0,0000*5C
$GPGGA,111418.00,3030.67892220,N,11424.07057876,E,5,11,0.7,54.113,M,-12.686,M,2.0,0000*57
$GPGGA,111419.00,3030.67892210,N,11424.07057189,E,5,11,0.7,54.117,M,-12.686,M,2.0,0000*58
$GPGGA,111420.00,3030.67892542,N,11424.07057748,E,5,11,0.7,54.113,M,-12.686,M,2.0,0000*5D
$GPGGA,111421.00,3030.67892245,N,11424.07057193,E,5,11,0.7,54.118,M,-12.686,M,1.0,0000*54
$GPGGA,111422.00,3030.67892293,N,11424.07057722,E,5,11,0.7,54.112,M,-12.686,M,1.0,0000*5A
$GPGGA,111423.00,3030.67892402,N,11424.07057404,E,5,11,0.7,54.119,M,-12.686,M,1.0,0000*59
$GPGGA,111424.00,3030.67892199,N,11424.07057732,E,5,11,0.7,54.118,M,-12.686,M,1.0,0000*5E
$GPGGA,111425.00,3030.67892301,N,11424.07057540,E,5,11,0.7,54.119,M,-12.686,M,1.0,0000*5A
$GPGGA,111426.00,3030.67892428,N,11424.07057698,E,5,11,0.7,54.112,M,-12.686,M,1.0,0000*58
$GPGGA,111427.00,3030.67892308,N,11424.07057496,E,5,11,0.7,54.123,M,-12.686,M,2.0,0000*51
$GPGGA,111428.00,3030.67892369,N,11424.07058042,E,5,11,0.7,54.121,M,-12.686,M,2.0,0000*59
$GPGGA,111429.00,3030.67892208,N,11424.07057411,E,5,11,0.7,54.109,M,-12.686,M,2.0,0000*59
$GPGGA,111430.00,3030.67892259,N,11424.07057703,E,5,11,0.7,54.108,M,-12.686,M,1.0,0000*57
$GPGGA,111431.00,3030.67892436,N,11424.07057483,E,5,11,0.7,54.116,M,-12.686,M,1.0,0000*5D
$GPGGA,111432.00,3030.67892110,N,11424.07057293,E,5,11,0.7,54.119,M,-12.686,M,2.0,0000*54
$GPGGA,111433.00,3030.67892221,N,11424.07057658,E,5,11,0.7,54.107,M,-12.686,M,1.0,0000*5B
$GPGGA,111434.00,3030.67892289,N,11424.07057663,E,5,10,0.7,54.109,M,-12.686,M,1.0,0000*59
$GPGGA,111435.00,3030.67892335,N,11424.07057281,E,5,10,0.7,54.115,M,-12.686,M,1.0,0000*5B
$GPGGA,111436.00,3030.67892314,N,11424.07057293,E,5,10,0.7,54.114,M,-12.686,M,2.0,0000*5A
$GPGGA,111437.00,3030.67892306,N,11424.07057382,E,5,10,0.7,54.113,M,-12.686,M,1.0,0000*5D
$GPGGA,111438.00,3030.67892194,N,11424.07057160,E,5,10,0.7,54.128,M,-12.686,M,1.0,0000*5D
$GPGGA,111439.00,3030.67892187,N,11424.07057410,E,5,10,0.7,54.099,M,-12.686,M,1.0,0000*57
$GPGGA,111440.00,3030.67892118,N,11424.07057295,E,5,10,0.7,54.101,M,-12.686,M,2.0,0000*57
$GPGGA,111441.00,3030.67892247,N,11424.07057262,E,5,10,0.7,54.119,M,-12.686,M,2.0,0000*5E
$GPGGA,111442.00,3030.67892085,N,11424.07057524,E,5,10,0.7,54.105,M,-12.686,M,1.0,0000*5A
$GPGGA,111443.00,3030.67892125,N,11424.07057470,E,5,10,0.7,54.105,M,-12.686,M,1.0,0000*50
$GPGGA,111444.00,3030.67892024,N,11424.07057240,E,5,10,0.7,54.117,M,-12.686,M,1.0,0000*51
$GPGGA,111445.00,3030.67892052,N,11424.07057215,E,5,10,0.7,54.118,M,-12.686,M,2.0,0000*5D
$GPGGA,111446.00,3030.67892337,N,11424.07057424,E,5,10,0.7,54.119,M,-12.686,M,2.0,0000*5B
$GPGGA,111447.00,3030.67892156,N,11424.07057427,E,5,10,0.7,54.103,M,-12.686,M,2.0,0000*57
$GPGGA,111448.00,3030.67892108,N,11424.07057290,E,5,10,0.7,54.102,M,-12.686,M,2.0,0000*58
$GPGGA,111449.00,3030.67892135,N,11424.07057243,E,5,10,0.7,54.118,M,-12.686,M,1.0,0000*51
$GPGGA,111450.00,3030.67892065,N,11424.07057398,E,5,10,0.7,54.112,M,-12.686,M,1.0,0000*50
$GPGGA,111451.00,3030.67892082,N,11424.07057139,E,5,10,0.7,54.115,M,-12.686,M,1.0,0000*56
$GPGGA,111452.00,3030.67892106,N,11424.07057364,E,5,10,0.7,54.112,M,-12.686,M,1.0,0000*55
$GPGGA,111453.00,3030.67892386,N,11424.07057081,E,5,10,0.7,54.123,M,-12.686,M,1.0,0000*54
$GPGGA,111454.00,3030.67891942,N,11424.07057040,E,5,10,0.7,54.125,M,-12.686,M,1.0,0000*59
$GPGGA,111455.00,3030.67892027,N,11424.07057390,E,5,10,0.7,54.101,M,-12.686,M,1.0,0000*59
$GPGGA,111456.00,3030.67891903,N,11424.07056947,E,5,10,0.7,54.124,M,-12.686,M,1.0,0000*50
$GPGGA,111457.00,3030.67892049,N,11424.07056651,E,5,10,0.7,54.132,M,-12.686,M,2.0,0000*59
$GPGGA,111458.00,3030.67891876,N,11424.07057430,E,5,10,0.7,54.100,M,-12.686,M,1.0,0000*57
$GPGGA,111459.00,3030.67891899,N,11424.07057054,E,5,10,0.7,53.962,M,-12.686,M,1.0,0000*5A
$GPGGA,111500.00,3030.67878974,N,11424.07037180,E,5,10,0.7,53.539,M,-12.686,M,1.0,0000*5E
$GPGGA,111501.00,3030.67877924,N,11424.07038509,E,5,10,0.7,53.712,M,-12.686,M,1.0,0000*54
$GPGGA,111502.00,3030.67877783,N,11424.07038479,E,5,10,0.7,53.711,M,-12.686,M,2.0,0000*52
$GPGGA,111503.00,3030.67879473,N,11424.07036306,E,5,10,0.7,53.804,M,-12.686,M,1.0,0000*58
$GPGGA,111504.00,3030.67880432,N,11424.07034830,E,5,10,0.7,53.764,M,-12.686,M,1.0,0000*59
$GPGGA,111505.00,3030.67880197,N,11424.07034768,E,5,10,0.7,53.869,M,-12.686,M,1.0,0000*52
$GPGGA,111506.00,3030.67880085,N,11424.07034719,E,5,10,0.7,53.867,M,-12.686,M,2.0,0000*58
$GPGGA,111507.00,3030.67880728,N,11424.07034804,E,5,10,0.7,53.982,M,-12.686,M,1.0,0000*53
$GPGGA,111508.00,3030.67880426,N,11424.07034959,E,5,10,0.7,54.122,M,-12.686,M,1.0,0000*5D
$GPGGA,111509.00,3030.67880344,N,11424.07034875,E,5,10,0.7,54.121,M,-12.686,M,1.0,0000*53
$GPGGA,111510.00,3030.67880601,N,11424.07034872,E,5,10,0.7,54.114,M,-12.686,M,1.0,0000*5E
$GPGGA,111511.00,3030.67880631,N,11424.07035246,E,5,10,0.7,54.114,M,-12.686,M,1.0,0000*50
$GPGGA,111512.00,3030.67880593,N,11424.07034847,E,5,10,0.7,54.128,M,-12.686,M,1.0,0000*5D
$GPGGA,111513.00,3030.67880661,N,11424.07034915,E,5,10,0.7,54.129,M,-12.686,M,1.0,0000*55
$GPGGA,111514.00,3030.67880518,N,11424.07034881,E,5,10,0.7,54.123,M,-12.686,M,1.0,0000*59
$GPGGA,111515.00,3030.67880525,N,11424.07035101,E,5,10,0.7,54.119,M,-12.686,M,1.0,0000*5F
$GPGGA,111516.00,3030.67880605,N,11424.07034878,E,5,11,0.7,54.125,M,-12.686,M,1.0,0000*55
$GPGGA,111517.00,3030.67880360,N,11424.07034806,E,5,11,0.7,54.134,M,-12.686,M,1.0,0000*5B
$GPGGA,111518.00,3030.67880662,N,11424.07034866,E,5,11,0.7,54.128,M,-12.686,M,1.0,0000*58
$GPGGA,111519.00,3030.67880214,N,11424.07034789,E,5,11,0.7,54.122,M,-12.686,M,1.0,0000*58
$GPGGA,111520.00,3030.67880239,N,11424.07034616,E,5,11,0.7,54.126,M,-12.686,M,1.0,0000*5E
$GPGGA,111521.00,3030.67880460,N,11424.07034709,E,5,11,0.7,54.133,M,-12.686,M,1.0,0000*5E
$GPGGA,111522.00,3030.67880474,N,11424.07034372,E,5,11,0.7,54.137,M,-12.686,M,1.0,0000*54
$GPGGA,111523.00,3030.67880488,N,11424.07034387,E,5,11,0.7,54.139,M,-12.686,M,2.0,0000*51
$GPGGA,111524.00,3030.67880450,N,11424.07034618,E,5,11,0.7,54.142,M,-12.686,M,1.0,0000*5F
$GPGGA,111525.00,3030.67880532,N,11424.07034538,E,5,11,0.7,54.135,M,-12.686,M,1.0,0000*5A
$GPGGA,111526.00,3030.67880683,N,11424.07034609,E,5,11,0.7,54.148,M,-12.686,M,1.0,0000*5B
$GPGGA,111527.00,3030.67880672,N,11424.07034442,E,5,11,0.7,54.147,M,-12.686,M,2.0,0000*55
$GPGGA,111528.00,3030.67880387,N,11424.07034407,E,5,11,0.7,54.144,M,-12.686,M,2.0,0000*57
$GPGGA,111529.00,3030.67880505,N,11424.07034543,E,5,11,0.7,54.134,M,-12.686,M,2.0,0000*5C
$GPGGA,111530.00,3030.67880402,N,11424.07034629,E,5,11,0.7,54.132,M,-12.686,M,2.0,0000*5B
$GPGGA,111531.00,3030.67880418,N,11424.07034340,E,5,11,0.7,54.143,M,-12.686,M,2.0,0000*5D
$GPGGA,111532.00,3030.67880353,N,11424.07034317,E,5,11,0.7,54.132,M,-12.686,M,1.0,0000*51
$GPGGA,111533.00,3030.67880304,N,11424.07034338,E,5,11,0.7,54.132,M,-12.686,M,2.0,0000*5C
$GPGGA,111534.00,3030.67880323,N,11424.07034249,E,5,11,0.7,54.137,M,-12.686,M,1.0,0000*5F
$GPGGA,111535.00,3030.67880112,N,11424.07034185,E,5,11,0.7,54.129,M,-12.686,M,2.0,0000*51
$GPGGA,111536.00,3030.67880477,N,11424.07034414,E,5,11,0.7,54.136,M,-12.686,M,1.0,0000*54
$GPGGA,111537.00,3030.67880666,N,11424.07034478,E,5,11,0.7,54.142,M,-12.686,M,2.0,0000*5D
$GPGGA,111538.00,3030.67880424,N,11424.07034255,E,5,11,0.7,54.142,M,-12.686,M,2.0,0000*5F
$GPGGA,111539.00,3030.67880623,N,11424.07034303,E,5,11,0.7,54.145,M,-12.686,M,1.0,0000*5D
$GPGGA,111540.00,3030.67880643,N,11424.07034435,E,5,11,0.7,54.136,M,-12.686,M,1.0,0000*53
$GPGGA,111541.00,3030.67880650,N,11424.07034420,E,5,11,0.7,54.141,M,-12.686,M,2.0,0000*57
$GPGGA,111542.00,3030.67880408,N,11424.07034159,E,5,11,0.7,54.149,M,-12.686,M,2.0,0000*58
$GPGGA,111543.00,3030.67880472,N,11424.07034319,E,5,11,0.7,54.142,M,-12.686,M,1.0,0000*5A
$GPGGA,111544.00,3030.67880526,N,11424.07034215,E,5,11,0.7,54.139,M,-12.686,M,1.0,0000*5C
$GPGGA,111545.00,3030.67880433,N,11424.07034257,E,5,11,0.7,54.141,M,-12.686,M,2.0,0000*52
$GPGGA,111546.00,3030.67880290,N,11424.07034242,E,5,11,0.7,54.148,M,-12.686,M,2.0,0000*53
$GPGGA,111547.00,3030.67880549,N,11424.07034268,E,5,11,0.7,54.152,M,-12.686,M,1.0,0000*51
$GPGGA,111548.00,3030.67880726,N,11424.07034276,E,5,11,0.7,54.148,M,-12.686,M,2.0,0000*52
$GPGGA,111549.00,3030.67880371,N,11424.07033832,E,5,11,0.7,54.151,M,-12.686,M,1.0,0000*53
$GPGGA,111550.00,3030.67880641,N,11424.07034331,E,5,11,0.7,54.145,M,-12.686,M,1.0,0000*57
$GPGGA,111551.00,3030.67880537,N,11424.07033912,E,5,11,0.7,54.147,M,-12.686,M,1.0,0000*5A
$GPGGA,111552.00,3030.67880546,N,11424.07033813,E,5,11,0.7,54.137,M,-12.686,M,2.0,0000*5B
$GPGGA,111553.00,3030.67880761,N,11424.07034145,E,5,11,0.7,54.131,M,-12.686,M,2.0,0000*56
$GPGGA,111554.00,3030.67880926,N,11424.07033917,E,5,11,0.7,54.144,M,-12.686,M,1.0,0000*55
$GPGGA,111555.00,3030.67880928,N,11424.07034030,E,5,11,0.7,54.149,M,-12.686,M,1.0,0000*5C
$GPGGA,111556.00,3030.67880698,N,11424.07033827,E,5,11,0.7,54.141,M,-12.686,M,1.0,0000*5A
$GPGGA,111557.00,3030.67880703,N,11424.07033774,E,5,11,0.7,54.146,M,-12.686,M,2.0,0000*55
$GPGGA,111558.00,3030.67880837,N,11424.07033718,E,5,11,0.7,54.146,M,-12.686,M,2.0,0000*58
$GPGGA,111559.00,3030.67880684,N,11424.07034121,E,5,11,0.7,54.137,M,-12.686,M,1.0,0000*51
$GPGGA,111600.00,3030.67880808,N,11424.07033824,E,5,11,0.7,54.139,M,-12.686,M,1.0,0000*51
$GPGGA,111601.00,3030.67880778,N,11424.07034091,E,5,11,0.7,54.138,M,-12.686,M,1.0,0000*58
$GPGGA,111602.00,3030.67880833,N,11424.07033992,E,5,11,0.7,54.152,M,-12.686,M,1.0,0000*5A
$GPGGA,111603.00,3030.67880773,N,11424.07033818,E,5,11,0.7,54.149,M,-12.686,M,1.0,0000*59
$GPGGA,111604.00,3030.67880753,N,11424.07034009,E,5,11,0.7,54.133,M,-12.686,M,1.0,0000*5E
$GPGGA,111605.00,3030.67880836,N,11424.07034177,E,5,11,0.7,54.131,M,-12.686,M,1.0,0000*59
$GPGGA,111606.00,3030.67880947,N,11424.07034179,E,5,11,0.7,54.133,M,-12.686,M,2.0,0000*52
$GPGGA,111607.00,3030.67880721,N,11424.07034028,E,5,11,0.7,54.128,M,-12.686,M,1.0,0000*51
$GPGGA,111608.00,3030.67880843,N,11424.07033765,E,5,11,0.7,54.138,M,-12.686,M,1.0,0000*5D
$GPGGA,111609.00,3030.67880950,N,11424.07034104,E,5,11,0.7,54.132,M,-12.686,M,1.0,0000*53
$GPGGA,111610.00,3030.67880974,N,11424.07034028,E,5,11,0.7,54.136,M,-12.686,M,2.0,0000*55
$GPGGA,111611.00,3030.67880791,N,11424.07034028,E,5,11,0.7,54.136,M,-12.686,M,1.0,0000*52
$GPGGA,111612.00,3030.67880952,N,11424.07033638,E,5,11,0.7,54.150,M,-12.686,M,1.0,0000*50
$GPGGA,111613.00,3030.67880816,N,11424.07033927,E,5,11,0.7,54.144,M,-12.686,M,1.0,0000*54
$GPGGA,111614.00,3030.67880858,N,11424.07034052,E,5,11,0.7,54.145,M,-12.686,M,1.0,0000*54
$GPGGA,111615.00,3030.67880716,N,11424.07033840,E,5,11,0.7,54.145,M,-12.686,M,2.0,0000*5F
$GPGGA,111616.00,3030.67880741,N,11424.07033797,E,5,11,0.7,54.144,M,-12.686,M,2.0,0000*5A
$GPGGA,111617.00,3030.67880803,N,11424.07033791,E,5,11,0.7,54.145,M,-12.686,M,3.0,0000*54
