$GPGGA,092457.00,3030.67088068,N,11424.07245559,E,2,19,1.3,62.137,M,-12.686,M,7.0,0137*53
$GPGGA,092458.00,3030.67087580,N,11424.07243449,E,2,19,1.3,62.080,M,-12.686,M,4.0,0137*58
$GPGGA,092459.00,3030.67087110,N,11424.07240951,E,2,19,1.3,62.019,M,-12.686,M,5.0,0137*52
$GPGGA,092500.00,3030.67086585,N,11424.07238000,E,2,19,1.3,61.944,M,-12.686,M,6.0,0137*55
$GPGGA,092501.00,3030.67085895,N,11424.07235385,E,2,19,1.3,61.878,M,-12.686,M,7.0,0137*57
$GPGGA,092502.00,3030.67085103,N,11424.07232339,E,2,19,1.3,61.805,M,-12.686,M,7.0,0137*58
$GPGGA,092503.00,3030.67084627,N,11424.07229195,E,2,19,1.3,61.726,M,-12.686,M,7.0,0137*59
$GPGGA,092504.00,3030.67084221,N,11424.07225571,E,2,19,1.3,61.633,M,-12.686,M,4.0,0137*58
$GPGGA,092505.00,3030.67083792,N,11424.07222140,E,2,19,1.3,61.544,M,-12.686,M,5.0,0137*50
$GPGGA,092506.00,3030.67083387,N,11424.07218909,E,2,19,1.3,61.459,M,-12.686,M,6.0,0137*51
$GPGGA,092507.00,3030.67082813,N,11424.07215347,E,2,19,1.3,61.371,M,-12.686,M,7.0,0137*56
$GPGGA,092508.00,3030.67082241,N,11424.07211689,E,2,19,1.3,61.281,M,-12.686,M,7.0,0137*59
$GPGGA,092509.00,3030.67081500,N,11424.07207385,E,2,19,1.3,61.175,M,-12.686,M,7.0,0137*5F
$GPGGA,092510.00,3030.67080853,N,11424.07203523,E,2,19,1.3,61.079,M,-12.686,M,4.0,0137*5D
$GPGGA,092511.00,3030.67080174,N,11424.07199436,E,2,19,1.3,60.979,M,-12.686,M,5.0,0137*5C
$GPGGA,092512.00,3030.67079540,N,11424.07194386,E,2,19,1.3,60.861,M,-12.686,M,6.0,0137*50
$GPGGA,092513.00,3030.67078737,N,11424.07189697,E,2,19,1.3,60.749,M,-12.686,M,7.0,0137*5F
$GPGGA,092514.00,3030.67078234,N,11424.07185613,E,2,19,1.3,60.642,M,-12.686,M,7.0,0137*54
$GPGGA,092515.00,3030.67077669,N,11424.07181839,E,2,19,1.3,60.542,M,-12.686,M,7.0,0137*57
$GPGGA,092516.00,3030.67077026,N,11424.07177241,E,2,19,1.3,60.430,M,-12.686,M,4.0,0137*52
$GPGGA,092517.00,3030.67076253,N,11424.07172148,E,2,19,1.3,60.312,M,-12.686,M,5.0,0137*5B
$GPGGA,092518.00,3030.67037897,N,11424.07129153,E,1,18,1.4,59.188,M,-12.686,M,,*77
$GPGGA,092519.00,3030.67008508,N,11424.07101944,E,1,18,1.4,58.282,M,-12.686,M,,*7D
$GPGGA,092520.00,3030.67001835,N,11424.07093258,E,1,18,1.4,58.015,M,-12.686,M,,*7D
$GPGGA,092521.00,3030.66998363,N,11424.07083681,E,1,18,1.4,57.781,M,-12.686,M,,*78
$GPGGA,092522.00,3030.66996680,N,11424.07077766,E,1,18,1.4,57.623,M,-12.686,M,,*77
$GPGGA,092523.00,3030.66995795,N,11424.07072332,E,1,18,1.4,57.490,M,-12.686,M,,*7A
$GPGGA,092524.00,3030.66995203,N,11424.07067033,E,1,18,1.4,57.359,M,-12.686,M,,*73
$GPGGA,092525.00,3030.66995054,N,11424.07062034,E,1,18,1.4,57.245,M,-12.686,M,,*7C
$GPGGA,092526.00,3030.66994959,N,11424.07055720,E,1,18,1.4,57.112,M,-12.686,M,,*7D
$GPGGA,092527.00,3030.66994953,N,11424.07048914,E,1,18,1.4,56.984,M,-12.686,M,,*75
$GPGGA,092528.00,3030.66995109,N,11424.07042893,E,1,18,1.4,56.874,M,-12.686,M,,*76
$GPGGA,092529.00,3030.66995259,N,11424.07037571,E,1,18,1.4,56.774,M,-12.686,M,,*7D
$GPGGA,092530.00,3030.66995534,N,11424.07031412,E,1,18,1.4,56.661,M,-12.686,M,,*7E
$GPGGA,092531.00,3030.66995782,N,11424.07026071,E,1,18,1.4,56.572,M,-12.686,M,,*76
$GPGGA,092532.00,3030.66995904,N,11424.07021495,E,1,18,1.4,56.492,M,-12.686,M,,*73
$GPGGA,092533.00,3030.66995898,N,11424.07018849,E,1,18,1.4,56.442,M,-12.686,M,,*7C
$GPGGA,092534.00,3030.66995745,N,11424.07015809,E,1,18,1.4,56.393,M,-12.686,M,,*76
$GPGGA,092535.00,3030.66995441,N,11424.07012612,E,1,17,1.6,56.342,M,-12.686,M,,*72
$GPGGA,092536.00,3030.66995063,N,11424.07009064,E,1,17,1.6,56.286,M,-12.686,M,,*71
$GPGGA,092537.00,3030.66994832,N,11424.07005881,E,1,17,1.6,56.235,M,-12.686,M,,*7A
$GPGGA,092538.00,3030.66994331,N,11424.07003113,E,1,17,1.6,56.191,M,-12.686,M,,*74
$GPGGA,092539.00,3030.66993808,N,11424.07001203,E,1,17,1.6,56.159,M,-12.686,M,,*77
$GPGGA,092540.00,3030.66993264,N,11424.06999528,E,1,17,1.6,56.132,M,-12.686,M,,*73
$GPGGA,092541.00,3030.66992713,N,11424.06998621,E,1,17,1.6,56.120,M,-12.686,M,,*7E
$GPGGA,092542.00,3030.66992285,N,11424.06997841,E,1,17,1.6,56.107,M,-12.686,M,,*75
$GPGGA,092543.00,3030.66992001,N,11424.06997686,E,1,17,1.6,56.105,M,-12.686,M,,*7D
$GPGGA,092544.00,3030.66991680,N,11424.06997951,E,1,17,1.6,56.108,M,-12.686,M,,*7E
$GPGGA,092545.00,3030.66991138,N,11424.06998311,E,1,17,1.6,56.116,M,-12.686,M,,*75
$GPGGA,092546.00,3030.66990619,N,11424.06999723,E,1,17,1.6,56.142,M,-12.686,M,,*76
$GPGGA,092547.00,3030.66990193,N,11424.07000613,E,1,17,1.6,56.159,M,-12.686,M,,*72
$GPGGA,092548.00,3030.66989831,N,11424.07001946,E,1,17,1.6,56.183,M,-12.686,M,,*7D
$GPGGA,092549.00,3030.66989395,N,11424.07002974,E,1,17,1.6,56.204,M,-12.686,M,,*77
$GPGGA,092550.00,3030.66989001,N,11424.07004054,E,1,17,1.6,56.230,M,-12.686,M,,*7B
$GPGGA,092551.00,3030.66988555,N,11424.07004878,E,1,17,1.6,56.254,M,-12.686,M,,*7B
$GPGGA,092552.00,3030.66988344,N,11424.07003858,E,1,17,1.6,56.248,M,-12.686,M,,*76
$GPGGA,092553.00,3030.66988022,N,11424.07003215,E,1,18,1.5,56.243,M,-12.686,M,,*70
$GPGGA,092554.00,3030.66987870,N,11424.07002871,E,1,18,1.5,56.244,M,-12.686,M,,*79
$GPGGA,092555.00,3030.66987726,N,11424.07002412,E,1,18,1.5,56.247,M,-12.686,M,,*7E
$GPGGA,092556.00,3030.66987457,N,11424.07001656,E,1,18,1.5,56.241,M,-12.686,M,,*7F
$GPGGA,092557.00,3030.66987120,N,11424.07000862,E,1,18,1.5,56.231,M,-12.686,M,,*74
$GPGGA,092558.00,3030.66986827,N,11424.06999939,E,1,18,1.5,56.220,M,-12.686,M,,*73
$GPGGA,092559.00,3030.66986599,N,11424.06999085,E,1,18,1.5,56.210,M,-12.686,M,,*77
$GPGGA,092600.00,3030.66986486,N,11424.06997940,E,1,18,1.5,56.196,M,-12.686,M,,*74
$GPGGA,092601.00,3030.66986318,N,11424.06997295,E,1,18,1.5,56.187,M,-12.686,M,,*76
$GPGGA,092602.00,3030.66986145,N,11424.06996698,E,1,18,1.5,56.178,M,-12.686,M,,*77
$GPGGA,092603.00,3030.66985966,N,11424.06995846,E,1,18,1.5,56.169,M,-12.686,M,,*72
$GPGGA,092604.00,3030.66985806,N,11424.06994734,E,1,19,1.5,56.153,M,-12.686,M,,*71
$GPGGA,092605.00,3030.66984201,N,11424.06989404,E,2,19,1.4,56.041,M,-12.686,M,5.0,0137*5E
$GPGGA,092606.00,3030.66982616,N,11424.06983469,E,2,19,1.4,55.919,M,-12.686,M,6.0,0137*5C
$GPGGA,092607.00,3030.66981108,N,11424.06978507,E,2,19,1.4,55.817,M,-12.686,M,7.0,0137*55
$GPGGA,092608.00,3030.66979701,N,11424.06973504,E,2,19,1.4,55.709,M,-12.686,M,7.0,0137*5A
$GPGGA,092609.00,3030.66978334,N,11424.06968612,E,2,19,1.4,55.607,M,-12.686,M,7.0,0137*59
$GPGGA,092610.00,3030.66977071,N,11424.06963590,E,2,19,1.4,55.497,M,-12.686,M,4.0,0137*56
$GPGGA,092611.00,3030.66976005,N,11424.06958863,E,2,19,1.4,55.398,M,-12.686,M,5.0,0137*55
$GPGGA,092612.00,3030.66975015,N,11424.06953967,E,2,18,1.4,55.302,M,-12.686,M,6.0,0137*5B
$GPGGA,092613.00,3030.66974124,N,11424.06949684,E,2,18,1.4,55.209,M,-12.686,M,7.0,0137*5A
$GPGGA,092614.00,3030.66973307,N,11424.06944711,E,2,18,1.4,55.104,M,-12.686,M,7.0,0137*57
$GPGGA,092615.00,3030.66972642,N,11424.06940364,E,2,18,1.4,55.012,M,-12.686,M,7.0,0137*57
$GPGGA,092616.00,3030.66972160,N,11424.06935869,E,2,18,1.4,54.920,M,-12.686,M,4.0,0137*5D
$GPGGA,092617.00,3030.66971604,N,11424.06931141,E,2,18,1.4,54.824,M,-12.686,M,5.0,0137*59
$GPGGA,092618.00,3030.66971170,N,11424.06927159,E,2,18,1.4,54.743,M,-12.686,M,6.0,0137*51
$GPGGA,092619.00,3030.66970773,N,11424.06922284,E,2,18,1.4,54.646,M,-12.686,M,7.0,0137*57
$GPGGA,092620.00,3030.66970401,N,11424.06917652,E,2,18,1.4,54.551,M,-12.686,M,7.0,0137*57
$GPGGA,092621.00,3030.66970159,N,11424.06913576,E,2,18,1.4,54.464,M,-12.686,M,7.0,0137*58
$GPGGA,092622.00,3030.66970083,N,11424.06909988,E,2,18,1.4,54.390,M,-12.686,M,4.0,0137*54
$GPGGA,092623.00,3030.66970109,N,11424.06906189,E,2,18,1.4,54.309,M,-12.686,M,5.0,0137*51
$GPGGA,092624.00,3030.66970127,N,11424.06902143,E,2,18,1.4,54.228,M,-12.686,M,6.0,0137*59
$GPGGA,092625.00,3030.66970139,N,11424.06897819,E,2,19,1.3,54.144,M,-12.686,M,7.0,0137*52
$GPGGA,092626.00,3030.66970110,N,11424.06893962,E,2,19,1.3,54.061,M,-12.686,M,7.0,0137*55
$GPGGA,092627.00,3030.66970186,N,11424.06890269,E,2,19,1.3,53.985,M,-12.686,M,7.0,0137*5C
$GPGGA,092628.00,3030.66970360,N,11424.06886388,E,2,18,1.5,53.902,M,-12.686,M,4.0,0137*5B
$GPGGA,092629.00,3030.66970543,N,11424.06882922,E,2,18,1.5,53.826,M,-12.686,M,5.0,0137*55
$GPGGA,092630.00,3030.66970961,N,11424.06879703,E,2,18,1.5,53.758,M,-12.686,M,6.0,0137*5D
$GPGGA,092631.00,3030.66971304,N,11424.06876613,E,2,18,1.5,53.693,M,-12.686,M,7.0,0137*5C
$GPGGA,092632.00,3030.66971617,N,11424.06873231,E,2,19,1.4,53.622,M,-12.686,M,7.0,0137*53
$GPGGA,092633.00,3030.66972034,N,11424.06870139,E,2,19,1.4,53.552,M,-12.686,M,3.0,0137*5E
$GPGGA,092634.00,3030.66972490,N,11424.06867326,E,2,19,1.4,53.492,M,-12.686,M,4.0,0137*53
$GPGGA,092635.00,3030.66972956,N,11424.06864372,E,2,19,1.4,53.430,M,-12.686,M,5.0,0137*5E
$GPGGA,092636.00,3030.66973591,N,11424.06861236,E,2,19,1.4,53.366,M,-12.686,M,6.0,0137*58
$GPGGA,092637.00,3030.66974076,N,11424.06858386,E,2,19,1.4,53.307,M,-12.686,M,7.0,0137*54
$GPGGA,092638.00,3030.66974696,N,11424.06855484,E,2,19,1.4,53.246,M,-12.686,M,7.0,0137*5F
$GPGGA,092639.00,3030.66975297,N,11424.06852282,E,2,19,1.4,53.179,M,-12.686,M,3.0,0137*56
$GPGGA,092640.00,3030.66975700,N,11424.06848728,E,2,19,1.4,53.107,M,-12.686,M,4.0,0137*53
$GPGGA,092641.00,3030.66976136,N,11424.06845492,E,2,19,1.4,53.037,M,-12.686,M,5.0,0137*5E
$GPGGA,092642.00,3030.66976542,N,11424.06842975,E,2,20,1.3,52.981,M,-12.686,M,6.0,0137*52
$GPGGA,092643.00,3030.66976872,N,11424.06840841,E,2,20,1.3,52.938,M,-12.686,M,7.0,0137*5A
$GPGGA,092644.00,3030.66977436,N,11424.06838872,E,2,20,1.3,52.892,M,-12.686,M,7.0,0137*5E
$GPGGA,092645.00,3030.66977942,N,11424.06836333,E,2,20,1.3,52.836,M,-12.686,M,3.0,0137*5B
$GPGGA,092646.00,3030.66978497,N,11424.06833050,E,2,20,1.3,52.768,M,-12.686,M,4.0,0137*52
$GPGGA,092647.00,3030.66979110,N,11424.06830138,E,2,20,1.3,52.701,M,-12.686,M,5.0,0137*5A
$GPGGA,092648.00,3030.66979680,N,11424.06827128,E,2,20,1.3,52.637,M,-12.686,M,6.0,0137*5B
$GPGGA,092649.00,3030.66980135,N,11424.06824743,E,2,20,1.3,52.574,M,-12.686,M,7.0,0137*58
$GPGGA,092650.00,3030.66980532,N,11424.06822294,E,2,20,1.3,52.514,M,-12.686,M,7.0,0137*5C
$GPGGA,092651.00,3030.66981006,N,11424.06819428,E,2,20,1.3,52.451,M,-12.686,M,3.0,0137*53
$GPGGA,092652.00,3030.66981608,N,11424.06816591,E,2,20,1.3,52.388,M,-12.686,M,4.0,0137*50
$GPGGA,092653.00,3030.66982008,N,11424.06814052,E,2,20,1.3,52.331,M,-12.686,M,5.0,0137*5F
$GPGGA,092654.00,3030.66982413,N,11424.06811241,E,2,20,1.3,52.262,M,-12.686,M,6.0,0137*57
$GPGGA,092655.00,3030.66982840,N,11424.06808480,E,2,20,1.3,52.206,M,-12.686,M,7.0,0137*5C
$GPGGA,092656.00,3030.66983225,N,11424.06806103,E,2,20,1.3,52.150,M,-12.686,M,7.0,0137*57
$GPGGA,092657.00,3030.66983559,N,11424.06803490,E,2,20,1.3,52.086,M,-12.686,M,3.0,0137*5E
$GPGGA,092658.00,3030.66984005,N,11424.06800935,E,2,20,1.3,52.025,M,-12.686,M,4.0,0137*55
$GPGGA,092659.00,3030.66984476,N,11424.06798496,E,2,20,1.3,51.966,M,-12.686,M,5.0,0137*52
$GPGGA,092700.00,3030.66984944,N,11424.06796196,E,2,20,1.3,51.908,M,-12.686,M,6.0,0137*53
$GPGGA,092701.00,3030.66985432,N,11424.06793697,E,2,20,1.3,51.847,M,-12.686,M,7.0,0137*57
$GPGGA,092702.00,3030.66985886,N,11424.06791445,E,2,20,1.3,51.793,M,-12.686,M,7.0,0137*5E
$GPGGA,092703.00,3030.66986345,N,11424.06788872,E,2,20,1.3,51.732,M,-12.686,M,3.0,0137*57
$GPGGA,092704.00,3030.66986821,N,11424.06786421,E,2,20,1.3,51.671,M,-12.686,M,4.0,0137*5C
$GPGGA,092705.00,3030.66974527,N,11424.06857351,E,1,19,1.3,53.901,M,-12.686,M,,*74
$GPGGA,092706.00,3030.66976240,N,11424.06915409,E,1,19,1.3,54.812,M,-12.686,M,,*7A
$GPGGA,092707.00,3030.66976537,N,11424.06924734,E,1,19,1.3,54.962,M,-12.686,M,,*75
$GPGGA,092708.00,3030.66976746,N,11424.06921290,E,1,19,1.3,54.954,M,-12.686,M,,*75
$GPGGA,092709.00,3030.66976838,N,11424.06918216,E,1,19,1.3,54.934,M,-12.686,M,,*70
$GPGGA,092710.00,3030.66977248,N,11424.06913332,E,1,19,1.3,54.892,M,-12.686,M,,*75
$GPGGA,092711.00,3030.66977556,N,11424.06911114,E,1,19,1.3,54.876,M,-12.686,M,,*72
$GPGGA,092712.00,3030.66977917,N,11424.06906305,E,1,19,1.3,54.829,M,-12.686,M,,*76
$GPGGA,092713.00,3030.66978110,N,11424.06903053,E,1,19,1.3,54.798,M,-12.686,M,,*77
$GPGGA,092714.00,3030.66978119,N,11424.06899503,E,1,19,1.3,54.760,M,-12.686,M,,*7C
$GPGGA,092715.00,3030.66978213,N,11424.06897133,E,1,19,1.3,54.732,M,-12.686,M,,*7A
$GPGGA,092716.00,3030.66978264,N,11424.06894804,E,1,19,1.3,54.703,M,-12.686,M,,*75
$GPGGA,092717.00,3030.66978236,N,11424.06892488,E,1,19,1.3,54.679,M,-12.686,M,,*71
$GPGGA,092718.00,3030.66978199,N,11424.06890369,E,2,20,1.2,54.651,M,-12.686,M,6.0,0137*5D
$GPGGA,092719.00,3030.66977375,N,11424.06886118,E,2,19,1.3,54.556,M,-12.686,M,7.0,0137*5E
$GPGGA,092720.00,3030.66976623,N,11424.06882424,E,2,19,1.3,54.462,M,-12.686,M,7.0,0137*5B
$GPGGA,092721.00,3030.66975821,N,11424.06879024,E,2,19,1.3,54.373,M,-12.686,M,3.0,0137*56
$GPGGA,092722.00,3030.66975281,N,11424.06874941,E,2,19,1.3,54.268,M,-12.686,M,4.0,0137*5E
$GPGGA,092723.00,3030.66974536,N,11424.06870562,E,2,19,1.3,54.164,M,-12.686,M,5.0,0137*52
$GPGGA,092724.00,3030.66974023,N,11424.06866470,E,2,19,1.3,54.060,M,-12.686,M,6.0,0137*57
$GPGGA,092725.00,3030.66973644,N,11424.06862329,E,2,19,1.3,53.949,M,-12.686,M,7.0,0137*5D
$GPGGA,092726.00,3030.66973385,N,11424.06858807,E,2,18,1.3,53.853,M,-12.686,M,7.0,0137*53
$GPGGA,092727.00,3030.66973290,N,11424.06854737,E,2,18,1.3,53.745,M,-12.686,M,3.0,0137*5B
$GPGGA,092728.00,3030.66973208,N,11424.06849882,E,2,18,1.3,53.626,M,-12.686,M,4.0,0137*5B
$GPGGA,092729.00,3030.66973226,N,11424.06845638,E,2,18,1.3,53.515,M,-12.686,M,5.0,0137*57
$GPGGA,092730.00,3030.66973223,N,11424.06841716,E,2,18,1.3,53.409,M,-12.686,M,6.0,0137*5C
$GPGGA,092731.00,3030.66973482,N,11424.06838056,E,2,18,1.3,53.312,M,-12.686,M,7.0,0137*51
$GPGGA,092732.00,3030.66973745,N,11424.06834277,E,2,18,1.3,53.209,M,-12.686,M,7.0,0137*5C
$GPGGA,092733.00,3030.66973846,N,11424.06829691,E,2,18,1.3,53.100,M,-12.686,M,3.0,0137*5F
$GPGGA,092734.00,3030.66974067,N,11424.06825619,E,2,18,1.3,52.994,M,-12.686,M,4.0,0137*5B
$GPGGA,092735.00,3030.66974442,N,11424.06821351,E,2,18,1.3,52.886,M,-12.686,M,5.0,0137*57
$GPGGA,092736.00,3030.66974894,N,11424.06817648,E,2,18,1.3,52.788,M,-12.686,M,6.0,0137*59
$GPGGA,092737.00,3030.66975224,N,11424.06814339,E,2,18,1.3,52.700,M,-12.686,M,7.0,0137*59
$GPGGA,092738.00,3030.66975698,N,11424.06810668,E,2,18,1.3,52.609,M,-12.686,M,7.0,0137*58
$GPGGA,092739.00,3030.66976145,N,11424.06807244,E,2,18,1.3,52.518,M,-12.686,M,3.0,0137*56
$GPGGA,092740.00,3030.66976504,N,11424.06802845,E,2,18,1.3,52.414,M,-12.686,M,4.0,0137*5D
$GPGGA,092741.00,3030.66977063,N,11424.06800063,E,2,18,1.3,52.337,M,-12.686,M,5.0,0137*50
$GPGGA,092742.00,3030.66974899,N,11424.06848291,E,1,19,1.3,54.046,M,-12.686,M,,*71
$GPGGA,092743.00,3030.66976131,N,11424.06852130,E,1,19,1.3,54.146,M,-12.686,M,,*7B
$GPGGA,092744.00,3030.66976708,N,11424.06852883,E,1,19,1.3,54.175,M,-12.686,M,,*71
$GPGGA,092745.00,3030.66976890,N,11424.06854249,E,1,19,1.3,54.207,M,-12.686,M,,*72
$GPGGA,092746.00,3030.66976935,N,11424.06854203,E,1,19,1.3,54.210,M,-12.686,M,,*77
$GPGGA,092747.00,3030.66976920,N,11424.06853815,E,1,19,1.3,54.210,M,-12.686,M,,*78
$GPGGA,092748.00,3030.66976641,N,11424.06852959,E,1,19,1.3,54.204,M,-12.686,M,,*72
$GPGGA,092749.00,3030.66976539,N,11424.06851449,E,1,19,1.3,54.186,M,-12.686,M,,*79
$GPGGA,092750.00,3030.66975704,N,11424.06850193,E,1,19,1.3,54.180,M,-12.686,M,,*7B
$GPGGA,092751.00,3030.66974902,N,11424.06848687,E,1,19,1.3,54.170,M,-12.686,M,,*77
$GPGGA,092752.00,3030.66974329,N,11424.06847199,E,1,19,1.3,54.159,M,-12.686,M,,*7B
$GPGGA,092753.00,3030.66973792,N,11424.06846007,E,1,19,1.3,54.152,M,-12.686,M,,*75
$GPGGA,092754.00,3030.66973401,N,11424.06844453,E,1,19,1.3,54.136,M,-12.686,M,,*7E
$GPGGA,092755.00,3030.66972894,N,11424.06843002,E,1,19,1.3,54.121,M,-12.686,M,,*7F
$GPGGA,092756.00,3030.66972385,N,11424.06841525,E,1,19,1.3,54.102,M,-12.686,M,,*74
$GPGGA,092757.00,3030.66971917,N,11424.06839806,E,1,19,1.3,54.078,M,-12.686,M,,*78
$GPGGA,092758.00,3030.66971340,N,11424.06837697,E,1,19,1.3,54.050,M,-12.686,M,,*7D
$GPGGA,092759.00,3030.66970876,N,11424.06835119,E,1,19,1.3,54.012,M,-12.686,M,,*76
$GPGGA,092800.00,3030.66970370,N,11424.06832883,E,1,19,1.3,53.980,M,-12.686,M,,*70
$GPGGA,092801.00,3030.66970072,N,11424.06830409,E,1,19,1.3,53.943,M,-12.686,M,,*73
$GPGGA,092802.00,3030.66969901,N,11424.06828981,E,1,19,1.3,53.921,M,-12.686,M,,*75
$GPGGA,092803.00,3030.66969627,N,11424.06827506,E,1,19,1.3,53.896,M,-12.686,M,,*7E
$GPGGA,092804.00,3030.66969474,N,11424.06825596,E,1,19,1.3,53.872,M,-12.686,M,,*7C
$GPGGA,092805.00,3030.66969479,N,11424.06823885,E,1,19,1.3,53.844,M,-12.686,M,,*7C
$GPGGA,092806.00,3030.66969632,N,11424.06823280,E,1,19,1.3,53.839,M,-12.686,M,,*77
$GPGGA,092807.00,3030.66971094,N,11424.06834613,E,1,19,1.3,54.039,M,-12.686,M,,*72
$GPGGA,092808.00,3030.66973813,N,11424.06856604,E,1,19,1.3,54.422,M,-12.686,M,,*74
$GPGGA,092809.00,3030.66976131,N,11424.06875259,E,1,19,1.3,54.745,M,-12.686,M,,*76
$GPGGA,092810.00,3030.66978732,N,11424.06896394,E,1,19,1.3,55.110,M,-12.686,M,,*7F
$GPGGA,092811.00,3030.66980932,N,11424.06914278,E,1,19,1.3,55.415,M,-12.686,M,,*7F
$GPGGA,092812.00,3030.66982627,N,11424.06928236,E,1,19,1.3,55.655,M,-12.686,M,,*76
$GPGGA,092813.00,3030.66984576,N,11424.06943451,E,1,19,1.3,55.913,M,-12.686,M,,*71
$GPGGA,092814.00,3030.66986219,N,11424.06957240,E,1,19,1.3,56.151,M,-12.686,M,,*74
$GPGGA,092815.00,3030.66988205,N,11424.06972953,E,1,19,1.3,56.418,M,-12.686,M,,*70
$GPGGA,092816.00,3030.66988519,N,11424.06973711,E,1,19,1.3,56.423,M,-12.686,M,,*78
$GPGGA,092817.00,3030.66987779,N,11424.06965533,E,1,19,1.3,56.280,M,-12.686,M,,*78
$GPGGA,092818.00,3030.66986981,N,11424.06957446,E,1,19,1.3,56.141,M,-12.686,M,,*73
$GPGGA,092819.00,3030.66986277,N,11424.06949766,E,1,19,1.3,56.008,M,-12.686,M,,*72
$GPGGA,092820.00,3030.66985620,N,11424.06942701,E,1,18,1.3,55.883,M,-12.686,M,,*7E
$GPGGA,092821.00,3030.66985127,N,11424.06935331,E,1,18,1.3,55.758,M,-12.686,M,,*71
$GPGGA,092822.00,3030.66984646,N,11424.06928657,E,1,18,1.3,55.644,M,-12.686,M,,*76
$GPGGA,092823.00,3030.66984053,N,11424.06922718,E,1,18,1.3,55.549,M,-12.686,M,,*7B
$GPGGA,092824.00,3030.66983410,N,11424.06915974,E,1,17,1.4,55.438,M,-12.686,M,,*77
$GPGGA,092825.00,3030.66982642,N,11424.06909589,E,2,18,1.4,55.327,M,-12.686,M,7.0,0137*58
$GPGGA,092826.00,3030.66981531,N,11424.06903466,E,2,18,1.4,55.214,M,-12.686,M,7.0,0137*54
$GPGGA,092827.00,3030.66980566,N,11424.06897451,E,2,18,1.4,55.101,M,-12.686,M,3.0,0137*5D
$GPGGA,092828.00,3030.66979562,N,11424.06891262,E,2,18,1.4,54.980,M,-12.686,M,4.0,0137*57
$GPGGA,092829.00,3030.66978583,N,11424.06885127,E,2,18,1.4,54.866,M,-12.686,M,5.0,0137*57
$GPGGA,092830.00,3030.66977755,N,11424.06879726,E,2,18,1.4,54.759,M,-12.686,M,6.0,0137*5D
$GPGGA,092831.00,3030.66976970,N,11424.06873860,E,2,18,1.4,54.642,M,-12.686,M,7.0,0137*59
$GPGGA,092832.00,3030.66976216,N,11424.06867603,E,2,18,1.4,54.518,M,-12.686,M,7.0,0137*53
$GPGGA,092833.00,3030.66975543,N,11424.06861708,E,2,18,1.4,54.399,M,-12.686,M,3.0,0137*51
$GPGGA,092834.00,3030.66974988,N,11424.06856337,E,2,18,1.4,54.295,M,-12.686,M,4.0,0137*5A
$GPGGA,092835.00,3030.66974443,N,11424.06850326,E,2,18,1.4,54.178,M,-12.686,M,5.0,0137*56
$GPGGA,092836.00,3030.66973870,N,11424.06844645,E,2,18,1.4,54.064,M,-12.686,M,6.0,0137*54
$GPGGA,092837.00,3030.66973438,N,11424.06839068,E,2,18,1.4,53.956,M,-12.686,M,7.0,0137*58
$GPGGA,092838.00,3030.66973097,N,11424.06834571,E,2,18,1.4,53.867,M,-12.686,M,7.0,0137*55
$GPGGA,092839.00,3030.66972754,N,11424.06829253,E,2,18,1.4,53.762,M,-12.686,M,3.0,0137*58
$GPGGA,092840.00,3030.66972603,N,11424.06824329,E,2,18,1.4,53.665,M,-12.686,M,4.0,0137*55
$GPGGA,092841.00,3030.66972444,N,11424.06819843,E,2,18,1.4,53.576,M,-12.686,M,5.0,0137*5C
$GPGGA,092842.00,3030.66972327,N,11424.06814942,E,2,18,1.4,53.477,M,-12.686,M,6.0,0137*53
$GPGGA,092843.00,3030.66972074,N,11424.06810527,E,2,18,1.4,53.392,M,-12.686,M,7.0,0137*51
$GPGGA,092844.00,3030.66971950,N,11424.06806166,E,2,18,1.4,53.311,M,-12.686,M,7.0,0137*57
$GPGGA,092845.00,3030.66971883,N,11424.06801702,E,2,18,1.4,53.223,M,-12.686,M,3.0,0137*5E
$GPGGA,092846.00,3030.66971860,N,11424.06797429,E,2,19,1.3,53.146,M,-12.686,M,4.0,0137*5B
$GPGGA,092847.00,3030.66971813,N,11424.06793306,E,2,19,1.3,53.060,M,-12.686,M,5.0,0137*54
$GPGGA,092848.00,3030.66971807,N,11424.06789296,E,2,19,1.3,52.978,M,-12.686,M,6.0,0137*5F
$GPGGA,092849.00,3030.66971822,N,11424.06784713,E,2,19,1.3,52.890,M,-12.686,M,7.0,0137*5A
$GPGGA,092850.00,3030.66971831,N,11424.06780426,E,2,19,1.3,52.806,M,-12.686,M,7.0,0137*5E
$GPGGA,092851.00,3030.66971890,N,11424.06776386,E,2,19,1.3,52.729,M,-12.686,M,3.0,0137*56
$GPGGA,092852.00,3030.66972020,N,11424.06772671,E,2,19,1.3,52.651,M,-12.686,M,4.0,0137*55
$GPGGA,092853.00,3030.66972209,N,11424.06769176,E,2,19,1.3,52.581,M,-12.686,M,5.0,0137*58
$GPGGA,092854.00,3030.66972287,N,11424.06765085,E,2,19,1.3,52.501,M,-12.686,M,6.0,0137*53
$GPGGA,092855.00,3030.66972527,N,11424.06761851,E,2,19,1.3,52.434,M,-12.686,M,7.0,0137*5C
$GPGGA,092856.00,3030.66972697,N,11424.06758898,E,2,19,1.3,52.373,M,-12.686,M,7.0,0137*5C
$GPGGA,092857.00,3030.66972794,N,11424.06755107,E,2,19,1.3,52.297,M,-12.686,M,3.0,0137*52
$GPGGA,092858.00,3030.66973138,N,11424.06752176,E,2,19,1.3,52.238,M,-12.686,M,4.0,0137*5F
$GPGGA,092859.00,3030.66973407,N,11424.06749379,E,2,19,1.3,52.176,M,-12.686,M,5.0,0137*58
$GPGGA,092900.00,3030.66973749,N,11424.06746880,E,2,19,1.3,52.121,M,-12.686,M,6.0,0137*5F
$GPGGA,092901.00,3030.66974051,N,11424.06744121,E,2,19,1.3,52.061,M,-12.686,M,7.0,0137*53
$GPGGA,092902.00,3030.66974317,N,11424.06741105,E,2,19,1.3,52.001,M,-12.686,M,7.0,0137*54
$GPGGA,092903.00,3030.66974589,N,11424.06738812,E,2,19,1.3,51.949,M,-12.686,M,3.0,0137*57
$GPGGA,092904.00,3030.66974905,N,11424.06736348,E,2,19,1.3,51.898,M,-12.686,M,4.0,0137*58
$GPGGA,092905.00,3030.66975217,N,11424.06733427,E,2,19,1.3,51.834,M,-12.686,M,5.0,0137*5C
$GPGGA,092906.00,3030.66975705,N,11424.06731605,E,2,19,1.3,51.784,M,-12.686,M,6.0,0137*5E
$GPGGA,092907.00,3030.66976230,N,11424.06730138,E,2,19,1.3,51.754,M,-12.686,M,7.0,0137*5B
$GPGGA,092908.00,3030.66976831,N,11424.06728478,E,2,19,1.3,51.714,M,-12.686,M,7.0,0137*53
$GPGGA,092909.00,3030.66977391,N,11424.06727111,E,2,19,1.3,51.680,M,-12.686,M,3.0,0137*5F
$GPGGA,092910.00,3030.66977933,N,11424.06725828,E,2,19,1.3,51.650,M,-12.686,M,4.0,0137*5E
$GPGGA,092911.00,3030.66978679,N,11424.06724154,E,2,19,1.3,51.607,M,-12.686,M,5.0,0137*51
$GPGGA,092912.00,3030.66979285,N,11424.06722211,E,2,19,1.3,51.559,M,-12.686,M,6.0,0137*5B
$GPGGA,092913.00,3030.66979993,N,11424.06721082,E,2,19,1.3,51.529,M,-12.686,M,7.0,0137*5B
$GPGGA,092914.00,3030.66980555,N,11424.06719197,E,2,19,1.3,51.486,M,-12.686,M,7.0,0137*56
$GPGGA,092915.00,3030.66981091,N,11424.06717578,E,2,19,1.3,51.448,M,-12.686,M,3.0,0137*56
$GPGGA,092916.00,3030.66981805,N,11424.06716272,E,2,18,1.4,51.418,M,-12.686,M,4.0,0137*58
$GPGGA,092917.00,3030.66982473,N,11424.06714780,E,2,17,1.7,51.380,M,-12.686,M,5.0,0137*56
$GPGGA,092918.00,3030.66982997,N,11424.06713679,E,2,17,1.7,51.350,M,-12.686,M,6.0,0137*50
$GPGGA,092919.00,3030.66983613,N,11424.06712283,E,2,17,1.7,51.313,M,-12.686,M,7.0,0137*55
$GPGGA,092920.00,3030.66984258,N,11424.06711337,E,2,17,1.7,51.284,M,-12.686,M,7.0,0137*51
$GPGGA,092921.00,3030.66984993,N,11424.06709421,E,2,17,1.7,51.235,M,-12.686,M,3.0,0137*5B
$GPGGA,092922.00,3030.66985692,N,11424.06707810,E,2,17,1.7,51.195,M,-12.686,M,4.0,0137*59
$GPGGA,092923.00,3030.66986470,N,11424.06706489,E,2,17,1.7,51.159,M,-12.686,M,5.0,0137*59
$GPGGA,092924.00,3030.66987275,N,11424.06705674,E,2,17,1.7,51.135,M,-12.686,M,6.0,0137*56
$GPGGA,092925.00,3030.66987416,N,11424.06704736,E,2,17,1.7,51.124,M,-12.686,M,7.0,0137*53
$GPGGA,092926.00,3030.66987432,N,11424.06703825,E,2,17,1.7,51.110,M,-12.686,M,7.0,0137*5B
$GPGGA,092927.00,3030.66987477,N,11424.06702788,E,2,17,1.7,51.098,M,-12.686,M,3.0,0137*57
$GPGGA,092928.00,3030.66987329,N,11424.06702005,E,2,17,1.7,51.091,M,-12.686,M,4.0,0137*58
$GPGGA,092929.00,3030.66987012,N,11424.06700852,E,2,17,1.7,51.071,M,-12.686,M,5.0,0137*55
$GPGGA,092930.00,3030.66986949,N,11424.06700404,E,2,17,1.7,51.065,M,-12.686,M,6.0,0137*52
$GPGGA,092931.00,3030.66986983,N,11424.06699197,E,2,17,1.7,51.042,M,-12.686,M,7.0,0137*5F
$GPGGA,092932.00,3030.66986914,N,11424.06698314,E,2,17,1.7,51.026,M,-12.686,M,7.0,0137*58
$GPGGA,092933.00,3030.66986734,N,11424.06696993,E,2,16,1.7,51.007,M,-12.686,M,3.0,0137*58
$GPGGA,092934.00,3030.66986616,N,11424.06696719,E,2,16,1.7,51.000,M,-12.686,M,4.0,0137*52
$GPGGA,092935.00,3030.66986602,N,11424.06696715,E,2,16,1.7,51.000,M,-12.686,M,5.0,0137*5B
$GPGGA,092936.00,3030.66986481,N,11424.06695904,E,2,16,1.7,50.986,M,-12.686,M,6.0,0137*59
$GPGGA,092937.00,3030.66986266,N,11424.06694253,E,2,16,1.7,50.960,M,-12.686,M,7.0,0137*56
$GPGGA,092938.00,3030.66986182,N,11424.06693987,E,2,16,1.7,50.958,M,-12.686,M,7.0,0137*5E
$GPGGA,092939.00,3030.66986097,N,11424.06694164,E,2,16,1.7,50.961,M,-12.686,M,3.0,0137*56
$GPGGA,092940.00,3030.66985833,N,11424.06693287,E,2,16,1.7,50.950,M,-12.686,M,4.0,0137*51
$GPGGA,092941.00,3030.66985573,N,11424.06692290,E,2,16,1.7,50.936,M,-12.686,M,5.0,0137*5F
$GPGGA,092942.00,3030.66985455,N,11424.06692538,E,2,16,1.7,50.939,M,-12.686,M,6.0,0137*50
$GPGGA,092943.00,3030.66985290,N,11424.06692581,E,2,16,1.7,50.941,M,-12.686,M,7.0,0137*52
$GPGGA,092944.00,3030.66985180,N,11424.06691584,E,2,16,1.7,50.928,M,-12.686,M,7.0,0137*5E
$GPGGA,092945.00,3030.66985061,N,11424.06691656,E,2,16,1.7,50.933,M,-12.686,M,3.0,0137*53
$GPGGA,092946.00,3030.66984830,N,11424.06691954,E,2,16,1.7,50.944,M,-12.686,M,4.0,0137*57
$GPGGA,092947.00,3030.66984787,N,11424.06692449,E,2,16,1.7,50.958,M,-12.686,M,5.0,0137*5B
$GPGGA,092948.00,3030.66984595,N,11424.06691669,E,2,16,1.7,50.947,M,-12.686,M,6.0,0137*5B
$GPGGA,092949.00,3030.66984564,N,11424.06691114,E,2,16,1.7,50.940,M,-12.686,M,7.0,0137*5F
$GPGGA,092950.00,3030.66984535,N,11424.06691235,E,2,16,1.7,50.946,M,-12.686,M,7.0,0137*55
$GPGGA,092951.00,3030.66984467,N,11424.06691979,E,2,16,1.7,50.965,M,-12.686,M,3.0,0137*54
$GPGGA,092952.00,3030.66984476,N,11424.06692777,E,2,16,1.7,50.985,M,-12.686,M,4.0,0137*5D
$GPGGA,092953.00,3030.66984493,N,11424.06693508,E,2,16,1.7,51.002,M,-12.686,M,5.0,0137*5A
$GPGGA,092954.00,3030.66984574,N,11424.06693667,E,2,16,1.7,51.008,M,-12.686,M,6.0,0137*56
$GPGGA,092955.00,3030.66984570,N,11424.06694380,E,2,16,1.7,51.026,M,-12.686,M,7.0,0137*55
$GPGGA,092956.00,3030.66984550,N,11424.06694657,E,2,16,1.7,51.036,M,-12.686,M,7.0,0137*5A
$GPGGA,092957.00,3030.66984498,N,11424.06694991,E,2,16,1.7,51.045,M,-12.686,M,3.0,0137*5B
$GPGGA,092958.00,3030.66984515,N,11424.06695299,E,2,16,1.7,51.059,M,-12.686,M,4.0,0137*58
$GPGGA,092959.00,3030.66984466,N,11424.06694843,E,2,16,1.7,51.057,M,-12.686,M,5.0,0137*5F
$GPGGA,093000.00,3030.66984209,N,11424.06693768,E,2,16,1.7,51.042,M,-12.686,M,6.0,0137*52
$GPGGA,093001.00,3030.66984132,N,11424.06693317,E,2,16,1.7,51.038,M,-12.686,M,7.0,0137*58
$GPGGA,093002.00,3030.66984177,N,11424.06692699,E,2,16,1.7,51.031,M,-12.686,M,7.0,0137*51
$GPGGA,093003.00,3030.66984276,N,11424.06692950,E,2,16,1.7,51.040,M,-12.686,M,3.0,0137*5A
$GPGGA,093004.00,3030.66984452,N,11424.06692262,E,2,16,1.7,51.033,M,-12.686,M,4.0,0137*54
$GPGGA,093005.00,3030.66984491,N,11424.06692113,E,2,15,2.1,51.031,M,-12.686,M,5.0,0137*5A
$GPGGA,093006.00,3030.66984533,N,11424.06691578,E,2,15,2.1,51.028,M,-12.686,M,6.0,0137*51
$GPGGA,093007.00,3030.66984506,N,11424.06691240,E,2,15,2.1,51.027,M,-12.686,M,7.0,0137*54
$GPGGA,093008.00,3030.66984455,N,11424.06690464,E,2,15,2.1,51.024,M,-12.686,M,7.0,0137*5E
$GPGGA,093009.00,3030.66984533,N,11424.06690126,E,2,16,2.0,51.026,M,-12.686,M,3.0,0137*59
$GPGGA,093010.00,3030.66984620,N,11424.06690520,E,2,16,2.0,51.042,M,-12.686,M,4.0,0137*57
$GPGGA,093011.00,3030.66984628,N,11424.06690537,E,2,15,2.1,51.051,M,-12.686,M,5.0,0137*59
$GPGGA,093012.00,3030.66984757,N,11424.06690886,E,2,16,2.0,51.067,M,-12.686,M,6.0,0137*50
$GPGGA,093013.00,3030.66984818,N,11424.06690055,E,2,15,2.1,51.060,M,-12.686,M,7.0,0137*57
$GPGGA,093014.00,3030.66984714,N,11424.06689679,E,2,16,2.0,51.067,M,-12.686,M,7.0,0137*56
$GPGGA,093015.00,3030.66984829,N,11424.06689271,E,2,16,2.0,51.071,M,-12.686,M,3.0,0137*59
$GPGGA,093016.00,3030.66985044,N,11424.06689757,E,2,15,2.1,51.091,M,-12.686,M,4.0,0137*52
$GPGGA,093017.00,3030.66985029,N,11424.06688402,E,2,16,2.0,51.078,M,-12.686,M,5.0,0137*5E
$GPGGA,093018.00,3030.66984989,N,11424.06687831,E,2,15,2.1,51.079,M,-12.686,M,6.0,0137*50
$GPGGA,093019.00,3030.66985070,N,11424.06687438,E,2,16,2.0,51.079,M,-12.686,M,7.0,0137*59
$GPGGA,093020.00,3030.66985007,N,11424.06687406,E,2,16,2.0,51.088,M,-12.686,M,7.0,0137*50
$GPGGA,093021.00,3030.66985162,N,11424.06687835,E,2,15,2.1,51.111,M,-12.686,M,3.0,0137*58
$GPGGA,093022.00,3030.66985169,N,11424.06687927,E,2,16,2.0,51.122,M,-12.686,M,4.0,0137*57
$GPGGA,093023.00,3030.66985370,N,11424.06688397,E,2,15,2.1,51.138,M,-12.686,M,5.0,0137*5A
$GPGGA,093024.00,3030.66985462,N,11424.06689045,E,2,16,2.0,51.162,M,-12.686,M,6.0,0137*5A
$GPGGA,093025.00,3030.66985190,N,11424.06690176,E,2,16,2.0,51.192,M,-12.686,M,7.0,0137*54
$GPGGA,093026.00,3030.66984628,N,11424.06693367,E,2,15,2.1,51.264,M,-12.686,M,7.0,0137*5B
$GPGGA,093027.00,3030.66984116,N,11424.06696142,E,2,16,2.0,51.327,M,-12.686,M,3.0,0137*50
$GPGGA,093028.00,3030.66983551,N,11424.06697314,E,2,15,2.1,51.362,M,-12.686,M,4.0,0137*5B
$GPGGA,093029.00,3030.66983002,N,11424.06698820,E,2,16,2.1,51.399,M,-12.686,M,5.0,0137*5C
$GPGGA,093030.00,3030.66982488,N,11424.06700224,E,2,16,2.0,51.439,M,-12.686,M,6.0,0137*52
$GPGGA,093031.00,3030.66982296,N,11424.06702535,E,2,16,2.0,51.485,M,-12.686,M,7.0,0137*59
$GPGGA,093032.00,3030.66982115,N,11424.06704098,E,2,16,2.0,51.521,M,-12.686,M,7.0,0137*59
$GPGGA,093033.00,3030.66981946,N,11424.06705230,E,2,17,2.0,51.550,M,-12.686,M,0.0,0137*54
$GPGGA,093034.00,3030.66964831,N,11424.06715803,E,2,18,1.4,52.304,M,-12.686,M,4.0,0137*5A
$GPGGA,093035.00,3030.66964309,N,11424.06704866,E,2,18,1.4,52.084,M,-12.686,M,5.0,0137*52
$GPGGA,093036.00,3030.66965050,N,11424.06699985,E,2,18,1.4,51.965,M,-12.686,M,6.0,0137*50
$GPGGA,093037.00,3030.66966122,N,11424.06696922,E,2,18,1.4,51.879,M,-12.686,M,7.0,0137*59
$GPGGA,093038.00,3030.66966820,N,11424.06693842,E,2,18,1.4,51.801,M,-12.686,M,7.0,0137*50
$GPGGA,093039.00,3030.66967657,N,11424.06691076,E,2,18,1.4,51.727,M,-12.686,M,3.0,0137*5C
$GPGGA,093040.00,3030.66968831,N,11424.06689822,E,2,18,1.4,51.683,M,-12.686,M,4.0,0137*5B
$GPGGA,093041.00,3030.66969890,N,11424.06688388,E,2,18,1.4,51.634,M,-12.686,M,5.0,0137*57
$GPGGA,093042.00,3030.66970840,N,11424.06685903,E,2,18,1.4,51.564,M,-12.686,M,6.0,0137*50
$GPGGA,093043.00,3030.66971798,N,11424.06684607,E,2,18,1.4,51.522,M,-12.686,M,7.0,0137*53
$GPGGA,093044.00,3030.66972997,N,11424.06683607,E,2,18,1.4,51.480,M,-12.686,M,7.0,0137*58
$GPGGA,093045.00,3030.66973999,N,11424.06683074,E,2,18,1.4,51.449,M,-12.686,M,3.0,0137*55
$GPGGA,093046.00,3030.66974955,N,11424.06682314,E,2,17,1.4,51.415,M,-12.686,M,4.0,0137*54
$GPGGA,093047.00,3030.66975924,N,11424.06681686,E,2,17,1.4,51.380,M,-12.686,M,5.0,0137*55
$GPGGA,093048.00,3030.66976979,N,11424.06681436,E,2,17,1.4,51.356,M,-12.686,M,6.0,0137*50
$GPGGA,093049.00,3030.66977947,N,11424.06681148,E,2,18,1.3,51.330,M,-12.686,M,7.0,0137*58
$GPGGA,093050.00,3030.66978963,N,11424.06680600,E,2,18,1.3,51.301,M,-12.686,M,7.0,0137*51
$GPGGA,093051.00,3030.66980110,N,11424.06680185,E,2,18,1.3,51.276,M,-12.686,M,3.0,0137*54
$GPGGA,093052.00,3030.66981311,N,11424.06679930,E,2,18,1.3,51.254,M,-12.686,M,4.0,0137*52
$GPGGA,093053.00,3030.66982517,N,11424.06679874,E,2,19,1.3,51.230,M,-12.686,M,5.0,0137*53
$GPGGA,093054.00,3030.66983744,N,11424.06679491,E,2,19,1.3,51.199,M,-12.686,M,6.0,0137*55
$GPGGA,093055.00,3030.66984856,N,11424.06679361,E,2,19,1.3,51.172,M,-12.686,M,7.0,0137*53
$GPGGA,093056.00,3030.66986214,N,11424.06679214,E,2,19,1.3,51.143,M,-12.686,M,7.0,0137*5F
$GPGGA,093057.00,3030.66987265,N,11424.06679169,E,2,19,1.3,51.122,M,-12.686,M,3.0,0137*53
$GPGGA,093058.00,3030.66988207,N,11424.06679587,E,2,19,1.3,51.113,M,-12.686,M,4.0,0137*56
$GPGGA,093059.00,3030.66989452,N,11424.06679774,E,2,19,1.3,51.093,M,-12.686,M,5.0,0137*56
$GPGGA,093100.00,3030.66990335,N,11424.06680545,E,2,19,1.3,51.087,M,-12.686,M,6.0,0137*55
$GPGGA,093101.00,3030.66991365,N,11424.06681369,E,2,20,1.3,51.080,M,-12.686,M,7.0,0137*55
$GPGGA,093102.00,3030.66992559,N,11424.06682211,E,2,20,1.3,51.074,M,-12.686,M,7.0,0137*5A
$GPGGA,093103.00,3030.66993674,N,11424.06682460,E,2,20,1.3,51.059,M,-12.686,M,3.0,0137*5D
$GPGGA,093104.00,3030.66994667,N,11424.06682691,E,2,19,1.3,51.046,M,-12.686,M,4.0,0137*50
$GPGGA,093105.00,3030.66995933,N,11424.06683129,E,2,20,1.3,51.031,M,-12.686,M,5.0,0137*50
$GPGGA,093106.00,3030.66997131,N,11424.06683883,E,2,20,1.3,51.019,M,-12.686,M,6.0,0137*5B
$GPGGA,093107.00,3030.66998164,N,11424.06684231,E,2,19,1.3,51.012,M,-12.686,M,7.0,0137*51
$GPGGA,093108.00,3030.66999090,N,11424.06684450,E,2,20,1.3,50.997,M,-12.686,M,7.0,0137*5B
$GPGGA,093109.00,3030.67000195,N,11424.06685511,E,2,20,1.3,51.000,M,-12.686,M,3.0,0137*51
$GPGGA,093110.00,3030.67001167,N,11424.06686101,E,2,19,1.3,50.992,M,-12.686,M,4.0,0137*5D
$GPGGA,093111.00,3030.67002201,N,11424.06686791,E,2,19,1.3,50.987,M,-12.686,M,5.0,0137*56
$GPGGA,093112.00,3030.67003374,N,11424.06687361,E,2,20,1.3,50.976,M,-12.686,M,6.0,0137*5A
$GPGGA,093113.00,3030.67004472,N,11424.06687962,E,2,20,1.3,50.972,M,-12.686,M,7.0,0137*51
$GPGGA,093114.00,3030.67005529,N,11424.06688715,E,2,19,1.3,50.969,M,-12.686,M,7.0,0137*59
$GPGGA,093115.00,3030.67006619,N,11424.06689427,E,2,20,1.3,50.959,M,-12.686,M,3.0,0137*55
$GPGGA,093116.00,3030.67007768,N,11424.06689611,E,2,20,1.3,50.942,M,-12.686,M,4.0,0137*5A
$GPGGA,093117.00,3030.67008658,N,11424.06690221,E,2,20,1.3,50.936,M,-12.686,M,5.0,0137*5B
$GPGGA,093118.00,3030.67009536,N,11424.06690510,E,2,21,1.2,50.926,M,-12.686,M,6.0,0137*59
$GPGGA,093119.00,3030.67010541,N,11424.06691077,E,2,20,1.3,50.915,M,-12.686,M,7.0,0137*54
$GPGGA,093120.00,3030.67011534,N,11424.06691812,E,2,21,1.2,50.904,M,-12.686,M,7.0,0137*56
$GPGGA,093121.00,3030.67012564,N,11424.06691919,E,2,19,1.3,50.886,M,-12.686,M,3.0,0137*5E
$GPGGA,093122.00,3030.67013674,N,11424.06691863,E,2,21,1.2,50.866,M,-12.686,M,4.0,0137*51
$GPGGA,093123.00,3030.67014503,N,11424.06691542,E,2,21,1.2,50.839,M,-12.686,M,5.0,0137*51
$GPGGA,093124.00,3030.67015672,N,11424.06692079,E,2,19,1.3,50.824,M,-12.686,M,6.0,0137*59
$GPGGA,093125.00,3030.67016684,N,11424.06692988,E,2,21,1.2,50.817,M,-12.686,M,7.0,0137*5E
$GPGGA,093126.00,3030.67017878,N,11424.06693809,E,2,21,1.2,50.810,M,-12.686,M,7.0,0137*5F
$GPGGA,093127.00,3030.67019016,N,11424.06694451,E,2,19,1.3,50.799,M,-12.686,M,3.0,0137*56
$GPGGA,093128.00,3030.67020005,N,11424.06694759,E,2,20,1.2,50.784,M,-12.686,M,4.0,0137*5A
$GPGGA,093129.00,3030.67020953,N,11424.06695005,E,2,19,1.3,50.773,M,-12.686,M,5.0,0137*5C
$GPGGA,093130.00,3030.67021755,N,11424.06695438,E,2,20,1.3,50.767,M,-12.686,M,6.0,0137*5B
$GPGGA,093131.00,3030.66978212,N,11424.06772299,E,1,19,1.3,53.172,M,-12.686,M,,*78
$GPGGA,093132.00,3030.66985061,N,11424.06783090,E,2,20,1.3,53.331,M,-12.686,M,7.0,0137*5A
$GPGGA,093133.00,3030.66991658,N,11424.06785441,E,2,20,1.3,53.308,M,-12.686,M,3.0,0137*52
$GPGGA,093134.00,3030.66997240,N,11424.06787361,E,2,20,1.3,53.272,M,-12.686,M,4.0,0137*52
$GPGGA,093135.00,3030.67002045,N,11424.06788087,E,2,20,1.3,53.216,M,-12.686,M,5.0,0137*57
$GPGGA,093136.00,3030.67006674,N,11424.06790071,E,2,20,1.3,53.178,M,-12.686,M,6.0,0137*5C
$GPGGA,093137.00,3030.67010450,N,11424.06790172,E,2,20,1.3,53.114,M,-12.686,M,7.0,0137*57
$GPGGA,093138.00,3030.67013504,N,11424.06789438,E,2,20,1.3,53.040,M,-12.686,M,7.0,0137*58
$GPGGA,093139.00,3030.67016576,N,11424.06788459,E,2,20,1.3,52.961,M,-12.686,M,3.0,0137*50
$GPGGA,093140.00,3030.67019437,N,11424.06787487,E,2,20,1.3,52.884,M,-12.686,M,4.0,0137*54
$GPGGA,093141.00,3030.67021667,N,11424.06785593,E,2,20,1.3,52.800,M,-12.686,M,5.0,0137*52
$GPGGA,093142.00,3030.67023326,N,11424.06782874,E,2,20,1.3,52.705,M,-12.686,M,6.0,0137*59
$GPGGA,093143.00,3030.67024933,N,11424.06780843,E,2,20,1.3,52.625,M,-12.686,M,7.0,0137*55
$GPGGA,093144.00,3030.67026440,N,11424.06778919,E,2,20,1.3,52.552,M,-12.686,M,7.0,0137*53
$GPGGA,093145.00,3030.67027839,N,11424.06776836,E,2,20,1.3,52.477,M,-12.686,M,3.0,0137*51
$GPGGA,093146.00,3030.67029404,N,11424.06775469,E,2,20,1.3,52.413,M,-12.686,M,4.0,0137*5E
$GPGGA,093147.00,3030.67030743,N,11424.06773003,E,2,20,1.3,52.337,M,-12.686,M,5.0,0137*59
$GPGGA,093148.00,3030.67031677,N,11424.06771550,E,2,20,1.3,52.282,M,-12.686,M,6.0,0137*5C
$GPGGA,093149.00,3030.67032513,N,11424.06769912,E,2,20,1.3,52.226,M,-12.686,M,7.0,0137*53
$GPGGA,093150.00,3030.67033636,N,11424.06769212,E,2,20,1.3,52.178,M,-12.686,M,7.0,0137*5D
$GPGGA,093151.00,3030.67034559,N,11424.06767580,E,2,20,1.3,52.124,M,-12.686,M,3.0,0137*5E
$GPGGA,093152.00,3030.67035529,N,11424.06766308,E,2,20,1.3,52.071,M,-12.686,M,4.0,0137*5A
$GPGGA,093153.00,3030.67036271,N,11424.06764833,E,2,20,1.3,52.021,M,-12.686,M,5.0,0137*57
$GPGGA,093154.00,3030.67037105,N,11424.06763980,E,2,20,1.3,51.979,M,-12.686,M,6.0,0137*5B
$GPGGA,093155.00,3030.67037718,N,11424.06762405,E,2,20,1.3,51.929,M,-12.686,M,7.0,0137*55
$GPGGA,093156.00,3030.67038206,N,11424.06761078,E,2,20,1.3,51.884,M,-12.686,M,7.0,0137*58
$GPGGA,093157.00,3030.67038659,N,11424.06759800,E,2,20,1.3,51.844,M,-12.686,M,3.0,0137*53
$GPGGA,093158.00,3030.67039085,N,11424.06758615,E,2,20,1.3,51.804,M,-12.686,M,4.0,0137*52
$GPGGA,093159.00,3030.67039361,N,11424.06757117,E,2,20,1.3,51.756,M,-12.686,M,5.0,0137*59
$GPGGA,093200.00,3030.67039776,N,11424.06755942,E,2,20,1.3,51.715,M,-12.686,M,6.0,0137*5A
$GPGGA,093201.00,3030.67040175,N,11424.06755159,E,2,21,1.2,51.687,M,-12.686,M,7.0,0137*59
$GPGGA,093202.00,3030.67040473,N,11424.06753939,E,2,21,1.2,51.651,M,-12.686,M,7.0,0137*5A
$GPGGA,093203.00,3030.67040740,N,11424.06752970,E,2,21,1.2,51.617,M,-12.686,M,3.0,0137*52
$GPGGA,093204.00,3030.67040821,N,11424.06752356,E,2,21,1.2,51.597,M,-12.686,M,4.0,0137*5F
$GPGGA,093205.00,3030.67040983,N,11424.06752078,E,2,21,1.2,51.582,M,-12.686,M,5.0,0137*5D
$GPGGA,093206.00,3030.67041221,N,11424.06751581,E,2,21,1.2,51.563,M,-12.686,M,6.0,0137*50
$GPGGA,093207.00,3030.67041499,N,11424.06750836,E,2,21,1.2,51.537,M,-12.686,M,7.0,0137*54
$GPGGA,093208.00,3030.67041525,N,11424.06750350,E,2,21,1.2,51.520,M,-12.686,M,7.0,0137*50
$GPGGA,093209.00,3030.67041631,N,11424.06749797,E,2,21,1.2,51.501,M,-12.686,M,3.0,0137*57
$GPGGA,093210.00,3030.67041993,N,11424.06749366,E,2,21,1.2,51.487,M,-12.686,M,4.0,0137*5A
$GPGGA,093211.00,3030.67042218,N,11424.06749085,E,2,22,0.7,51.472,M,-12.686,M,5.0,0137*52
$GPGGA,093212.00,3030.67042391,N,11424.06749442,E,2,22,0.7,51.473,M,-12.686,M,6.0,0137*5C
$GPGGA,093213.00,3030.67042700,N,11424.06749329,E,2,22,0.7,51.468,M,-12.686,M,7.0,0137*50
$GPGGA,093214.00,3030.67042766,N,11424.06748926,E,2,22,0.7,51.457,M,-12.686,M,7.0,0137*5F
$GPGGA,093215.00,3030.67042788,N,11424.06748866,E,2,22,0.7,51.451,M,-12.686,M,3.0,0137*59
$GPGGA,093216.00,3030.67042987,N,11424.06748896,E,2,22,0.7,51.444,M,-12.686,M,4.0,0137*57
$GPGGA,093217.00,3030.67043111,N,11424.06748511,E,2,22,0.7,51.433,M,-12.686,M,5.0,0137*53
$GPGGA,093218.00,3030.67043392,N,11424.06749072,E,2,21,0.7,51.434,M,-12.686,M,6.0,0137*53
$GPGGA,093219.00,3030.67043661,N,11424.06749200,E,2,21,0.7,51.431,M,-12.686,M,7.0,0137*58
$GPGGA,093220.00,3030.67044000,N,11424.06749528,E,2,21,0.7,51.431,M,-12.686,M,7.0,0137*59
$GPGGA,093221.00,3030.67044237,N,11424.06749589,E,2,21,0.7,51.427,M,-12.686,M,3.0,0137*56
$GPGGA,093222.00,3030.67044292,N,11424.06749425,E,2,21,0.7,51.423,M,-12.686,M,4.0,0137*5E
$GPGGA,093223.00,3030.67044493,N,11424.06749508,E,2,21,0.7,51.426,M,-12.686,M,5.0,0137*52
$GPGGA,093224.00,3030.67044661,N,11424.06749712,E,2,21,0.7,51.424,M,-12.686,M,6.0,0137*52
$GPGGA,093225.00,3030.67044805,N,11424.06749802,E,2,21,0.7,51.423,M,-12.686,M,7.0,0137*57
$GPGGA,093226.00,3030.67044872,N,11424.06750044,E,2,21,0.7,51.424,M,-12.686,M,7.0,0137*51
$GPGGA,093227.00,3030.67045007,N,11424.06750525,E,2,21,0.7,51.429,M,-12.686,M,3.0,0137*50
$GPGGA,093228.00,3030.67044995,N,11424.06751045,E,2,21,0.7,51.436,M,-12.686,M,4.0,0137*57
$GPGGA,093229.00,3030.67044969,N,11424.06751103,E,2,21,0.7,51.435,M,-12.686,M,5.0,0137*54
$GPGGA,093230.00,3030.67045234,N,11424.06751185,E,2,21,0.7,51.435,M,-12.686,M,6.0,0137*53
$GPGGA,093231.00,3030.67045241,N,11424.06751586,E,2,21,0.7,51.442,M,-12.686,M,7.0,0137*56
$GPGGA,093232.00,3030.67045437,N,11424.06751768,E,2,21,0.7,51.446,M,-12.686,M,7.0,0137*54
$GPGGA,093233.00,3030.67045341,N,11424.06752067,E,2,21,0.7,51.452,M,-12.686,M,3.0,0137*59
$GPGGA,093234.00,3030.67045342,N,11424.06752790,E,2,21,0.7,51.461,M,-12.686,M,4.0,0137*55
$GPGGA,093235.00,3030.67045472,N,11424.06753011,E,2,21,0.7,51.464,M,-12.686,M,5.0,0137*5B
$GPGGA,093236.00,3030.67045577,N,11424.06753312,E,2,21,0.7,51.468,M,-12.686,M,6.0,0137*53
$GPGGA,093237.00,3030.67045727,N,11424.06753402,E,2,21,0.7,51.469,M,-12.686,M,7.0,0137*53
$GPGGA,093238.00,3030.67045755,N,11424.06753499,E,2,21,0.7,51.473,M,-12.686,M,7.0,0137*50
$GPGGA,093239.00,3030.67045862,N,11424.06753771,E,2,21,0.7,51.472,M,-12.686,M,3.0,0137*5A
$GPGGA,093240.00,3030.67045843,N,11424.06753803,E,2,21,0.7,51.470,M,-12.686,M,4.0,0137*58
$GPGGA,093241.00,3030.67045848,N,11424.06753800,E,2,21,0.7,51.465,M,-12.686,M,5.0,0137*54
$GPGGA,093242.00,3030.67045888,N,11424.06754344,E,2,22,0.7,51.472,M,-12.686,M,6.0,0137*51
$GPGGA,093243.00,3030.67045844,N,11424.06754845,E,2,21,0.7,51.477,M,-12.686,M,7.0,0137*5D
$GPGGA,093244.00,3030.67045769,N,11424.06755019,E,2,22,0.7,51.478,M,-12.686,M,7.0,0137*56
$GPGGA,093245.00,3030.67045677,N,11424.06755511,E,2,22,0.7,51.482,M,-12.686,M,3.0,0137*55
$GPGGA,093246.00,3030.67045792,N,11424.06756020,E,2,21,0.7,51.489,M,-12.686,M,4.0,0137*57
$GPGGA,093247.00,3030.67045835,N,11424.06756140,E,2,22,0.7,51.488,M,-12.686,M,5.0,0137*50
$GPGGA,093248.00,3030.67045850,N,11424.06756631,E,2,21,0.7,51.502,M,-12.686,M,6.0,0137*5E
$GPGGA,093249.00,3030.67045663,N,11424.06756677,E,2,21,0.7,51.505,M,-12.686,M,7.0,0137*55
$GPGGA,093250.00,3030.67045651,N,11424.06757033,E,2,22,0.7,51.512,M,-12.686,M,7.0,0137*5E
$GPGGA,093251.00,3030.67045712,N,11424.06757266,E,2,21,0.7,51.519,M,-12.686,M,3.0,0137*57
$GPGGA,093252.00,3030.67045763,N,11424.06757464,E,2,22,0.7,51.518,M,-12.686,M,4.0,0137*53
$GPGGA,093253.00,3030.67045753,N,11424.06758343,E,2,22,0.7,51.533,M,-12.686,M,5.0,0137*54
$GPGGA,093254.00,3030.67045559,N,11424.06758517,E,2,21,0.7,51.537,M,-12.686,M,6.0,0137*58
$GPGGA,093255.00,3030.67045359,N,11424.06758230,E,2,22,0.7,51.536,M,-12.686,M,7.0,0137*5E
$GPGGA,093256.00,3030.67045297,N,11424.06758365,E,2,21,0.7,51.542,M,-12.686,M,7.0,0137*5F
$GPGGA,093257.00,3030.67045227,N,11424.06758469,E,2,22,0.7,51.545,M,-12.686,M,3.0,0137*5E
$GPGGA,093258.00,3030.67045185,N,11424.06758931,E,2,22,0.7,51.555,M,-12.686,M,4.0,0137*5C
$GPGGA,093259.00,3030.67045218,N,11424.06759472,E,2,21,0.7,51.564,M,-12.686,M,5.0,0137*51
$GPGGA,093300.00,3030.67045155,N,11424.06759740,E,2,22,0.7,51.570,M,-12.686,M,6.0,0137*51
$GPGGA,093301.00,3030.67045205,N,11424.06759887,E,2,21,0.7,51.580,M,-12.686,M,7.0,0137*5F
$GPGGA,093302.00,3030.67045291,N,11424.06760648,E,2,22,0.7,51.592,M,-12.686,M,7.0,0137*56
$GPGGA,093303.00,3030.67045402,N,11424.06761125,E,2,22,0.7,51.599,M,-12.686,M,3.0,0137*59
$GPGGA,093304.00,3030.67045552,N,11424.06761909,E,2,21,0.7,51.613,M,-12.686,M,4.0,0137*59
$GPGGA,093305.00,3030.67045501,N,11424.06762058,E,2,22,0.7,51.617,M,-12.686,M,5.0,0137*56
$GPGGA,093306.00,3030.67045422,N,11424.06762166,E,2,21,0.7,51.620,M,-12.686,M,6.0,0137*5D
$GPGGA,093307.00,3030.67045622,N,11424.06761989,E,2,22,0.7,51.620,M,-12.686,M,7.0,0137*56
$GPGGA,093308.00,3030.67045651,N,11424.06762409,E,2,22,0.7,51.633,M,-12.686,M,7.0,0137*59
$GPGGA,093309.00,3030.67045598,N,11424.06762841,E,2,21,0.7,51.643,M,-12.686,M,3.0,0137*5E
$GPGGA,093310.00,3030.67045636,N,11424.06763251,E,2,22,0.7,51.653,M,-12.686,M,4.0,0137*5E
$GPGGA,093311.00,3030.67045803,N,11424.06763182,E,2,21,0.7,51.655,M,-12.686,M,5.0,0137*5E
$GPGGA,093312.00,3030.67045839,N,11424.06763525,E,2,22,0.7,51.661,M,-12.686,M,6.0,0137*5A
$GPGGA,093313.00,3030.67045941,N,11424.06764175,E,2,22,0.7,51.673,M,-12.686,M,7.0,0137*51
$GPGGA,093314.00,3030.67046078,N,11424.06764172,E,2,21,0.7,51.668,M,-12.686,M,7.0,0137*58
$GPGGA,093315.00,3030.67046011,N,11424.06763881,E,2,21,0.7,51.670,M,-12.686,M,3.0,0137*59
$GPGGA,093316.00,3030.67046122,N,11424.06763209,E,2,21,0.7,51.655,M,-12.686,M,4.0,0137*51
$GPGGA,093317.00,3030.67046155,N,11424.06763117,E,2,21,0.7,51.656,M,-12.686,M,5.0,0137*5E
$GPGGA,093318.00,3030.67046158,N,11424.06763380,E,2,21,0.7,51.661,M,-12.686,M,6.0,0137*57
$GPGGA,093319.00,3030.67046377,N,11424.06763870,E,2,21,0.7,51.668,M,-12.686,M,7.0,0137*55
$GPGGA,093320.00,3030.67046576,N,11424.06763707,E,2,21,0.7,51.665,M,-12.686,M,7.0,0137*5A
$GPGGA,093321.00,3030.67046506,N,11424.06763068,E,2,20,0.7,51.658,M,-12.686,M,3.0,0137*59
$GPGGA,093322.00,3030.67046731,N,11424.06762067,E,2,19,1.3,51.634,M,-12.686,M,4.0,0137*50
$GPGGA,093323.00,3030.67046811,N,11424.06761930,E,2,19,1.3,51.635,M,-12.686,M,5.0,0137*54
$GPGGA,093324.00,3030.67046917,N,11424.06761871,E,2,19,1.3,51.636,M,-12.686,M,6.0,0137*50
$GPGGA,093325.00,3030.67046900,N,11424.06761103,E,2,19,1.3,51.624,M,-12.686,M,7.0,0137*59
$GPGGA,093326.00,3030.67046928,N,11424.06760497,E,2,19,1.3,51.616,M,-12.686,M,7.0,0137*58
$GPGGA,093327.00,3030.67046925,N,11424.06759857,E,2,19,1.3,51.608,M,-12.686,M,3.0,0137*55
$GPGGA,093328.00,3030.67046849,N,11424.06759153,E,2,19,1.3,51.602,M,-12.686,M,4.0,0137*51
$GPGGA,093329.00,3030.67046652,N,11424.06757791,E,2,19,1.3,51.587,M,-12.686,M,5.0,0137*5D
$GPGGA,093330.00,3030.67046367,N,11424.06756757,E,2,20,0.7,51.567,M,-12.686,M,6.0,0137*5F
$GPGGA,093331.00,3030.67045999,N,11424.06755176,E,2,20,0.7,51.542,M,-12.686,M,7.0,0137*56
$GPGGA,093332.00,3030.67045773,N,11424.06754325,E,2,20,0.7,51.524,M,-12.686,M,7.0,0137*5A
$GPGGA,093333.00,3030.67045531,N,11424.06754224,E,2,20,0.7,51.519,M,-12.686,M,3.0,0137*55
$GPGGA,093334.00,3030.67045566,N,11424.06753915,E,2,20,0.7,51.509,M,-12.686,M,4.0,0137*58
$GPGGA,093335.00,3030.67045488,N,11424.06753308,E,2,20,0.7,51.496,M,-12.686,M,5.0,0137*58
$GPGGA,093336.00,3030.67045705,N,11424.06752729,E,2,20,0.7,51.480,M,-12.686,M,6.0,0137*5F
$GPGGA,093337.00,3030.67045874,N,11424.06752494,E,2,19,0.7,51.472,M,-12.686,M,7.0,0137*54
$GPGGA,093338.00,3030.67045873,N,11424.06751272,E,2,19,0.7,51.452,M,-12.686,M,7.0,0137*53
$GPGGA,093339.00,3030.67045841,N,11424.06750630,E,2,19,0.7,51.440,M,-12.686,M,3.0,0137*57
$GPGGA,093340.00,3030.67045891,N,11424.06750642,E,2,19,0.7,51.432,M,-12.686,M,4.0,0137*53
$GPGGA,093341.00,3030.67045971,N,11424.06750349,E,2,19,0.7,51.427,M,-12.686,M,5.0,0137*56
$GPGGA,093342.00,3030.67046147,N,11424.06749974,E,2,19,0.7,51.419,M,-12.686,M,6.0,0137*59
$GPGGA,093343.00,3030.67046224,N,11424.06749826,E,2,19,0.7,51.416,M,-12.686,M,7.0,0137*56
$GPGGA,093344.00,3030.67046357,N,11424.06749542,E,2,19,0.7,51.409,M,-12.686,M,7.0,0137*55
$GPGGA,093345.00,3030.67046614,N,11424.06749499,E,2,19,0.7,51.407,M,-12.686,M,3.0,0137*5B
$GPGGA,093346.00,3030.67046820,N,11424.06749246,E,2,19,0.7,51.397,M,-12.686,M,4.0,0137*5C
$GPGGA,093347.00,3030.67047021,N,11424.06749682,E,2,19,0.7,51.400,M,-12.686,M,5.0,0137*51
$GPGGA,093348.00,3030.67047104,N,11424.06749559,E,2,19,0.7,51.395,M,-12.686,M,6.0,0137*55
$GPGGA,093349.00,3030.67047261,N,11424.06749229,E,2,19,0.7,51.389,M,-12.686,M,7.0,0137*58
$GPGGA,093350.00,3030.67047354,N,11424.06749070,E,2,19,0.7,51.387,M,-12.686,M,7.0,0137*57
$GPGGA,093351.00,3030.67047443,N,11424.06749166,E,2,19,0.7,51.388,M,-12.686,M,3.0,0137*5A
$GPGGA,093352.00,3030.67047411,N,11424.06748502,E,2,19,0.7,51.380,M,-12.686,M,4.0,0137*56
$GPGGA,093353.00,3030.67047385,N,11424.06747526,E,2,19,0.7,51.359,M,-12.686,M,5.0,0137*51
$GPGGA,093354.00,3030.67047121,N,11424.06747062,E,2,19,0.7,51.345,M,-12.686,M,6.0,0137*51
$GPGGA,093355.00,3030.67046955,N,11424.06746614,E,2,20,0.7,51.334,M,-12.686,M,7.0,0137*51
$GPGGA,093356.00,3030.67047081,N,11424.06747220,E,2,20,0.7,51.340,M,-12.686,M,7.0,0137*52
$GPGGA,093357.00,3030.67046994,N,11424.06746928,E,2,20,0.7,51.336,M,-12.686,M,3.0,0137*58
$GPGGA,093358.00,3030.67047024,N,11424.06746527,E,2,20,0.7,51.327,M,-12.686,M,4.0,0137*50
$GPGGA,093359.00,3030.67047176,N,11424.06746584,E,2,19,0.7,51.324,M,-12.686,M,5.0,0137*56
$GPGGA,093400.00,3030.67047108,N,11424.06746458,E,2,20,0.7,51.316,M,-12.686,M,6.0,0137*5C
$GPGGA,093401.00,3030.67047007,N,11424.06746225,E,2,20,0.7,51.308,M,-12.686,M,7.0,0137*51
$GPGGA,093402.00,3030.67047020,N,11424.06745862,E,2,19,0.7,51.301,M,-12.686,M,7.0,0137*5E
$GPGGA,093403.00,3030.67047018,N,11424.06745735,E,2,20,0.7,51.295,M,-12.686,M,3.0,0137*5B
$GPGGA,093404.00,3030.67047181,N,11424.06745569,E,2,19,0.7,51.286,M,-12.686,M,4.0,0137*59
$GPGGA,093405.00,3030.67047276,N,11424.06745405,E,2,20,0.7,51.278,M,-12.686,M,5.0,0137*52
$GPGGA,093406.00,3030.67047395,N,11424.06746442,E,2,20,0.7,51.292,M,-12.686,M,6.0,0137*5A
$GPGGA,093407.00,3030.67047655,N,11424.06746559,E,2,19,0.7,51.294,M,-12.686,M,7.0,0137*54
$GPGGA,093408.00,3030.67047912,N,11424.06745792,E,2,20,0.7,51.278,M,-12.686,M,7.0,0137*59
$GPGGA,093409.00,3030.67048093,N,11424.06745249,E,2,19,0.7,51.269,M,-12.686,M,3.0,0137*5A
$GPGGA,093410.00,3030.67048071,N,11424.06745108,E,2,20,0.7,51.263,M,-12.686,M,4.0,0137*5F
$GPGGA,093411.00,3030.67048307,N,11424.06745010,E,2,21,0.7,51.256,M,-12.686,M,5.0,0137*52
$GPGGA,093412.00,3030.67048416,N,11424.06744254,E,2,20,0.7,51.240,M,-12.686,M,6.0,0137*50
$GPGGA,093413.00,3030.67048503,N,11424.06744173,E,2,21,0.7,51.240,M,-12.686,M,7.0,0137*52
$GPGGA,093414.00,3030.67048586,N,11424.06744566,E,2,20,0.7,51.245,M,-12.686,M,7.0,0137*5C
$GPGGA,093415.00,3030.67048692,N,11424.06744565,E,2,20,0.7,51.240,M,-12.686,M,3.0,0137*59
$GPGGA,093416.00,3030.67048902,N,11424.06744840,E,2,21,0.7,51.241,M,-12.686,M,4.0,0137*51
$GPGGA,093417.00,3030.67049083,N,11424.06742893,E,2,20,0.7,51.207,M,-12.686,M,5.0,0137*5B
$GPGGA,093418.00,3030.67049234,N,11424.06742145,E,2,21,0.7,51.192,M,-12.686,M,6.0,0137*55
$GPGGA,093419.00,3030.67049262,N,11424.06742250,E,2,21,0.7,51.188,M,-12.686,M,7.0,0137*5A
$GPGGA,093420.00,3030.67049497,N,11424.06741647,E,2,20,0.7,51.175,M,-12.686,M,7.0,0137*5E
$GPGGA,093421.00,3030.67049753,N,11424.06740959,E,2,20,0.7,51.160,M,-12.686,M,3.0,0137*55
$GPGGA,093422.00,3030.67049840,N,11424.06740356,E,2,20,0.7,51.142,M,-12.686,M,4.0,0137*59
$GPGGA,093423.00,3030.67049992,N,11424.06740357,E,2,20,0.7,51.134,M,-12.686,M,5.0,0137*57
$GPGGA,093424.00,3030.67050196,N,11424.06739730,E,2,20,0.7,51.116,M,-12.686,M,6.0,0137*5C
$GPGGA,093425.00,3030.67050530,N,11424.06740279,E,2,20,0.7,51.117,M,-12.686,M,7.0,0137*53
$GPGGA,093426.00,3030.67050836,N,11424.06740511,E,2,20,0.7,51.115,M,-12.686,M,7.0,0137*50
$GPGGA,093427.00,3030.67051063,N,11424.06740541,E,2,20,0.7,51.113,M,-12.686,M,3.0,0137*5F
$GPGGA,093428.00,3030.67051314,N,11424.06739875,E,2,20,0.7,51.101,M,-12.686,M,4.0,0137*53
$GPGGA,093429.00,3030.67051574,N,11424.06739219,E,2,20,0.7,51.090,M,-12.686,M,5.0,0137*5A
$GPGGA,093430.00,3030.67051887,N,11424.06739064,E,2,20,0.7,51.080,M,-12.686,M,6.0,0137*59
$GPGGA,093431.00,3030.67052195,N,11424.06739018,E,2,20,0.7,51.072,M,-12.686,M,7.0,0137*56
$GPGGA,093432.00,3030.67052362,N,11424.06739871,E,2,20,0.7,51.086,M,-12.686,M,7.0,0137*53
$GPGGA,093433.00,3030.67052565,N,11424.06740106,E,2,20,0.7,51.093,M,-12.686,M,3.0,0137*54
$GPGGA,093434.00,3030.67052637,N,11424.06739621,E,2,20,0.7,51.085,M,-12.686,M,4.0,0137*5B
$GPGGA,093435.00,3030.67052955,N,11424.06739700,E,2,20,0.7,51.082,M,-12.686,M,5.0,0137*55
$GPGGA,093436.00,3030.67053265,N,11424.06740003,E,2,20,0.7,51.084,M,-12.686,M,6.0,0137*50
$GPGGA,093437.00,3030.67053535,N,11424.06740548,E,2,19,0.7,51.091,M,-12.686,M,7.0,0137*56
$GPGGA,093438.00,3030.67053553,N,11424.06740850,E,2,19,0.7,51.098,M,-12.686,M,7.0,0137*54
$GPGGA,093439.00,3030.67053662,N,11424.06741546,E,2,19,0.7,51.110,M,-12.686,M,3.0,0137*5A
$GPGGA,093440.00,3030.67053825,N,11424.06741552,E,2,19,0.7,51.120,M,-12.686,M,4.0,0137*58
$GPGGA,093441.00,3030.67053957,N,11424.06742789,E,2,19,0.7,51.142,M,-12.686,M,5.0,0137*5F
$GPGGA,093442.00,3030.67054280,N,11424.06743713,E,2,19,0.7,51.159,M,-12.686,M,6.0,0137*51
$GPGGA,093443.00,3030.67054521,N,11424.06743892,E,2,19,0.7,51.166,M,-12.686,M,7.0,0137*57
$GPGGA,093444.00,3030.67054663,N,11424.06743744,E,2,19,0.7,51.164,M,-12.686,M,7.0,0137*53
$GPGGA,093445.00,3030.67054767,N,11424.06744921,E,2,19,0.7,51.186,M,-12.686,M,3.0,0137*55
$GPGGA,093446.00,3030.67054990,N,11424.06746240,E,2,19,0.7,51.210,M,-12.686,M,4.0,0137*55
$GPGGA,093447.00,3030.67055256,N,11424.06747509,E,2,19,0.7,51.234,M,-12.686,M,5.0,0137*58
$GPGGA,093448.00,3030.67055494,N,11424.06747867,E,2,19,0.7,51.246,M,-12.686,M,6.0,0137*5C
$GPGGA,093449.00,3030.67055789,N,11424.06749546,E,2,19,0.7,51.275,M,-12.686,M,7.0,0137*53
$GPGGA,093450.00,3030.67056087,N,11424.06750142,E,2,19,0.7,51.286,M,-12.686,M,7.0,0137*55
$GPGGA,093451.00,3030.67056329,N,11424.06751433,E,2,19,0.7,51.310,M,-12.686,M,3.0,0137*5B
$GPGGA,093452.00,3030.67056501,N,11424.06752311,E,2,19,0.7,51.330,M,-12.686,M,4.0,0137*55
$GPGGA,093453.00,3030.67056868,N,11424.06753213,E,2,19,0.7,51.343,M,-12.686,M,5.0,0137*51
$GPGGA,093454.00,3030.67056985,N,11424.06753897,E,2,20,0.7,51.356,M,-12.686,M,6.0,0137*5F
$GPGGA,093455.00,3030.67057251,N,11424.06754973,E,2,20,0.7,51.379,M,-12.686,M,7.0,0137*5D
$GPGGA,093456.00,3030.67057460,N,11424.06756162,E,2,19,0.7,51.400,M,-12.686,M,7.0,0137*53
$GPGGA,093457.00,3030.67057846,N,11424.06757736,E,2,20,0.7,51.432,M,-12.686,M,3.0,0137*53
$GPGGA,093458.00,3030.67058173,N,11424.06758774,E,2,20,0.7,51.453,M,-12.686,M,4.0,0137*55
$GPGGA,093459.00,3030.67058422,N,11424.06759576,E,2,19,0.7,51.469,M,-12.686,M,5.0,0137*56
$GPGGA,093500.00,3030.67058484,N,11424.06760818,E,2,20,0.7,51.493,M,-12.686,M,6.0,0137*54
$GPGGA,093501.00,3030.67058684,N,11424.06762597,E,2,20,0.7,51.522,M,-12.686,M,7.0,0137*55
$GPGGA,093502.00,3030.67059008,N,11424.06763987,E,2,20,0.7,51.549,M,-12.686,M,7.0,0137*54
$GPGGA,093503.00,3030.67059303,N,11424.06765311,E,2,19,0.7,51.573,M,-12.686,M,3.0,0137*59
$GPGGA,093504.00,3030.67059479,N,11424.06765962,E,2,20,0.7,51.589,M,-12.686,M,4.0,0137*52
$GPGGA,093505.00,3030.67059705,N,11424.06767431,E,2,20,0.7,51.616,M,-12.686,M,5.0,0137*56
$GPGGA,093506.00,3030.67059862,N,11424.06768696,E,2,19,0.7,51.642,M,-12.686,M,6.0,0137*53
$GPGGA,093507.00,3030.67059934,N,11424.06769850,E,2,20,0.7,51.661,M,-12.686,M,7.0,0137*5F
$GPGGA,093508.00,3030.67060169,N,11424.06770694,E,2,20,0.7,51.680,M,-12.686,M,7.0,0137*5B
$GPGGA,093509.00,3030.67060514,N,11424.06771940,E,2,20,0.7,51.701,M,-12.686,M,3.0,0137*5F
$GPGGA,093510.00,3030.67060447,N,11424.06772826,E,2,20,0.7,51.719,M,-12.686,M,4.0,0137*5C
$GPGGA,093511.00,3030.67060572,N,11424.06773592,E,2,21,0.7,51.736,M,-12.686,M,5.0,0137*54
$GPGGA,093512.00,3030.67060526,N,11424.06774134,E,2,21,0.7,51.744,M,-12.686,M,6.0,0137*5F
$GPGGA,093513.00,3030.67060535,N,11424.06774920,E,2,20,0.7,51.757,M,-12.686,M,7.0,0137*53
$GPGGA,093514.00,3030.67060640,N,11424.06776154,E,2,21,0.7,51.777,M,-12.686,M,7.0,0137*5F
$GPGGA,093515.00,3030.67060795,N,11424.06777610,E,2,21,0.7,51.803,M,-12.686,M,3.0,0137*59
$GPGGA,093516.00,3030.67060955,N,11424.06778214,E,2,20,0.7,51.814,M,-12.686,M,4.0,0137*57
$GPGGA,093517.00,3030.67060998,N,11424.06779120,E,2,21,0.7,51.835,M,-12.686,M,5.0,0137*51
$GPGGA,093518.00,3030.67061072,N,11424.06780578,E,2,21,0.7,51.866,M,-12.686,M,6.0,0137*58
$GPGGA,093519.00,3030.67061224,N,11424.06781718,E,2,21,0.7,51.890,M,-12.686,M,7.0,0137*55
$GPGGA,093520.00,3030.67061437,N,11424.06782646,E,2,20,0.7,51.906,M,-12.686,M,7.0,0137*5D
$GPGGA,093521.00,3030.67061656,N,11424.06783114,E,2,21,0.7,51.919,M,-12.686,M,3.0,0137*53
$GPGGA,093522.00,3030.67061727,N,11424.06783817,E,2,21,0.7,51.931,M,-12.686,M,4.0,0137*50
$GPGGA,093523.00,3030.67061793,N,11424.06784741,E,2,20,0.7,51.954,M,-12.686,M,5.0,0137*56
$GPGGA,093524.00,3030.67062009,N,11424.06786104,E,2,21,0.7,51.978,M,-12.686,M,6.0,0137*5F
$GPGGA,093525.00,3030.67062277,N,11424.06787441,E,2,21,0.7,52.005,M,-12.686,M,7.0,0137*51
$GPGGA,093526.00,3030.67062617,N,11424.06788627,E,2,20,0.7,52.022,M,-12.686,M,7.0,0137*59
$GPGGA,093527.00,3030.67062937,N,11424.06789724,E,2,21,0.7,52.041,M,-12.686,M,3.0,0137*56
$GPGGA,093528.00,3030.67063183,N,11424.06790400,E,2,21,0.7,52.055,M,-12.686,M,4.0,0137*50
$GPGGA,093529.00,3030.67063379,N,11424.06791310,E,2,21,0.7,52.073,M,-12.686,M,5.0,0137*54
$GPGGA,093530.00,3030.67063582,N,11424.06791842,E,2,20,0.7,52.083,M,-12.686,M,6.0,0137*5F
$GPGGA,093531.00,3030.67063625,N,11424.06792247,E,2,21,0.7,52.092,M,-12.686,M,7.0,0137*5C
$GPGGA,093532.00,3030.67063624,N,11424.06791871,E,2,20,0.7,52.089,M,-12.686,M,7.0,0137*59
$GPGGA,093533.00,3030.67063552,N,11424.06791869,E,2,21,0.7,52.088,M,-12.686,M,3.0,0137*57
$GPGGA,093534.00,3030.67063386,N,11424.06791669,E,2,21,0.7,52.089,M,-12.686,M,4.0,0137*57
$GPGGA,093535.00,3030.67063204,N,11424.06791753,E,2,20,0.7,52.084,M,-12.686,M,5.0,0137*58
$GPGGA,093536.00,3030.67062983,N,11424.06791580,E,2,21,0.7,52.078,M,-12.686,M,6.0,0137*53
$GPGGA,093537.00,3030.67062770,N,11424.06791234,E,2,19,1.3,52.075,M,-12.686,M,7.0,0137*5A
$GPGGA,093538.00,3030.67062688,N,11424.06791441,E,2,20,1.2,52.082,M,-12.686,M,7.0,0137*54
$GPGGA,093539.00,3030.67062716,N,11424.06792256,E,2,19,1.3,52.100,M,-12.686,M,3.0,0137*54
$GPGGA,093540.00,3030.67062758,N,11424.06792812,E,2,18,1.4,52.111,M,-12.686,M,4.0,0137*5B
$GPGGA,093541.00,3030.67062816,N,11424.06792919,E,2,19,1.3,52.112,M,-12.686,M,5.0,0137*51
$GPGGA,093542.00,3030.67062826,N,11424.06792714,E,2,21,0.7,52.107,M,-12.686,M,6.0,0137*5B
$GPGGA,093543.00,3030.67062854,N,11424.06792927,E,2,22,0.7,52.113,M,-12.686,M,7.0,0137*56
$GPGGA,093544.00,3030.67062947,N,11424.06793578,E,2,22,0.7,52.124,M,-12.686,M,7.0,0137*51
$GPGGA,093545.00,3030.67063074,N,11424.06794153,E,2,21,0.7,52.136,M,-12.686,M,3.0,0137*56
$GPGGA,093546.00,3030.67063247,N,11424.06795497,E,2,21,0.7,52.158,M,-12.686,M,4.0,0137*54
$GPGGA,093547.00,3030.67063225,N,11424.06795647,E,2,21,0.7,52.164,M,-12.686,M,5.0,0137*50
$GPGGA,093548.00,3030.67063226,N,11424.06796248,E,2,21,0.7,52.174,M,-12.686,M,6.0,0137*56
$GPGGA,093549.00,3030.67063359,N,11424.06796045,E,2,22,0.7,52.170,M,-12.686,M,7.0,0137*57
$GPGGA,093550.00,3030.67063399,N,11424.06797063,E,2,21,0.7,52.188,M,-12.686,M,7.0,0137*52
$GPGGA,093551.00,3030.67063463,N,11424.06797837,E,2,21,0.7,52.202,M,-12.686,M,3.0,0137*5D
$GPGGA,093552.00,3030.67063706,N,11424.06798344,E,2,22,0.7,52.207,M,-12.686,M,4.0,0137*5F
$GPGGA,093553.00,3030.67063819,N,11424.06798946,E,2,21,0.7,52.220,M,-12.686,M,5.0,0137*50
$GPGGA,093554.00,3030.67064045,N,11424.06799523,E,2,21,0.7,52.230,M,-12.686,M,6.0,0137*5D
$GPGGA,093555.00,3030.67064284,N,11424.06800595,E,2,21,0.7,52.247,M,-12.686,M,7.0,0137*50
$GPGGA,093556.00,3030.67064654,N,11424.06801578,E,2,21,0.7,52.269,M,-12.686,M,7.0,0137*54
$GPGGA,093557.00,3030.67064990,N,11424.06801824,E,2,22,0.7,52.274,M,-12.686,M,3.0,0137*5D
$GPGGA,093558.00,3030.67065228,N,11424.06802123,E,2,21,0.7,52.275,M,-12.686,M,4.0,0137*53
$GPGGA,093559.00,3030.67065517,N,11424.06802684,E,2,21,0.7,52.276,M,-12.686,M,5.0,0137*51
$GPGGA,093600.00,3030.67065856,N,11424.06803608,E,2,21,0.7,52.291,M,-12.686,M,6.0,0137*59
$GPGGA,093601.00,3030.67066191,N,11424.06803882,E,2,21,0.7,52.293,M,-12.686,M,7.0,0137*56
$GPGGA,093602.00,3030.67066449,N,11424.06804306,E,2,22,0.7,52.301,M,-12.686,M,7.0,0137*5C
$GPGGA,093603.00,3030.67066844,N,11424.06805184,E,2,21,0.7,52.315,M,-12.686,M,3.0,0137*57
$GPGGA,093604.00,3030.67067216,N,11424.06806093,E,2,21,0.7,52.329,M,-12.686,M,4.0,0137*50
$GPGGA,093605.00,3030.67067555,N,11424.06806540,E,2,21,0.7,52.337,M,-12.686,M,5.0,0137*54
$GPGGA,093606.00,3030.67067798,N,11424.06807385,E,2,21,0.7,52.354,M,-12.686,M,6.0,0137*5C
$GPGGA,093607.00,3030.67068088,N,11424.06807946,E,2,22,0.7,52.366,M,-12.686,M,7.0,0137*52
$GPGGA,093608.00,3030.67068256,N,11424.06808678,E,2,21,0.7,52.378,M,-12.686,M,7.0,0137*5D
$GPGGA,093609.00,3030.67068486,N,11424.06809965,E,2,21,0.7,52.397,M,-12.686,M,3.0,0137*50
$GPGGA,093610.00,3030.67068677,N,11424.06810523,E,2,21,0.7,52.406,M,-12.686,M,4.0,0137*5A
