$GPGGA,102214.00,3030.67732807,N,11424.06880579,E,2,04,4.6,58.414,M,-12.686,M,1.0,0000*5F
$GPGGA,102215.00,3030.67733162,N,11424.06881333,E,2,04,4.6,58.410,M,-12.686,M,1.0,0000*58
$GPGGA,102216.00,3030.67732978,N,11424.06880642,E,2,04,4.1,58.404,M,-12.686,M,1.0,0000*59
$GPGGA,102217.00,3030.67733702,N,11424.06881198,E,2,03,2.8,58.400,M,-12.686,M,1.0,0000*57
$GPGGA,102218.00,3030.67729457,N,11424.06878050,E,2,03,4.1,58.332,M,-12.686,M,1.0,0000*5A
$GPGGA,102219.00,3030.66944621,N,11424.06116129,E,1,09,4.1,57.286,M,-12.686,M,,*75
$GPGGA,102220.00,3030.66964342,N,11424.06120000,E,1,09,4.1,56.991,M,-12.686,M,,*7E
$GPGGA,102221.00,3030.66977573,N,11424.06122433,E,1,10,3.6,56.786,M,-12.686,M,,*7F
$GPGGA,102222.00,3030.66989399,N,11424.06124068,E,1,10,3.6,56.592,M,-12.686,M,,*74
$GPGGA,102223.00,3030.66998515,N,11424.06125270,E,1,10,3.6,56.443,M,-12.686,M,,*70
$GPGGA,102224.00,3030.67007603,N,11424.06126096,E,1,10,3.6,56.289,M,-12.686,M,,*74
$GPGGA,102225.00,3030.67013350,N,11424.06127032,E,1,10,3.6,56.186,M,-12.686,M,,*70
$GPGGA,102226.00,3030.67019371,N,11424.06128004,E,1,10,3.6,56.083,M,-12.686,M,,*74
$GPGGA,102227.00,3030.67024269,N,11424.06128838,E,1,10,3.6,55.999,M,-12.686,M,,*75
$GPGGA,102228.00,3030.67027608,N,11424.06129828,E,1,10,3.6,55.936,M,-12.686,M,,*7F
$GPGGA,102229.00,3030.67031354,N,11424.06130751,E,1,10,3.6,55.865,M,-12.686,M,,*7B
$GPGGA,102230.00,3030.67034355,N,11424.06131775,E,1,10,3.6,55.818,M,-12.686,M,,*7A
$GPGGA,102231.00,3030.67036347,N,11424.06132484,E,1,10,3.6,55.785,M,-12.686,M,,*7F
$GPGGA,102232.00,3030.67037712,N,11424.06133797,E,1,10,3.6,55.764,M,-12.686,M,,*76
$GPGGA,102233.00,3030.67039431,N,11424.06134537,E,1,10,3.6,55.738,M,-12.686,M,,*7D
$GPGGA,102234.00,3030.67040371,N,11424.06135368,E,1,10,3.6,55.726,M,-12.686,M,,*75
$GPGGA,102235.00,3030.67040563,N,11424.06135893,E,1,10,3.6,55.721,M,-12.686,M,,*79
$GPGGA,102236.00,3030.67041049,N,11424.06136232,E,1,10,3.6,55.708,M,-12.686,M,,*7F
$GPGGA,102237.00,3030.67034711,N,11424.06134828,E,1,10,3.6,55.829,M,-12.686,M,,*79
$GPGGA,102238.00,3030.67028057,N,11424.06133662,E,1,10,3.6,55.942,M,-12.686,M,,*75
$GPGGA,102239.00,3030.67021139,N,11424.06132553,E,1,10,3.6,56.052,M,-12.686,M,,*7F
$GPGGA,102240.00,3030.67014991,N,11424.06131452,E,1,10,3.6,56.153,M,-12.686,M,,*7E
$GPGGA,102241.00,3030.67753103,N,11424.06886906,E,2,06,3.6,58.221,M,-12.686,M,1.0,0000*52
$GPGGA,102242.00,3030.67752008,N,11424.06886926,E,2,06,3.6,58.231,M,-12.686,M,1.0,0000*59
$GPGGA,102243.00,3030.67751880,N,11424.06886713,E,2,06,3.6,58.224,M,-12.686,M,1.0,0000*5F
$GPGGA,102244.00,3030.67750938,N,11424.06886776,E,2,05,3.6,58.247,M,-12.686,M,1.0,0000*5E
$GPGGA,102245.00,3030.67754143,N,11424.06885898,E,2,05,3.7,58.184,M,-12.686,M,2.0,0000*5D
$GPGGA,102246.00,3030.67751176,N,11424.06886025,E,2,05,3.7,58.241,M,-12.686,M,2.0,0000*5A
$GPGGA,102247.00,3030.67750833,N,11424.06885967,E,2,06,3.7,58.220,M,-12.686,M,1.0,0000*59
$GPGGA,102248.00,3030.67749382,N,11424.06887159,E,2,06,3.7,58.276,M,-12.686,M,1.0,0000*5B
$GPGGA,102249.00,3030.67748324,N,11424.06885999,E,2,06,3.7,58.265,M,-12.686,M,1.0,0000*53
$GPGGA,102250.00,3030.67752155,N,11424.06886074,E,2,06,3.7,58.213,M,-12.686,M,1.0,0000*5C
$GPGGA,102251.00,3030.67751551,N,11424.06886237,E,2,05,3.7,58.221,M,-12.686,M,1.0,0000*59
$GPGGA,102252.00,3030.67752050,N,11424.06886289,E,2,05,3.7,58.202,M,-12.686,M,1.0,0000*59
$GPGGA,102253.00,3030.67752748,N,11424.06886440,E,2,05,3.7,58.206,M,-12.686,M,1.0,0000*51
$GPGGA,102254.00,3030.67751630,N,11424.06886461,E,2,05,3.7,58.230,M,-12.686,M,2.0,0000*5E
$GPGGA,102255.00,3030.67751519,N,11424.06886399,E,2,06,3.7,58.229,M,-12.686,M,2.0,0000*5C
$GPGGA,102256.00,3030.67750845,N,11424.06886588,E,2,05,3.7,58.224,M,-12.686,M,1.0,0000*51
$GPGGA,102257.00,3030.67750946,N,11424.06885913,E,2,06,3.7,58.210,M,-12.686,M,1.0,0000*5B
$GPGGA,102258.00,3030.67749615,N,11424.06886457,E,2,06,3.7,58.244,M,-12.686,M,1.0,0000*5A
$GPGGA,102259.00,3030.67749972,N,11424.06886004,E,2,06,3.7,58.236,M,-12.686,M,1.0,0000*52
$GPGGA,102300.00,3030.67749318,N,11424.06885969,E,2,05,3.7,58.236,M,-12.686,M,1.0,0000*5B
$GPGGA,102301.00,3030.67749729,N,11424.06885824,E,2,05,3.7,58.239,M,-12.686,M,1.0,0000*5B
$GPGGA,102302.00,3030.67748304,N,11424.06885991,E,2,05,3.7,58.250,M,-12.686,M,1.0,0000*52
$GPGGA,102303.00,3030.67747980,N,11424.06885799,E,2,06,3.7,58.242,M,-12.686,M,1.0,0000*5C
$GPGGA,102304.00,3030.67748317,N,11424.06885765,E,2,05,3.7,58.248,M,-12.686,M,1.0,0000*5A
$GPGGA,102305.00,3030.67747369,N,11424.06885753,E,2,06,3.7,58.258,M,-12.686,M,1.0,0000*5A
$GPGGA,102306.00,3030.67747194,N,11424.06885900,E,2,06,3.7,58.282,M,-12.686,M,1.0,0000*56
$GPGGA,102307.00,3030.67745789,N,11424.06886078,E,2,06,3.7,58.279,M,-12.686,M,1.0,0000*5E
$GPGGA,102308.00,3030.67745671,N,11424.06885972,E,2,06,3.7,58.286,M,-12.686,M,1.0,0000*57
$GPGGA,102309.00,3030.67745132,N,11424.06885695,E,2,06,3.7,58.291,M,-12.686,M,2.0,0000*55
$GPGGA,102310.00,3030.67746423,N,11424.06885572,E,2,06,3.7,58.256,M,-12.686,M,2.0,0000*5A
$GPGGA,102311.00,3030.67746837,N,11424.06884955,E,2,05,3.7,58.242,M,-12.686,M,2.0,0000*5C
$GPGGA,102312.00,3030.67745640,N,11424.06885424,E,2,06,3.7,58.268,M,-12.686,M,2.0,0000*53
$GPGGA,102313.00,3030.67745814,N,11424.06885555,E,2,06,3.7,58.269,M,-12.686,M,2.0,0000*5B
$GPGGA,102314.00,3030.67745391,N,11424.06885277,E,2,06,3.7,58.267,M,-12.686,M,2.0,0000*53
$GPGGA,102315.00,3030.67744861,N,11424.06885381,E,2,05,3.7,58.274,M,-12.686,M,2.0,0000*5E
$GPGGA,102316.00,3030.67745314,N,11424.06885329,E,2,06,3.7,58.257,M,-12.686,M,2.0,0000*55
$GPGGA,102317.00,3030.67745619,N,11424.06885000,E,2,05,3.7,58.249,M,-12.686,M,2.0,0000*58
$GPGGA,102318.00,3030.67745273,N,11424.06885104,E,2,06,3.7,58.261,M,-12.686,M,2.0,0000*53
$GPGGA,102319.00,3030.67744633,N,11424.06885442,E,2,05,3.7,58.270,M,-12.686,M,2.0,0000*57
$GPGGA,102320.00,3030.67745111,N,11424.06884957,E,2,06,3.7,58.256,M,-12.686,M,2.0,0000*54
$GPGGA,102321.00,3030.67744220,N,11424.06884716,E,2,06,3.7,58.274,M,-12.686,M,2.0,0000*5E
$GPGGA,102322.00,3030.67744021,N,11424.06884856,E,2,05,3.7,58.268,M,-12.686,M,2.0,0000*5B
$GPGGA,102323.00,3030.67744944,N,11424.06884759,E,2,06,3.7,58.244,M,-12.686,M,1.0,0000*5E
$GPGGA,102324.00,3030.67745380,N,11424.06884536,E,2,06,3.7,58.238,M,-12.686,M,1.0,0000*5A
$GPGGA,102325.00,3030.67745197,N,11424.06884576,E,2,06,3.7,58.243,M,-12.686,M,2.0,0000*54
$GPGGA,102326.00,3030.67745317,N,11424.06884534,E,2,06,3.7,58.242,M,-12.686,M,1.0,0000*59
$GPGGA,102327.00,3030.67743749,N,11424.06885078,E,2,05,3.7,58.261,M,-12.686,M,1.0,0000*5F
$GPGGA,102328.00,3030.67745221,N,11424.06884737,E,2,06,3.7,58.229,M,-12.686,M,2.0,0000*5C
$GPGGA,102329.00,3030.67743668,N,11424.06884633,E,2,06,3.7,58.252,M,-12.686,M,2.0,0000*5B
$GPGGA,102330.00,3030.67744593,N,11424.06884667,E,2,06,3.7,58.239,M,-12.686,M,2.0,0000*5F
$GPGGA,102331.00,3030.67744458,N,11424.06884882,E,2,05,3.7,58.245,M,-12.686,M,1.0,0000*56
$GPGGA,102332.00,3030.67744828,N,11424.06884512,E,2,05,3.7,58.233,M,-12.686,M,1.0,0000*5B
$GPGGA,102333.00,3030.67744631,N,11424.06884652,E,2,06,3.7,58.229,M,-12.686,M,1.0,0000*53
$GPGGA,102334.00,3030.67744979,N,11424.06884278,E,2,06,3.7,58.220,M,-12.686,M,1.0,0000*52
$GPGGA,102335.00,3030.67745626,N,11424.06884387,E,2,06,3.7,58.204,M,-12.686,M,2.0,0000*53
$GPGGA,102336.00,3030.67745179,N,11424.06884599,E,2,06,3.7,58.216,M,-12.686,M,2.0,0000*57
$GPGGA,102337.00,3030.67745314,N,11424.06884493,E,2,06,3.7,58.206,M,-12.686,M,2.0,0000*55
$GPGGA,102338.00,3030.67745416,N,11424.06884345,E,2,06,3.7,58.200,M,-12.686,M,2.0,0000*55
$GPGGA,102339.00,3030.67747048,N,11424.06884550,E,2,05,3.7,58.202,M,-12.686,M,1.0,0000*59
$GPGGA,102340.00,3030.67745971,N,11424.06884176,E,2,05,3.7,58.193,M,-12.686,M,2.0,0000*5E
$GPGGA,102341.00,3030.67747162,N,11424.06884422,E,2,05,3.7,58.194,M,-12.686,M,1.0,0000*57
$GPGGA,102342.00,3030.67745173,N,11424.06883763,E,2,04,3.7,58.230,M,-12.686,M,2.0,0000*58
$GPGGA,102343.00,3030.67745557,N,11424.06884295,E,2,03,3.7,58.210,M,-12.686,M,1.0,0000*56
$GPGGA,102344.00,3030.67745661,N,11424.06883768,E,2,05,3.7,58.181,M,-12.686,M,1.0,0000*5A
$GPGGA,102345.00,3030.67747069,N,11424.06883590,E,2,05,3.7,58.193,M,-12.686,M,2.0,0000*52
$GPGGA,102346.00,3030.67745381,N,11424.06883816,E,2,05,3.7,58.241,M,-12.686,M,2.0,0000*59
$GPGGA,102347.00,3030.67745220,N,11424.06884313,E,2,05,3.7,58.246,M,-12.686,M,1.0,0000*5F
$GPGGA,102348.00,3030.67745360,N,11424.06883882,E,2,04,3.7,58.212,M,-12.686,M,1.0,0000*51
$GPGGA,102349.00,3030.67745981,N,11424.06883877,E,2,05,3.7,58.219,M,-12.686,M,2.0,0000*56
$GPGGA,102350.00,3030.67744455,N,11424.06884074,E,2,05,3.7,58.248,M,-12.686,M,2.0,0000*53
$GPGGA,102351.00,3030.67745891,N,11424.06883871,E,2,05,3.7,58.245,M,-12.686,M,3.0,0000*51
$GPGGA,102352.00,3030.67744934,N,11424.06884039,E,2,05,3.7,58.254,M,-12.686,M,2.0,0000*5F
$GPGGA,102353.00,3030.67743254,N,11424.06884176,E,2,04,3.7,58.268,M,-12.686,M,2.0,0000*50
$GPGGA,102354.00,3030.67743872,N,11424.06885169,E,2,04,3.7,58.277,M,-12.686,M,1.0,0000*5B
$GPGGA,102355.00,3030.67744930,N,11424.06884639,E,2,05,3.7,58.248,M,-12.686,M,2.0,0000*57
$GPGGA,102356.00,3030.67746461,N,11424.06883792,E,2,05,3.7,58.226,M,-12.686,M,1.0,0000*53
$GPGGA,102357.00,3030.67743717,N,11424.06885230,E,2,05,3.7,58.294,M,-12.686,M,2.0,0000*54
$GPGGA,102358.00,3030.67744209,N,11424.06884661,E,2,04,3.7,58.286,M,-12.686,M,2.0,0000*55
$GPGGA,102359.00,3030.67745288,N,11424.06884200,E,2,04,3.7,58.263,M,-12.686,M,2.0,0000*54
$GPGGA,102400.00,3030.67744185,N,11424.06883848,E,2,05,3.7,58.267,M,-12.686,M,2.0,0000*54
$GPGGA,102401.00,3030.67742160,N,11424.06884928,E,2,04,3.7,58.343,M,-12.686,M,1.0,0000*5D
$GPGGA,102402.00,3030.67742059,N,11424.06884549,E,2,05,3.7,58.322,M,-12.686,M,1.0,0000*58
$GPGGA,102403.00,3030.67745401,N,11424.06883646,E,2,04,3.7,58.238,M,-12.686,M,2.0,0000*54
$GPGGA,102404.00,3030.67742994,N,11424.06884529,E,2,04,3.7,58.308,M,-12.686,M,1.0,0000*59
$GPGGA,102405.00,3030.67743156,N,11424.06884888,E,2,04,3.7,58.297,M,-12.686,M,2.0,0000*5D
$GPGGA,102406.00,3030.67744517,N,11424.06884961,E,2,04,3.7,58.283,M,-12.686,M,2.0,0000*5B
$GPGGA,102407.00,3030.67746124,N,11424.06883239,E,2,04,3.7,58.255,M,-12.686,M,2.0,0000*56
$GPGGA,102408.00,3030.67745313,N,11424.06884901,E,2,05,3.7,58.294,M,-12.686,M,2.0,0000*57
$GPGGA,102409.00,3030.67744069,N,11424.06883897,E,2,03,3.7,58.298,M,-12.686,M,1.0,0000*59
$GPGGA,102410.00,3030.67743568,N,11424.06884730,E,2,05,2.3,58.290,M,-12.686,M,1.0,0000*5C
$GPGGA,102411.00,3030.67745057,N,11424.06884415,E,2,05,2.3,58.301,M,-12.686,M,1.0,0000*5F
$GPGGA,102412.00,3030.67743153,N,11424.06885664,E,2,05,2.3,58.331,M,-12.686,M,2.0,0000*5A
$GPGGA,102413.00,3030.67745792,N,11424.06885010,E,2,04,2.3,58.292,M,-12.686,M,1.0,0000*59
$GPGGA,102414.00,3030.67747944,N,11424.06884864,E,2,04,2.3,58.266,M,-12.686,M,1.0,0000*58
$GPGGA,102415.00,3030.67744669,N,11424.06884982,E,2,05,2.3,58.322,M,-12.686,M,1.0,0000*53
$GPGGA,102416.00,3030.67746544,N,11424.06884950,E,2,04,2.3,58.304,M,-12.686,M,2.0,0000*57
$GPGGA,102417.00,3030.67744825,N,11424.06885804,E,2,05,2.3,58.318,M,-12.686,M,2.0,0000*53
$GPGGA,102418.00,3030.67742459,N,11424.06885150,E,2,05,2.3,58.335,M,-12.686,M,1.0,0000*59
$GPGGA,102419.00,3030.67741884,N,11424.06885699,E,2,04,2.3,58.374,M,-12.686,M,1.0,0000*51
$GPGGA,102420.00,3030.67747397,N,11424.06885245,E,2,05,2.3,58.260,M,-12.686,M,1.0,0000*54
$GPGGA,102421.00,3030.67746810,N,11424.06885469,E,2,05,2.3,58.286,M,-12.686,M,1.0,0000*50
$GPGGA,102422.00,3030.67744766,N,11424.06885825,E,2,05,2.3,58.329,M,-12.686,M,1.0,0000*5F
$GPGGA,102423.00,3030.67745873,N,11424.06886024,E,2,05,2.3,58.284,M,-12.686,M,1.0,0000*58
$GPGGA,102424.00,3030.67747631,N,11424.06884567,E,2,04,2.3,58.268,M,-12.686,M,1.0,0000*56
$GPGGA,102425.00,3030.67748350,N,11424.06884754,E,2,05,2.3,58.240,M,-12.686,M,1.0,0000*53
$GPGGA,102426.00,3030.67745909,N,11424.06885580,E,2,05,2.3,58.292,M,-12.686,M,2.0,0000*5D
$GPGGA,102427.00,3030.67750039,N,11424.06883184,E,2,05,2.3,58.212,M,-12.686,M,1.0,0000*5F
$GPGGA,102428.00,3030.67746270,N,11424.06885850,E,2,05,2.3,58.290,M,-12.686,M,1.0,0000*54
$GPGGA,102429.00,3030.67745501,N,11424.06885268,E,2,05,2.3,58.310,M,-12.686,M,2.0,0000*5C
$GPGGA,102430.00,3030.67745941,N,11424.06884876,E,2,05,2.3,58.299,M,-12.686,M,2.0,0000*58
$GPGGA,102431.00,3030.67746683,N,11424.06885979,E,2,04,2.3,58.317,M,-12.686,M,3.0,0000*53
$GPGGA,102432.00,3030.67743187,N,11424.06885334,E,2,05,2.3,58.351,M,-12.686,M,4.0,0000*51
$GPGGA,102433.00,3030.67745136,N,11424.06885123,E,2,04,2.3,58.319,M,-12.686,M,4.0,0000*55
$GPGGA,102434.00,3030.67742843,N,11424.06885969,E,2,05,2.3,58.385,M,-12.686,M,3.0,0000*5B
$GPGGA,102435.00,3030.67090358,N,11424.06155786,E,1,11,2.3,53.872,M,-12.686,M,,*7B
$GPGGA,102436.00,3030.67086413,N,11424.06153508,E,1,11,2.3,53.935,M,-12.686,M,,*77
$GPGGA,102437.00,3030.67081354,N,11424.06151653,E,1,11,2.3,54.028,M,-12.686,M,,*78
$GPGGA,102438.00,3030.67076997,N,11424.06149675,E,1,11,2.3,54.109,M,-12.686,M,,*75
$GPGGA,102439.00,3030.67073354,N,11424.06147775,E,1,11,2.3,54.172,M,-12.686,M,,*77
$GPGGA,102440.00,3030.67070899,N,11424.06146034,E,1,11,2.3,54.216,M,-12.686,M,,*72
$GPGGA,102441.00,3030.67068014,N,11424.06144368,E,1,11,2.3,54.260,M,-12.686,M,,*7E
$GPGGA,102442.00,3030.67065498,N,11424.06143032,E,1,11,2.3,54.303,M,-12.686,M,,*7F
$GPGGA,102443.00,3030.67062137,N,11424.06141706,E,1,11,2.3,54.355,M,-12.686,M,,*78
$GPGGA,102444.00,3030.67059929,N,11424.06140423,E,1,11,2.3,54.386,M,-12.686,M,,*7B
$GPGGA,102445.00,3030.67058608,N,11424.06139043,E,1,11,2.3,54.416,M,-12.686,M,,*75
$GPGGA,102446.00,3030.67057054,N,11424.06138036,E,1,11,2.3,54.443,M,-12.686,M,,*75
$GPGGA,102447.00,3030.67054829,N,11424.06137220,E,1,11,2.3,54.472,M,-12.686,M,,*7D
$GPGGA,102448.00,3030.67053091,N,11424.06136812,E,1,11,2.3,54.511,M,-12.686,M,,*70
$GPGGA,102449.00,3030.67051691,N,11424.06135832,E,1,11,2.3,54.527,M,-12.686,M,,*71
$GPGGA,102450.00,3030.67051245,N,11424.06134916,E,1,11,2.3,54.528,M,-12.686,M,,*7D
$GPGGA,102451.00,3030.67049964,N,11424.06134209,E,1,11,2.3,54.542,M,-12.686,M,,*74
$GPGGA,102452.00,3030.67049461,N,11424.06133563,E,1,11,2.3,54.547,M,-12.686,M,,*76
$GPGGA,102453.00,3030.67048617,N,11424.06133004,E,1,11,2.3,54.553,M,-12.686,M,,*74
$GPGGA,102454.00,3030.67048231,N,11424.06132183,E,1,11,2.3,54.547,M,-12.686,M,,*79
$GPGGA,102455.00,3030.67048222,N,11424.06131930,E,1,11,2.3,54.540,M,-12.686,M,,*7E
$GPGGA,102456.00,3030.67048499,N,11424.06131389,E,1,11,2.3,54.531,M,-12.686,M,,*75
$GPGGA,102457.00,3030.67048683,N,11424.06131048,E,1,11,2.3,54.513,M,-12.686,M,,*73
$GPGGA,102458.00,3030.67048789,N,11424.06130568,E,1,11,2.3,54.499,M,-12.686,M,,*72
$GPGGA,102459.00,3030.67047920,N,11424.06130247,E,1,11,2.3,54.492,M,-12.686,M,,*70
$GPGGA,102500.00,3030.67048567,N,11424.06129966,E,1,11,2.3,54.465,M,-12.686,M,,*75
$GPGGA,102501.00,3030.67048603,N,11424.06129613,E,1,11,2.3,54.459,M,-12.686,M,,*77
$GPGGA,102502.00,3030.67048649,N,11424.06129511,E,1,11,2.3,54.447,M,-12.686,M,,*74
$GPGGA,102503.00,3030.67047852,N,11424.06129681,E,1,11,2.3,54.455,M,-12.686,M,,*77
$GPGGA,102504.00,3030.67047444,N,11424.06129668,E,1,11,2.3,54.458,M,-12.686,M,,*71
$GPGGA,102505.00,3030.67047382,N,11424.06129965,E,1,11,2.3,54.455,M,-12.686,M,,*72
$GPGGA,102506.00,3030.67046998,N,11424.06130317,E,1,11,2.3,54.448,M,-12.686,M,,*7A
$GPGGA,102507.00,3030.67046441,N,11424.06130283,E,1,11,2.3,54.452,M,-12.686,M,,*75
$GPGGA,102508.00,3030.67045676,N,11424.06130238,E,1,11,2.3,54.451,M,-12.686,M,,*7C
$GPGGA,102509.00,3030.67044676,N,11424.06130543,E,1,11,2.3,54.458,M,-12.686,M,,*7E
$GPGGA,102510.00,3030.67044191,N,11424.06130357,E,1,11,2.3,54.457,M,-12.686,M,,*74
$GPGGA,102511.00,3030.67044609,N,11424.06130458,E,1,11,2.3,54.435,M,-12.686,M,,*7F
$GPGGA,102512.00,3030.67044509,N,11424.06130862,E,1,11,2.3,54.433,M,-12.686,M,,*7C
$GPGGA,102513.00,3030.67044617,N,11424.06130940,E,1,11,2.3,54.423,M,-12.686,M,,*71
$GPGGA,102514.00,3030.67043891,N,11424.06130929,E,1,11,2.3,54.427,M,-12.686,M,,*7A
$GPGGA,102515.00,3030.67043595,N,11424.06131259,E,1,11,2.3,54.422,M,-12.686,M,,*7A
$GPGGA,102516.00,3030.67043653,N,11424.06131453,E,1,11,2.3,54.421,M,-12.686,M,,*7F
$GPGGA,102517.00,3030.67043490,N,11424.06131961,E,1,11,2.3,54.417,M,-12.686,M,,*7A
$GPGGA,102518.00,3030.67043431,N,11424.06132473,E,1,11,2.3,54.409,M,-12.686,M,,*7C
$GPGGA,102519.00,3030.67043460,N,11424.06133017,E,1,11,2.3,54.395,M,-12.686,M,,*7C
$GPGGA,102520.00,3030.67044088,N,11424.06133697,E,1,11,2.3,54.375,M,-12.686,M,,*73
$GPGGA,102521.00,3030.67044376,N,11424.06134381,E,1,11,2.3,54.366,M,-12.686,M,,*77
$GPGGA,102522.00,3030.67044769,N,11424.06135150,E,1,11,2.3,54.354,M,-12.686,M,,*70
$GPGGA,102523.00,3030.67044934,N,11424.06135918,E,1,11,2.3,54.340,M,-12.686,M,,*76
$GPGGA,102524.00,3030.67045859,N,11424.06136669,E,1,11,2.3,54.318,M,-12.686,M,,*7D
$GPGGA,102525.00,3030.67046988,N,11424.06137286,E,1,11,2.3,54.286,M,-12.686,M,,*70
$GPGGA,102526.00,3030.67048241,N,11424.06138239,E,1,11,2.3,54.262,M,-12.686,M,,*72
$GPGGA,102527.00,3030.67049136,N,11424.06138781,E,1,11,2.3,54.238,M,-12.686,M,,*78
$GPGGA,102528.00,3030.67050994,N,11424.06139339,E,1,11,2.3,54.198,M,-12.686,M,,*70
$GPGGA,102529.00,3030.67052429,N,11424.06140119,E,1,11,2.3,54.161,M,-12.686,M,,*70
$GPGGA,102530.00,3030.67053037,N,11424.06141470,E,1,11,2.3,54.147,M,-12.686,M,,*7D
$GPGGA,102531.00,3030.67054110,N,11424.06142252,E,1,11,2.3,54.117,M,-12.686,M,,*7F
$GPGGA,102532.00,3030.67053723,N,11424.06143786,E,1,11,2.3,54.119,M,-12.686,M,,*7E
$GPGGA,102533.00,3030.67054046,N,11424.06144811,E,1,11,2.3,54.106,M,-12.686,M,,*74
$GPGGA,102534.00,3030.67055002,N,11424.06145688,E,1,11,2.3,54.085,M,-12.686,M,,*77
$GPGGA,102535.00,3030.67056536,N,11424.06146456,E,1,11,2.3,54.042,M,-12.686,M,,*7E
$GPGGA,102536.00,3030.67056938,N,11424.06147639,E,1,11,2.3,54.026,M,-12.686,M,,*77
$GPGGA,102537.00,3030.67057946,N,11424.06148460,E,1,11,2.3,54.008,M,-12.686,M,,*73
$GPGGA,102538.00,3030.67059103,N,11424.06149455,E,1,11,2.3,53.980,M,-12.686,M,,*72
$GPGGA,102539.00,3030.67060557,N,11424.06150485,E,1,11,2.3,53.945,M,-12.686,M,,*70
$GPGGA,102540.00,3030.67061947,N,11424.06151543,E,1,11,2.3,53.907,M,-12.686,M,,*7E
$GPGGA,102541.00,3030.67062616,N,11424.06152910,E,1,12,2.3,53.886,M,-12.686,M,,*75
$GPGGA,102542.00,3030.67063449,N,11424.06153690,E,1,12,2.3,53.863,M,-12.686,M,,*72
$GPGGA,102543.00,3030.67064716,N,11424.06154682,E,1,12,2.3,53.836,M,-12.686,M,,*79
$GPGGA,102544.00,3030.67065466,N,11424.06155832,E,1,12,2.3,53.813,M,-12.686,M,,*78
$GPGGA,102545.00,3030.67066754,N,11424.06156769,E,1,12,2.3,53.786,M,-12.686,M,,*79
$GPGGA,102546.00,3030.67067840,N,11424.06157867,E,1,12,2.3,53.755,M,-12.686,M,,*7F
$GPGGA,102547.00,3030.67069188,N,11424.06159079,E,1,12,2.3,53.734,M,-12.686,M,,*73
$GPGGA,102548.00,3030.67070673,N,11424.06159888,E,1,12,2.3,53.697,M,-12.686,M,,*79
$GPGGA,102549.00,3030.67071499,N,11424.06160504,E,1,12,2.3,53.670,M,-12.686,M,,*75
$GPGGA,102550.00,3030.67072837,N,11424.06161490,E,1,12,2.3,53.641,M,-12.686,M,,*79
$GPGGA,102551.00,3030.67073756,N,11424.06162349,E,1,12,2.3,53.611,M,-12.686,M,,*74
$GPGGA,102552.00,3030.67075033,N,11424.06163234,E,1,12,2.3,53.580,M,-12.686,M,,*74
$GPGGA,102553.00,3030.67075620,N,11424.06164026,E,1,12,2.3,53.560,M,-12.686,M,,*79
$GPGGA,102554.00,3030.67076806,N,11424.06164768,E,1,12,2.3,53.529,M,-12.686,M,,*77
$GPGGA,102555.00,3030.67078483,N,11424.06165891,E,1,12,2.3,53.487,M,-12.686,M,,*74
$GPGGA,102556.00,3030.67079248,N,11424.06166770,E,1,12,2.3,53.455,M,-12.686,M,,*7B
$GPGGA,102557.00,3030.67080252,N,11424.06167837,E,1,12,2.3,53.439,M,-12.686,M,,*70
$GPGGA,102558.00,3030.67075645,N,11424.06165434,E,1,12,2.3,53.525,M,-12.686,M,,*76
$GPGGA,102559.00,3030.67071242,N,11424.06162971,E,1,12,2.3,53.613,M,-12.686,M,,*7D
$GPGGA,102600.00,3030.67067432,N,11424.06160914,E,1,12,2.3,53.695,M,-12.686,M,,*7B
$GPGGA,102601.00,3030.67064089,N,11424.06158869,E,1,12,2.3,53.752,M,-12.686,M,,*77
$GPGGA,102602.00,3030.67061139,N,11424.06157008,E,1,12,2.3,53.814,M,-12.686,M,,*76
$GPGGA,102603.00,3030.67059101,N,11424.06155593,E,1,12,2.3,53.863,M,-12.686,M,,*72
$GPGGA,102604.00,3030.67056626,N,11424.06153998,E,1,12,2.3,53.902,M,-12.686,M,,*7F
$GPGGA,102605.00,3030.67054788,N,11424.06152733,E,1,12,2.3,53.939,M,-12.686,M,,*7F
$GPGGA,102606.00,3030.67053104,N,11424.06151249,E,1,12,2.3,53.963,M,-12.686,M,,*7D
$GPGGA,102607.00,3030.67051215,N,11424.06150547,E,1,12,2.3,54.002,M,-12.686,M,,*7C
$GPGGA,102608.00,3030.67050618,N,11424.06149641,E,1,12,2.3,54.019,M,-12.686,M,,*7C
$GPGGA,102609.00,3030.67050037,N,11424.06148685,E,1,12,2.3,54.035,M,-12.686,M,,*71
$GPGGA,102610.00,3030.67049157,N,11424.06147571,E,1,12,2.3,54.043,M,-12.686,M,,*70
$GPGGA,102611.00,3030.67048500,N,11424.06146720,E,1,12,2.3,54.057,M,-12.686,M,,*74
$GPGGA,102612.00,3030.67047429,N,11424.06146060,E,1,12,2.3,54.076,M,-12.686,M,,*72
$GPGGA,102613.00,3030.67046940,N,11424.06145156,E,1,12,2.3,54.084,M,-12.686,M,,*7A
$GPGGA,102614.00,3030.67047798,N,11424.06144349,E,1,12,2.3,54.067,M,-12.686,M,,*77
$GPGGA,102615.00,3030.67048079,N,11424.06143627,E,1,12,2.3,54.065,M,-12.686,M,,*79
$GPGGA,102616.00,3030.67047269,N,11424.06143402,E,1,12,2.3,54.069,M,-12.686,M,,*7F
$GPGGA,102617.00,3030.67046635,N,11424.06143011,E,1,12,2.3,54.079,M,-12.686,M,,*75
$GPGGA,102618.00,3030.67046418,N,11424.06143048,E,1,10,2.7,54.104,M,-12.686,M,,*76
$GPGGA,102619.00,3030.67045318,N,11424.06143759,E,1,10,2.7,54.135,M,-12.686,M,,*76
$GPGGA,102620.00,3030.67045243,N,11424.06143182,E,1,10,2.7,54.137,M,-12.686,M,,*71
$GPGGA,102621.00,3030.67044908,N,11424.06142523,E,1,10,2.7,54.128,M,-12.686,M,,*75
$GPGGA,102622.00,3030.67044206,N,11424.06142015,E,1,10,2.7,54.128,M,-12.686,M,,*73
$GPGGA,102623.00,3030.67044560,N,11424.06141362,E,1,11,2.3,54.119,M,-12.686,M,,*72
$GPGGA,102624.00,3030.67043710,N,11424.06140955,E,1,11,2.3,54.124,M,-12.686,M,,*76
$GPGGA,102625.00,3030.67043942,N,11424.06140359,E,1,11,2.3,54.118,M,-12.686,M,,*77
$GPGGA,102626.00,3030.67043458,N,11424.06140243,E,1,11,2.3,54.127,M,-12.686,M,,*74
$GPGGA,102627.00,3030.67042590,N,11424.06140541,E,1,11,2.3,54.141,M,-12.686,M,,*74
$GPGGA,102628.00,3030.67041973,N,11424.06140152,E,1,11,2.3,54.146,M,-12.686,M,,*78
$GPGGA,102629.00,3030.67041900,N,11424.06139936,E,1,11,2.3,54.148,M,-12.686,M,,*77
$GPGGA,102630.00,3030.67042199,N,11424.06139859,E,1,11,2.3,54.139,M,-12.686,M,,*7A
$GPGGA,102631.00,3030.67042077,N,11424.06139918,E,1,11,2.3,54.142,M,-12.686,M,,*72
$GPGGA,102632.00,3030.67041586,N,11424.06139881,E,1,11,2.3,54.151,M,-12.686,M,,*7A
$GPGGA,102633.00,3030.67041419,N,11424.06140205,E,1,11,2.3,54.150,M,-12.686,M,,*75
$GPGGA,102634.00,3030.67041798,N,11424.06139956,E,1,11,2.3,54.140,M,-12.686,M,,*7A
$GPGGA,102635.00,3030.67043309,N,11424.06139756,E,1,11,2.3,54.110,M,-12.686,M,,*7E
$GPGGA,102636.00,3030.67044420,N,11424.06139347,E,1,11,2.3,54.083,M,-12.686,M,,*79
$GPGGA,102637.00,3030.67044686,N,11424.06139398,E,1,11,2.3,54.071,M,-12.686,M,,*79
$GPGGA,102638.00,3030.67044806,N,11424.06139572,E,1,11,2.3,54.065,M,-12.686,M,,*77
$GPGGA,102639.00,3030.67045585,N,11424.06139418,E,1,11,2.3,54.041,M,-12.686,M,,*7A
$GPGGA,102640.00,3030.67046201,N,11424.06139759,E,1,11,2.3,54.032,M,-12.686,M,,*7E
$GPGGA,102641.00,3030.67047057,N,11424.06139942,E,1,11,2.3,54.011,M,-12.686,M,,*7A
$GPGGA,102642.00,3030.67048278,N,11424.06140031,E,1,11,2.3,53.992,M,-12.686,M,,*7F
$GPGGA,102643.00,3030.67048904,N,11424.06140470,E,1,11,2.3,53.971,M,-12.686,M,,*72
$GPGGA,102644.00,3030.67049606,N,11424.06140734,E,1,11,2.3,53.951,M,-12.686,M,,*78
$GPGGA,102645.00,3030.67050071,N,11424.06141266,E,1,11,2.3,53.943,M,-12.686,M,,*77
$GPGGA,102646.00,3030.67052197,N,11424.06141526,E,1,11,2.3,53.902,M,-12.686,M,,*79
$GPGGA,102647.00,3030.67053458,N,11424.06141908,E,1,11,2.3,53.872,M,-12.686,M,,*79
$GPGGA,102648.00,3030.67055098,N,11424.06142610,E,1,11,2.3,53.838,M,-12.686,M,,*73
$GPGGA,102649.00,3030.67055426,N,11424.06143277,E,1,11,2.3,53.831,M,-12.686,M,,*7E
$GPGGA,102650.00,3030.67056040,N,11424.06143770,E,1,11,2.3,53.808,M,-12.686,M,,*79
$GPGGA,102651.00,3030.67057691,N,11424.06144326,E,1,11,2.3,53.779,M,-12.686,M,,*7A
$GPGGA,102652.00,3030.67060319,N,11424.06144685,E,1,11,2.3,53.721,M,-12.686,M,,*79
$GPGGA,102653.00,3030.67060283,N,11424.06145404,E,1,11,2.3,53.726,M,-12.686,M,,*77
$GPGGA,102654.00,3030.67060942,N,11424.06146290,E,1,10,2.7,53.725,M,-12.686,M,,*78
$GPGGA,102655.00,3030.67061358,N,11424.06147398,E,1,10,2.7,53.724,M,-12.686,M,,*70
$GPGGA,102656.00,3030.67062452,N,11424.06148215,E,1,10,2.7,53.696,M,-12.686,M,,*7E
$GPGGA,102657.00,3030.67064185,N,11424.06148690,E,1,10,2.7,53.660,M,-12.686,M,,*76
$GPGGA,102658.00,3030.67065548,N,11424.06149106,E,1,10,2.7,53.628,M,-12.686,M,,*78
$GPGGA,102659.00,3030.67066622,N,11424.06149672,E,1,10,2.7,53.608,M,-12.686,M,,*73
$GPGGA,102700.00,3030.67068140,N,11424.06150481,E,1,10,2.7,53.580,M,-12.686,M,,*76
$GPGGA,102701.00,3030.67070022,N,11424.06150984,E,1,10,2.7,53.539,M,-12.686,M,,*71
$GPGGA,102702.00,3030.67071656,N,11424.06151787,E,1,10,2.7,53.504,M,-12.686,M,,*74
$GPGGA,102703.00,3030.67072178,N,11424.06152371,E,1,10,2.7,53.484,M,-12.686,M,,*7A
$GPGGA,102704.00,3030.67073886,N,11424.06153057,E,1,10,2.7,53.448,M,-12.686,M,,*72
$GPGGA,102705.00,3030.67074621,N,11424.06154139,E,1,10,2.7,53.438,M,-12.686,M,,*7E
$GPGGA,102706.00,3030.67076115,N,11424.06154756,E,1,10,2.7,53.405,M,-12.686,M,,*7E
$GPGGA,102707.00,3030.67078347,N,11424.06155555,E,1,11,2.3,53.370,M,-12.686,M,,*74
$GPGGA,102708.00,3030.67080026,N,11424.06156241,E,1,11,2.3,53.327,M,-12.686,M,,*7B
$GPGGA,102709.00,3030.67081795,N,11424.06156837,E,1,11,2.3,53.288,M,-12.686,M,,*7B
$GPGGA,102710.00,3030.67082829,N,11424.06158059,E,1,11,2.3,53.273,M,-12.686,M,,*72
$GPGGA,102711.00,3030.67084280,N,11424.06158695,E,1,11,2.3,53.241,M,-12.686,M,,*7B
$GPGGA,102712.00,3030.67085608,N,11424.06159231,E,1,11,2.3,53.213,M,-12.686,M,,*71
$GPGGA,102713.00,3030.67087201,N,11424.06159852,E,1,11,2.3,53.183,M,-12.686,M,,*7A
$GPGGA,102714.00,3030.67088364,N,11424.06160846,E,1,11,2.3,53.157,M,-12.686,M,,*76
$GPGGA,102715.00,3030.67089648,N,11424.06161488,E,1,11,2.3,53.133,M,-12.686,M,,*70
$GPGGA,102716.00,3030.67091166,N,11424.06162034,E,1,11,2.3,53.104,M,-12.686,M,,*75
$GPGGA,102717.00,3030.67092877,N,11424.06163077,E,1,11,2.3,53.085,M,-12.686,M,,*70
$GPGGA,102718.00,3030.67095026,N,11424.06163628,E,1,11,2.3,53.049,M,-12.686,M,,*78
$GPGGA,102719.00,3030.67096581,N,11424.06164155,E,1,11,2.3,53.014,M,-12.686,M,,*70
$GPGGA,102720.00,3030.67098232,N,11424.06164888,E,1,11,2.3,52.982,M,-12.686,M,,*75
$GPGGA,102721.00,3030.67099262,N,11424.06165707,E,1,11,2.3,52.955,M,-12.686,M,,*73
$GPGGA,102722.00,3030.67100581,N,11424.06166462,E,1,11,2.3,52.938,M,-12.686,M,,*73
$GPGGA,102723.00,3030.67102038,N,11424.06167356,E,1,11,2.3,52.905,M,-12.686,M,,*78
$GPGGA,102724.00,3030.67102252,N,11424.06168207,E,1,11,2.3,52.898,M,-12.686,M,,*7E
$GPGGA,102725.00,3030.67103618,N,11424.06169061,E,1,11,2.3,52.865,M,-12.686,M,,*75
$GPGGA,102726.00,3030.67104963,N,11424.06170030,E,1,11,2.3,52.838,M,-12.686,M,,*76
$GPGGA,102727.00,3030.67107310,N,11424.06170649,E,1,11,2.3,52.802,M,-12.686,M,,*7B
$GPGGA,102728.00,3030.67109031,N,11424.06171388,E,1,11,2.3,52.773,M,-12.686,M,,*7A
$GPGGA,102729.00,3030.67110163,N,11424.06172324,E,1,11,2.3,52.747,M,-12.686,M,,*77
$GPGGA,102730.00,3030.67113340,N,11424.06172435,E,1,11,2.3,52.687,M,-12.686,M,,*75
$GPGGA,102731.00,3030.67114094,N,11424.06173456,E,1,11,2.3,52.667,M,-12.686,M,,*73
$GPGGA,102732.00,3030.67115333,N,11424.06174207,E,1,11,2.3,52.654,M,-12.686,M,,*7A
$GPGGA,102733.00,3030.67117268,N,11424.06175110,E,1,11,2.3,52.617,M,-12.686,M,,*75
$GPGGA,102734.00,3030.67119298,N,11424.06176117,E,1,11,2.3,52.584,M,-12.686,M,,*7E
$GPGGA,102735.00,3030.67121427,N,11424.06176956,E,1,11,2.3,52.541,M,-12.686,M,,*72
$GPGGA,102736.00,3030.67123552,N,11424.06177802,E,1,11,2.3,52.505,M,-12.686,M,,*71
$GPGGA,102737.00,3030.67125105,N,11424.06178618,E,1,11,2.3,52.483,M,-12.686,M,,*75
$GPGGA,102738.00,3030.67126623,N,11424.06179454,E,1,11,2.3,52.452,M,-12.686,M,,*7D
$GPGGA,102739.00,3030.67128412,N,11424.06180269,E,1,11,2.3,52.416,M,-12.686,M,,*7C
$GPGGA,102740.00,3030.67129579,N,11424.06181007,E,1,11,2.3,52.382,M,-12.686,M,,*7E
$GPGGA,102741.00,3030.67130278,N,11424.06181858,E,1,11,2.3,52.374,M,-12.686,M,,*7A
$GPGGA,102742.00,3030.67132300,N,11424.06182789,E,1,11,2.3,52.342,M,-12.686,M,,*70
$GPGGA,102743.00,3030.67133701,N,11424.06183566,E,1,11,2.3,52.319,M,-12.686,M,,*79
$GPGGA,102744.00,3030.67134411,N,11424.06184581,E,1,11,2.3,52.306,M,-12.686,M,,*7B
$GPGGA,102745.00,3030.67136502,N,11424.06185313,E,1,11,2.3,52.263,M,-12.686,M,,*75
$GPGGA,102746.00,3030.67137877,N,11424.06186292,E,1,11,2.3,52.237,M,-12.686,M,,*72
$GPGGA,102747.00,3030.67139831,N,11424.06187021,E,1,11,2.3,52.203,M,-12.686,M,,*73
$GPGGA,102748.00,3030.67140573,N,11424.06187683,E,1,11,2.3,52.184,M,-12.686,M,,*7B
$GPGGA,102749.00,3030.67142076,N,11424.06188544,E,1,11,2.3,52.161,M,-12.686,M,,*74
$GPGGA,102750.00,3030.67144037,N,11424.06189410,E,1,11,2.3,52.123,M,-12.686,M,,*78
$GPGGA,102751.00,3030.67145796,N,11424.06190541,E,1,11,2.3,52.090,M,-12.686,M,,*70
$GPGGA,102752.00,3030.67147303,N,11424.06191793,E,1,11,2.3,52.058,M,-12.686,M,,*71
$GPGGA,102753.00,3030.67147203,N,11424.06192966,E,1,11,2.3,52.056,M,-12.686,M,,*78
$GPGGA,102754.00,3030.67148072,N,11424.06193914,E,1,11,2.3,52.036,M,-12.686,M,,*76
$GPGGA,102755.00,3030.67148620,N,11424.06194640,E,1,11,2.3,52.023,M,-12.686,M,,*7B
$GPGGA,102756.00,3030.67149052,N,11424.06195181,E,1,11,2.3,52.010,M,-12.686,M,,*71
$GPGGA,102757.00,3030.67150429,N,11424.06195063,E,1,11,2.3,51.976,M,-12.686,M,,*77
$GPGGA,102758.00,3030.67151775,N,11424.06195595,E,1,11,2.3,51.964,M,-12.686,M,,*7C
$GPGGA,102759.00,3030.67152881,N,11424.06195987,E,1,10,3.8,51.933,M,-12.686,M,,*7C
$GPGGA,102800.00,3030.67153714,N,11424.06196549,E,1,10,3.8,51.921,M,-12.686,M,,*73
$GPGGA,102801.00,3030.67155674,N,11424.06196179,E,1,11,3.8,51.881,M,-12.686,M,,*7E
$GPGGA,102802.00,3030.67156554,N,11424.06196337,E,1,11,3.8,51.855,M,-12.686,M,,*7E
$GPGGA,102803.00,3030.67156514,N,11424.06196488,E,1,11,3.8,51.868,M,-12.686,M,,*76
$GPGGA,102804.00,3030.67156553,N,11424.06196767,E,1,11,3.8,51.867,M,-12.686,M,,*7F
$GPGGA,102805.00,3030.67156291,N,11424.06196921,E,1,11,3.8,51.875,M,-12.686,M,,*78
$GPGGA,102806.00,3030.67156098,N,11424.06197279,E,1,11,3.8,51.880,M,-12.686,M,,*7D
$GPGGA,102807.00,3030.67155694,N,11424.06197507,E,1,11,3.8,51.890,M,-12.686,M,,*7A
$GPGGA,102808.00,3030.67156149,N,11424.06197007,E,1,11,3.8,51.896,M,-12.686,M,,*72
$GPGGA,102809.00,3030.67155140,N,11424.06197473,E,1,11,3.8,51.919,M,-12.686,M,,*78
$GPGGA,102810.00,3030.67155092,N,11424.06197636,E,1,11,3.8,51.917,M,-12.686,M,,*73
$GPGGA,102811.00,3030.67155651,N,11424.06197731,E,1,11,3.8,51.902,M,-12.686,M,,*79
$GPGGA,102812.00,3030.67155675,N,11424.06197751,E,1,11,3.8,51.904,M,-12.686,M,,*7C
$GPGGA,102813.00,3030.67154883,N,11424.06198132,E,1,11,3.8,51.916,M,-12.686,M,,*74
$GPGGA,102814.00,3030.67154173,N,11424.06198480,E,1,11,3.8,51.934,M,-12.686,M,,*79
$GPGGA,102815.00,3030.67153438,N,11424.06198621,E,1,11,3.8,51.949,M,-12.686,M,,*76
$GPGGA,102816.00,3030.67154032,N,11424.06198758,E,1,11,3.8,51.945,M,-12.686,M,,*7F
$GPGGA,102817.00,3030.67152898,N,11424.06199173,E,1,11,3.8,51.961,M,-12.686,M,,*78
$GPGGA,102818.00,3030.67153636,N,11424.06199294,E,1,11,3.8,51.968,M,-12.686,M,,*7F
$GPGGA,102819.00,3030.67153553,N,11424.06199203,E,1,11,3.8,51.972,M,-12.686,M,,*7B
$GPGGA,102820.00,3030.67154202,N,11424.06199119,E,1,11,3.8,51.960,M,-12.686,M,,*7E
$GPGGA,102821.00,3030.67153806,N,11424.06199401,E,1,11,3.8,51.967,M,-12.686,M,,*7D
$GPGGA,102822.00,3030.67153720,N,11424.06199446,E,1,11,3.8,51.965,M,-12.686,M,,*74
$GPGGA,102823.00,3030.67154130,N,11424.06199732,E,1,11,3.8,51.958,M,-12.686,M,,*7B
$GPGGA,102824.00,3030.67154824,N,11424.06199445,E,1,11,3.8,51.942,M,-12.686,M,,*78
$GPGGA,102825.00,3030.67155742,N,11424.06199117,E,1,11,3.8,51.924,M,-12.686,M,,*75
$GPGGA,102826.00,3030.67156532,N,11424.06199271,E,1,11,3.8,51.906,M,-12.686,M,,*73
$GPGGA,102827.00,3030.67156793,N,11424.06199205,E,1,11,3.8,51.899,M,-12.686,M,,*7F
$GPGGA,102828.00,3030.67157219,N,11424.06199151,E,1,11,3.8,51.898,M,-12.686,M,,*75
$GPGGA,102829.00,3030.67157498,N,11424.06199084,E,1,11,3.8,51.888,M,-12.686,M,,*73
$GPGGA,102830.00,3030.67158523,N,11424.06199307,E,1,11,3.8,51.867,M,-12.686,M,,*7C
$GPGGA,102831.00,3030.67159700,N,11424.06199463,E,1,11,3.8,51.846,M,-12.686,M,,*79
$GPGGA,102832.00,3030.67161682,N,11424.06198953,E,1,11,3.8,51.809,M,-12.686,M,,*7E
$GPGGA,102833.00,3030.67162121,N,11424.06198977,E,1,11,3.8,51.799,M,-12.686,M,,*72
$GPGGA,102834.00,3030.67162791,N,11424.06198911,E,1,11,3.8,51.790,M,-12.686,M,,*71
$GPGGA,102835.00,3030.67163833,N,11424.06198919,E,1,11,3.8,51.766,M,-12.686,M,,*77
$GPGGA,102836.00,3030.67165062,N,11424.06198862,E,1,11,3.8,51.744,M,-12.686,M,,*73
$GPGGA,102837.00,3030.67166102,N,11424.06198573,E,1,11,3.8,51.732,M,-12.686,M,,*7A
$GPGGA,102838.00,3030.67166181,N,11424.06198604,E,1,11,3.8,51.729,M,-12.686,M,,*77
$GPGGA,102839.00,3030.67167626,N,11424.06198433,E,1,11,3.8,51.713,M,-12.686,M,,*72
$GPGGA,102840.00,3030.67167193,N,11424.06198518,E,1,11,3.8,51.720,M,-12.686,M,,*7D
$GPGGA,102841.00,3030.67166910,N,11424.06198571,E,1,11,3.8,51.721,M,-12.686,M,,*70
$GPGGA,102842.00,3030.67168149,N,11424.06198510,E,1,11,3.8,51.695,M,-12.686,M,,*70
$GPGGA,102843.00,3030.67167665,N,11424.06198522,E,1,11,3.8,51.697,M,-12.686,M,,*74
$GPGGA,102844.00,3030.67168142,N,11424.06198539,E,1,11,3.8,51.692,M,-12.686,M,,*71
$GPGGA,102845.00,3030.67167955,N,11424.06198668,E,1,11,3.8,51.701,M,-12.686,M,,*7D
$GPGGA,102846.00,3030.67167242,N,11424.06198896,E,1,11,3.8,51.709,M,-12.686,M,,*74
$GPGGA,102847.00,3030.67167394,N,11424.06198772,E,1,11,3.8,51.703,M,-12.686,M,,*70
$GPGGA,102848.00,3030.67168510,N,11424.06198653,E,1,11,3.8,51.692,M,-12.686,M,,*71
$GPGGA,102849.00,3030.67168839,N,11424.06198571,E,1,11,3.8,51.694,M,-12.686,M,,*73
$GPGGA,102850.00,3030.67169412,N,11424.06197873,E,1,11,3.8,51.680,M,-12.686,M,,*7A
$GPGGA,102851.00,3030.67169079,N,11424.06197858,E,1,11,3.8,51.686,M,-12.686,M,,*7D
$GPGGA,102852.00,3030.67169146,N,11424.06197943,E,1,11,3.8,51.684,M,-12.686,M,,*7A
$GPGGA,102853.00,3030.67169650,N,11424.06197659,E,1,11,3.8,51.679,M,-12.686,M,,*7D
$GPGGA,102854.00,3030.67169512,N,11424.06197662,E,1,11,3.8,51.679,M,-12.686,M,,*77
$GPGGA,102855.00,3030.67170128,N,11424.06197533,E,1,11,3.8,51.678,M,-12.686,M,,*75
$GPGGA,102856.00,3030.67170193,N,11424.06197330,E,1,11,3.8,51.675,M,-12.686,M,,*7E
$GPGGA,102857.00,3030.67170663,N,11424.06196941,E,1,11,3.8,51.668,M,-12.686,M,,*76
$GPGGA,102858.00,3030.67171487,N,11424.06196582,E,1,11,3.8,51.659,M,-12.686,M,,*71
$GPGGA,102859.00,3030.67171769,N,11424.06196597,E,1,11,3.8,51.655,M,-12.686,M,,*7B
$GPGGA,102900.00,3030.67172431,N,11424.06196313,E,1,11,3.8,51.650,M,-12.686,M,,*74
$GPGGA,102901.00,3030.67173624,N,11424.06196029,E,1,11,3.8,51.630,M,-12.686,M,,*7E
$GPGGA,102902.00,3030.67174455,N,11424.06195612,E,1,11,3.8,51.614,M,-12.686,M,,*75
$GPGGA,102903.00,3030.67175141,N,11424.06195371,E,1,11,3.8,51.599,M,-12.686,M,,*73
$GPGGA,102904.00,3030.67175158,N,11424.06195304,E,1,11,3.8,51.594,M,-12.686,M,,*73
$GPGGA,102905.00,3030.67175205,N,11424.06195283,E,1,11,3.8,51.607,M,-12.686,M,,*7E
$GPGGA,102906.00,3030.67176069,N,11424.06195193,E,1,11,3.8,51.587,M,-12.686,M,,*7F
$GPGGA,102907.00,3030.67176635,N,11424.06194903,E,1,11,3.8,51.568,M,-12.686,M,,*70
$GPGGA,102908.00,3030.67176970,N,11424.06194674,E,1,11,3.8,51.563,M,-12.686,M,,*75
$GPGGA,102909.00,3030.67177381,N,11424.06194573,E,1,11,3.8,51.551,M,-12.686,M,,*74
$GPGGA,102910.00,3030.67175442,N,11424.06194719,E,1,11,3.8,51.595,M,-12.686,M,,*70
$GPGGA,102911.00,3030.67175745,N,11424.06194662,E,1,11,3.8,51.598,M,-12.686,M,,*75
$GPGGA,102912.00,3030.67175794,N,11424.06194504,E,1,11,3.8,51.597,M,-12.686,M,,*76
$GPGGA,102913.00,3030.67176117,N,11424.06194358,E,1,11,3.8,51.585,M,-12.686,M,,*75
$GPGGA,102914.00,3030.67175957,N,11424.06194235,E,1,11,3.8,51.591,M,-12.686,M,,*72
$GPGGA,102915.00,3030.67176407,N,11424.06194330,E,1,11,3.8,51.585,M,-12.686,M,,*79
$GPGGA,102916.00,3030.67176553,N,11424.06193948,E,1,11,3.8,51.579,M,-12.686,M,,*7B
$GPGGA,102917.00,3030.67176379,N,11424.06194143,E,1,11,3.8,51.592,M,-12.686,M,,*75
$GPGGA,102918.00,3030.67176700,N,11424.06193901,E,1,11,3.8,51.593,M,-12.686,M,,*78
$GPGGA,102919.00,3030.67177100,N,11424.06193794,E,1,11,3.8,51.580,M,-12.686,M,,*7E
$GPGGA,102920.00,3030.67177798,N,11424.06193699,E,1,11,3.8,51.569,M,-12.686,M,,*78
$GPGGA,102921.00,3030.67178909,N,11424.06193336,E,1,11,3.8,51.560,M,-12.686,M,,*79
$GPGGA,102922.00,3030.67178993,N,11424.06193269,E,1,11,3.8,51.553,M,-12.686,M,,*72
$GPGGA,102923.00,3030.67180263,N,11424.06192868,E,1,11,3.8,51.537,M,-12.686,M,,*78
$GPGGA,102924.00,3030.67180519,N,11424.06192463,E,1,11,3.8,51.524,M,-12.686,M,,*70
$GPGGA,102925.00,3030.67182144,N,11424.06191989,E,1,11,3.8,51.491,M,-12.686,M,,*7A
$GPGGA,102926.00,3030.67182259,N,11424.06191676,E,1,11,3.8,51.501,M,-12.686,M,,*71
$GPGGA,102927.00,3030.67182578,N,11424.06191438,E,1,11,3.8,51.495,M,-12.686,M,,*70
$GPGGA,102928.00,3030.67182701,N,11424.06191166,E,1,11,3.8,51.503,M,-12.686,M,,*73
$GPGGA,102929.00,3030.67183495,N,11424.06190495,E,1,11,3.8,51.476,M,-12.686,M,,*76
$GPGGA,102930.00,3030.67184730,N,11424.06189808,E,1,11,3.8,51.471,M,-12.686,M,,*72
$GPGGA,102931.00,3030.67184858,N,11424.06189498,E,1,11,3.8,51.471,M,-12.686,M,,*77
$GPGGA,102932.00,3030.67185592,N,11424.06188903,E,1,11,3.8,51.455,M,-12.686,M,,*76
$GPGGA,102933.00,3030.67185944,N,11424.06188673,E,1,11,3.8,51.439,M,-12.686,M,,*72
$GPGGA,102934.00,3030.67187040,N,11424.06188392,E,1,11,3.8,51.416,M,-12.686,M,,*7D
$GPGGA,102935.00,3030.67187304,N,11424.06188220,E,1,11,3.8,51.412,M,-12.686,M,,*73
$GPGGA,102936.00,3030.67189153,N,11424.06187689,E,1,11,3.8,51.386,M,-12.686,M,,*7C
$GPGGA,102937.00,3030.67189089,N,11424.06187240,E,1,11,3.8,51.388,M,-12.686,M,,*74
$GPGGA,102938.00,3030.67189755,N,11424.06186935,E,1,11,3.8,51.370,M,-12.686,M,,*72
$GPGGA,102939.00,3030.67189680,N,11424.06186682,E,1,11,3.8,51.367,M,-12.686,M,,*7F
$GPGGA,102940.00,3030.67189525,N,11424.06186569,E,1,11,3.8,51.372,M,-12.686,M,,*7F
$GPGGA,102941.00,3030.67190803,N,11424.06186014,E,1,11,3.8,51.351,M,-12.686,M,,*71
$GPGGA,102942.00,3030.67191951,N,11424.06185622,E,1,11,3.8,51.343,M,-12.686,M,,*76
$GPGGA,102943.00,3030.67192930,N,11424.06185043,E,1,11,3.8,51.326,M,-12.686,M,,*71
$GPGGA,102944.00,3030.67192756,N,11424.06185210,E,1,11,3.8,51.325,M,-12.686,M,,*7F
$GPGGA,102945.00,3030.67192182,N,11424.06185339,E,1,11,3.8,51.332,M,-12.686,M,,*7D
$GPGGA,102946.00,3030.67191775,N,11424.06184641,E,1,11,3.8,51.339,M,-12.686,M,,*73
$GPGGA,102947.00,3030.67181998,N,11424.06180571,E,1,11,3.8,51.527,M,-12.686,M,,*73
$GPGGA,102948.00,3030.67172788,N,11424.06176768,E,1,11,3.8,51.708,M,-12.686,M,,*73
$GPGGA,102949.00,3030.67164160,N,11424.06172851,E,1,11,3.8,51.866,M,-12.686,M,,*73
$GPGGA,102950.00,3030.67156091,N,11424.06169222,E,1,11,3.8,52.022,M,-12.686,M,,*7A
$GPGGA,102951.00,3030.67149998,N,11424.06165681,E,1,11,3.8,52.133,M,-12.686,M,,*75
$GPGGA,102952.00,3030.67144829,N,11424.06162987,E,1,11,3.8,52.236,M,-12.686,M,,*78
$GPGGA,102953.00,3030.67139815,N,11424.06160102,E,1,11,3.9,52.326,M,-12.686,M,,*7A
$GPGGA,102954.00,3030.67135155,N,11424.06157333,E,1,11,3.9,52.414,M,-12.686,M,,*7E
$GPGGA,102955.00,3030.67130841,N,11424.06154878,E,1,11,3.9,52.494,M,-12.686,M,,*79
$GPGGA,102956.00,3030.67127226,N,11424.06152765,E,1,11,3.9,52.561,M,-12.686,M,,*79
$GPGGA,102957.00,3030.67124288,N,11424.06150747,E,1,11,3.9,52.617,M,-12.686,M,,*7F
$GPGGA,102958.00,3030.67122042,N,11424.06148540,E,1,11,3.9,52.661,M,-12.686,M,,*7F
$GPGGA,102959.00,3030.67120578,N,11424.06147065,E,1,11,3.9,52.695,M,-12.686,M,,*76
$GPGGA,103000.00,3030.67117751,N,11424.06145440,E,1,11,3.9,52.744,M,-12.686,M,,*73
$GPGGA,103001.00,3030.67115905,N,11424.06144205,E,1,11,3.9,52.781,M,-12.686,M,,*70
$GPGGA,103002.00,3030.67114990,N,11424.06142788,E,1,11,3.9,52.800,M,-12.686,M,,*7E
$GPGGA,103003.00,3030.67114003,N,11424.06141588,E,1,11,3.9,52.823,M,-12.686,M,,*7C
$GPGGA,103004.00,3030.67113307,N,11424.06140346,E,1,11,3.9,52.841,M,-12.686,M,,*7A
$GPGGA,103005.00,3030.67113041,N,11424.06138912,E,1,11,3.9,52.847,M,-12.686,M,,*78
$GPGGA,103006.00,3030.67112297,N,11424.06138000,E,1,11,3.9,52.860,M,-12.686,M,,*7C
$GPGGA,103007.00,3030.67112530,N,11424.06136974,E,1,11,3.9,52.857,M,-12.686,M,,*77
$GPGGA,103008.00,3030.67113448,N,11424.06136045,E,1,11,3.9,52.840,M,-12.686,M,,*7A
$GPGGA,103009.00,3030.67113299,N,11424.06135223,E,1,11,3.9,52.839,M,-12.686,M,,*7E
$GPGGA,103010.00,3030.67112697,N,11424.06134875,E,1,12,2.3,52.849,M,-12.686,M,,*7A
$GPGGA,103011.00,3030.67112601,N,11424.06134377,E,1,12,2.3,52.845,M,-12.686,M,,*71
$GPGGA,103012.00,3030.67112968,N,11424.06133928,E,1,12,2.3,52.843,M,-12.686,M,,*73
$GPGGA,103013.00,3030.67113111,N,11424.06133245,E,1,12,2.3,52.833,M,-12.686,M,,*72
$GPGGA,103014.00,3030.67114176,N,11424.06133086,E,1,12,2.3,52.821,M,-12.686,M,,*7D
$GPGGA,103015.00,3030.67114313,N,11424.06133147,E,1,12,2.3,52.824,M,-12.686,M,,*74
$GPGGA,103016.00,3030.67113863,N,11424.06133163,E,1,12,2.3,52.829,M,-12.686,M,,*77
$GPGGA,103017.00,3030.67114601,N,11424.06133179,E,1,12,2.3,52.818,M,-12.686,M,,*72
$GPGGA,103018.00,3030.67115587,N,11424.06133342,E,1,12,2.3,52.812,M,-12.686,M,,*71
$GPGGA,103019.00,3030.67116737,N,11424.06133423,E,1,12,2.3,52.795,M,-12.686,M,,*7A
$GPGGA,103020.00,3030.67117739,N,11424.06133227,E,1,12,2.3,52.779,M,-12.686,M,,*7F
$GPGGA,103021.00,3030.67119802,N,11424.06132978,E,1,12,2.3,52.741,M,-12.686,M,,*7C
$GPGGA,103022.00,3030.67121544,N,11424.06132804,E,1,12,2.3,52.710,M,-12.686,M,,*75
$GPGGA,103023.00,3030.67123287,N,11424.06132810,E,1,12,2.3,52.675,M,-12.686,M,,*79
$GPGGA,103024.00,3030.67124262,N,11424.06132887,E,1,12,2.3,52.658,M,-12.686,M,,*73
$GPGGA,103025.00,3030.67125020,N,11424.06133366,E,1,12,2.3,52.644,M,-12.686,M,,*7F
$GPGGA,103026.00,3030.67126184,N,11424.06134081,E,1,12,2.3,52.624,M,-12.686,M,,*7B
$GPGGA,103027.00,3030.67127045,N,11424.06134457,E,1,12,2.3,52.613,M,-12.686,M,,*7C
$GPGGA,103028.00,3030.67128524,N,11424.06134428,E,1,12,2.3,52.586,M,-12.686,M,,*79
$GPGGA,103029.00,3030.67129080,N,11424.06134615,E,1,12,2.3,52.575,M,-12.686,M,,*72
$GPGGA,103030.00,3030.67131240,N,11424.06134788,E,1,12,2.3,52.535,M,-12.686,M,,*7C
$GPGGA,103031.00,3030.67133240,N,11424.06135006,E,1,12,2.3,52.499,M,-12.686,M,,*78
$GPGGA,103032.00,3030.67135004,N,11424.06135136,E,1,12,2.3,52.462,M,-12.686,M,,*79
$GPGGA,103033.00,3030.67135834,N,11424.06135304,E,1,12,2.3,52.447,M,-12.686,M,,*77
$GPGGA,103034.00,3030.67137810,N,11424.06135569,E,1,12,2.3,52.407,M,-12.686,M,,*7D
$GPGGA,103035.00,3030.67139247,N,11424.06135905,E,1,12,2.3,52.383,M,-12.686,M,,*77
$GPGGA,103036.00,3030.67141086,N,11424.06136357,E,1,12,2.3,52.354,M,-12.686,M,,*70
$GPGGA,103037.00,3030.67142609,N,11424.06136433,E,1,12,2.3,52.321,M,-12.686,M,,*74
$GPGGA,103038.00,3030.67144224,N,11424.06136801,E,1,12,2.3,52.299,M,-12.686,M,,*79
$GPGGA,103039.00,3030.67145761,N,11424.06137277,E,1,12,2.3,52.270,M,-12.686,M,,*70
$GPGGA,103040.00,3030.67146790,N,11424.06137744,E,1,12,2.3,52.251,M,-12.686,M,,*75
$GPGGA,103041.00,3030.67148009,N,11424.06138131,E,1,12,2.3,52.238,M,-12.686,M,,*79
$GPGGA,103042.00,3030.67148537,N,11424.06138759,E,1,12,2.3,52.226,M,-12.686,M,,*75
$GPGGA,103043.00,3030.67150190,N,11424.06139388,E,1,12,2.3,52.195,M,-12.686,M,,*76
$GPGGA,103044.00,3030.67151284,N,11424.06139793,E,1,12,2.3,52.169,M,-12.686,M,,*7B
$GPGGA,103045.00,3030.67153662,N,11424.06140206,E,1,12,2.3,52.129,M,-12.686,M,,*77
$GPGGA,103046.00,3030.67155947,N,11424.06140685,E,1,12,2.3,52.088,M,-12.686,M,,*7F
$GPGGA,103047.00,3030.67157576,N,11424.06140935,E,1,12,2.3,52.055,M,-12.686,M,,*76
$GPGGA,103048.00,3030.67159175,N,11424.06141558,E,1,12,2.3,52.026,M,-12.686,M,,*72
$GPGGA,103049.00,3030.67155981,N,11424.06139589,E,1,12,2.3,52.093,M,-12.686,M,,*71
$GPGGA,103050.00,3030.67152209,N,11424.06137539,E,1,12,2.3,52.163,M,-12.686,M,,*7E
$GPGGA,103051.00,3030.67149240,N,11424.06135702,E,1,12,2.3,52.221,M,-12.686,M,,*75
$GPGGA,103052.00,3030.67146843,N,11424.06134108,E,1,12,2.3,52.276,M,-12.686,M,,*7F
$GPGGA,103053.00,3030.67144715,N,11424.06132363,E,1,12,2.3,52.314,M,-12.686,M,,*7C
$GPGGA,103054.00,3030.67143101,N,11424.06130958,E,1,12,2.3,52.345,M,-12.686,M,,*7B
$GPGGA,103055.00,3030.67141523,N,11424.06129870,E,1,12,2.3,52.383,M,-12.686,M,,*75
$GPGGA,103056.00,3030.67139804,N,11424.06128759,E,1,12,2.3,52.413,M,-12.686,M,,*7A
$GPGGA,103057.00,3030.67137745,N,11424.06127879,E,1,12,2.3,52.450,M,-12.686,M,,*7A
$GPGGA,103058.00,3030.67136255,N,11424.06127168,E,1,12,2.3,52.487,M,-12.686,M,,*73
$GPGGA,103059.00,3030.67135497,N,11424.06126313,E,1,12,2.3,52.501,M,-12.686,M,,*79
$GPGGA,103100.00,3030.67135069,N,11424.06125465,E,1,12,2.3,52.516,M,-12.686,M,,*72
$GPGGA,103101.00,3030.67134660,N,11424.06124480,E,1,12,2.3,52.525,M,-12.686,M,,*77
$GPGGA,103102.00,3030.67134406,N,11424.06123640,E,1,12,2.3,52.529,M,-12.686,M,,*73
$GPGGA,103103.00,3030.67133931,N,11424.06123006,E,1,12,2.3,52.540,M,-12.686,M,,*77
$GPGGA,103104.00,3030.67133781,N,11424.06122563,E,1,12,2.3,52.547,M,-12.686,M,,*75
$GPGGA,103105.00,3030.67133697,N,11424.06121820,E,1,12,2.3,52.547,M,-12.686,M,,*7B
$GPGGA,103106.00,3030.67133562,N,11424.06121219,E,1,12,2.3,52.562,M,-12.686,M,,*76
$GPGGA,103107.00,3030.67133554,N,11424.06121230,E,1,11,2.5,52.575,M,-12.686,M,,*7A
$GPGGA,103108.00,3030.67133349,N,11424.06120623,E,1,11,2.5,52.578,M,-12.686,M,,*75
$GPGGA,103109.00,3030.67135129,N,11424.06119885,E,1,11,2.5,52.552,M,-12.686,M,,*76
$GPGGA,103110.00,3030.67136003,N,11424.06119020,E,1,11,2.5,52.535,M,-12.686,M,,*72
$GPGGA,103111.00,3030.67137018,N,11424.06118236,E,1,11,2.5,52.512,M,-12.686,M,,*79
$GPGGA,103112.00,3030.67137362,N,11424.06117823,E,1,11,2.5,52.503,M,-12.686,M,,*75
$GPGGA,103113.00,3030.67138373,N,11424.06116887,E,1,11,2.5,52.484,M,-12.686,M,,*7A
$GPGGA,103114.00,3030.67138840,N,11424.06116379,E,1,11,2.5,52.475,M,-12.686,M,,*72
$GPGGA,103115.00,3030.67139775,N,11424.06115764,E,1,11,2.5,52.463,M,-12.686,M,,*77
$GPGGA,103116.00,3030.67138700,N,11424.06115802,E,1,11,2.5,52.480,M,-12.686,M,,*75
$GPGGA,103117.00,3030.67137296,N,11424.06116139,E,1,11,2.5,52.506,M,-12.686,M,,*7C
$GPGGA,103118.00,3030.67136410,N,11424.06115925,E,1,11,2.5,52.518,M,-12.686,M,,*73
$GPGGA,103119.00,3030.67137092,N,11424.06115893,E,1,11,2.5,52.516,M,-12.686,M,,*7F
$GPGGA,103120.00,3030.67136765,N,11424.06115351,E,1,12,2.3,52.516,M,-12.686,M,,*7B
$GPGGA,103121.00,3030.67136085,N,11424.06115336,E,1,12,2.3,52.524,M,-12.686,M,,*73
$GPGGA,103122.00,3030.67135355,N,11424.06115591,E,1,12,2.3,52.545,M,-12.686,M,,*71
$GPGGA,103123.00,3030.67135264,N,11424.06115529,E,1,12,2.3,52.542,M,-12.686,M,,*77
$GPGGA,103124.00,3030.67135359,N,11424.06115222,E,1,12,2.3,52.544,M,-12.686,M,,*75
$GPGGA,103125.00,3030.67134989,N,11424.06115487,E,1,11,2.5,52.560,M,-12.686,M,,*78
$GPGGA,103126.00,3030.67134762,N,11424.06115324,E,1,11,2.5,52.560,M,-12.686,M,,*7E
$GPGGA,103127.00,3030.67134898,N,11424.06115418,E,1,11,2.5,52.557,M,-12.686,M,,*79
$GPGGA,103128.00,3030.67135576,N,11424.06115358,E,1,11,2.5,52.543,M,-12.686,M,,*7C
$GPGGA,103129.00,3030.67136643,N,11424.06114965,E,1,11,2.5,52.527,M,-12.686,M,,*7C
$GPGGA,103130.00,3030.67137654,N,11424.06114864,E,1,11,2.5,52.511,M,-12.686,M,,*76
$GPGGA,103131.00,3030.67139074,N,11424.06114431,E,1,11,2.5,52.491,M,-12.686,M,,*78
$GPGGA,103132.00,3030.67139628,N,11424.06114483,E,1,11,2.5,52.478,M,-12.686,M,,*7A
$GPGGA,103133.00,3030.67140257,N,11424.06114244,E,1,11,2.5,52.466,M,-12.686,M,,*7B
$GPGGA,103134.00,3030.67142035,N,11424.06113928,E,1,11,2.5,52.441,M,-12.686,M,,*7B
$GPGGA,103135.00,3030.67142212,N,11424.06114587,E,1,11,2.5,52.437,M,-12.686,M,,*72
$GPGGA,103136.00,3030.67142768,N,11424.06114837,E,1,11,2.5,52.422,M,-12.686,M,,*7B
$GPGGA,103137.00,3030.67144093,N,11424.06114475,E,1,11,2.5,52.391,M,-12.686,M,,*7A
$GPGGA,103138.00,3030.67145376,N,11424.06114678,E,1,12,2.3,52.370,M,-12.686,M,,*79
$GPGGA,103139.00,3030.67145614,N,11424.06115297,E,1,12,2.3,52.369,M,-12.686,M,,*75
$GPGGA,103140.00,3030.67145527,N,11424.06115993,E,1,12,2.3,52.365,M,-12.686,M,,*7B
$GPGGA,103141.00,3030.67145300,N,11424.06117038,E,1,12,2.3,52.373,M,-12.686,M,,*74
$GPGGA,103142.00,3030.67144891,N,11424.06117744,E,1,12,2.3,52.379,M,-12.686,M,,*73
$GPGGA,103143.00,3030.67144424,N,11424.06118647,E,1,12,2.3,52.402,M,-12.686,M,,*76
$GPGGA,103144.00,3030.67143886,N,11424.06119371,E,1,12,2.3,52.405,M,-12.686,M,,*74
$GPGGA,103145.00,3030.67143668,N,11424.06120440,E,1,12,2.3,52.414,M,-12.686,M,,*74
$GPGGA,103146.00,3030.67143555,N,11424.06121155,E,1,12,2.3,52.407,M,-12.686,M,,*78
$GPGGA,103147.00,3030.67144554,N,11424.06121450,E,1,12,2.3,52.394,M,-12.686,M,,*72
$GPGGA,103148.00,3030.67144999,N,11424.06122067,E,1,12,2.3,52.383,M,-12.686,M,,*75
$GPGGA,103149.00,3030.67146088,N,11424.06122579,E,1,11,3.9,52.369,M,-12.686,M,,*79
$GPGGA,103150.00,3030.67147718,N,11424.06123016,E,1,11,3.9,52.338,M,-12.686,M,,*77
$GPGGA,103151.00,3030.67148817,N,11424.06123742,E,1,11,3.9,52.324,M,-12.686,M,,*72
$GPGGA,103152.00,3030.67149565,N,11424.06124572,E,1,11,3.9,52.307,M,-12.686,M,,*7F
$GPGGA,103153.00,3030.67151609,N,11424.06124969,E,1,11,3.9,52.277,M,-12.686,M,,*7E
$GPGGA,103154.00,3030.67152957,N,11424.06125566,E,1,11,3.9,52.251,M,-12.686,M,,*78
$GPGGA,103155.00,3030.67154913,N,11424.06125861,E,1,11,3.9,52.217,M,-12.686,M,,*77
$GPGGA,103156.00,3030.67157000,N,11424.06126161,E,1,11,3.9,52.185,M,-12.686,M,,*7E
$GPGGA,103157.00,3030.67159337,N,11424.06126649,E,1,11,3.9,52.143,M,-12.686,M,,*71
$GPGGA,103158.00,3030.67160996,N,11424.06127055,E,1,12,3.9,52.105,M,-12.686,M,,*7E
$GPGGA,103159.00,3030.67162268,N,11424.06127969,E,1,11,3.9,52.093,M,-12.686,M,,*7C
$GPGGA,103200.00,3030.67163974,N,11424.06128638,E,1,11,3.9,52.058,M,-12.686,M,,*77
$GPGGA,103201.00,3030.67165803,N,11424.06129024,E,1,11,3.9,52.031,M,-12.686,M,,*74
$GPGGA,103202.00,3030.67167465,N,11424.06129663,E,1,11,3.9,51.993,M,-12.686,M,,*7E
$GPGGA,103203.00,3030.67169074,N,11424.06130202,E,1,11,3.9,51.966,M,-12.686,M,,*74
$GPGGA,103204.00,3030.67170817,N,11424.06130903,E,1,11,3.9,51.940,M,-12.686,M,,*78
$GPGGA,103205.00,3030.67172449,N,11424.06131487,E,1,11,3.9,51.910,M,-12.686,M,,*79
$GPGGA,103206.00,3030.67174671,N,11424.06131732,E,1,11,3.9,51.868,M,-12.686,M,,*76
$GPGGA,103207.00,3030.67175489,N,11424.06132376,E,1,11,3.9,51.852,M,-12.686,M,,*7D
$GPGGA,103208.00,3030.67177705,N,11424.06132598,E,1,11,3.9,51.816,M,-12.686,M,,*71
$GPGGA,103209.00,3030.67179206,N,11424.06133503,E,1,11,3.9,51.802,M,-12.686,M,,*7E
$GPGGA,103210.00,3030.67179821,N,11424.06134213,E,1,11,3.9,51.794,M,-12.686,M,,*78
$GPGGA,103211.00,3030.67181600,N,11424.06134660,E,1,11,3.9,51.761,M,-12.686,M,,*79
$GPGGA,103212.00,3030.67183083,N,11424.06135326,E,1,11,3.9,51.739,M,-12.686,M,,*7E
$GPGGA,103213.00,3030.67184693,N,11424.06136037,E,1,11,3.9,51.710,M,-12.686,M,,*74
$GPGGA,103214.00,3030.67186773,N,11424.06136332,E,1,11,3.9,51.670,M,-12.686,M,,*7F
$GPGGA,103215.00,3030.67188514,N,11424.06136915,E,1,12,3.9,51.639,M,-12.686,M,,*72
$GPGGA,103216.00,3030.67190764,N,11424.06137296,E,1,12,3.9,51.596,M,-12.686,M,,*7A
$GPGGA,103217.00,3030.67192316,N,11424.06137697,E,1,11,3.9,51.569,M,-12.686,M,,*7E
$GPGGA,103218.00,3030.67193661,N,11424.06138419,E,1,11,3.9,51.542,M,-12.686,M,,*77
$GPGGA,103219.00,3030.67194084,N,11424.06139259,E,1,11,3.9,51.536,M,-12.686,M,,*7C
$GPGGA,103220.00,3030.67195454,N,11424.06139673,E,1,11,3.9,51.505,M,-12.686,M,,*72
$GPGGA,103221.00,3030.67196978,N,11424.06140076,E,1,11,3.9,51.474,M,-12.686,M,,*79
$GPGGA,103222.00,3030.67199155,N,11424.06140329,E,1,11,3.9,51.435,M,-12.686,M,,*7E
$GPGGA,103223.00,3030.67200413,N,11424.06141028,E,1,11,3.9,51.411,M,-12.686,M,,*7E
$GPGGA,103224.00,3030.67200655,N,11424.06141997,E,1,11,3.9,51.401,M,-12.686,M,,*75
$GPGGA,103225.00,3030.67201838,N,11424.06142543,E,1,11,3.9,51.379,M,-12.686,M,,*7E
$GPGGA,103226.00,3030.67203893,N,11424.06143357,E,1,11,3.9,51.345,M,-12.686,M,,*73
$GPGGA,103227.00,3030.67205575,N,11424.06143986,E,1,11,3.9,51.316,M,-12.686,M,,*71
$GPGGA,103228.00,3030.67208495,N,11424.06144331,E,1,11,3.9,51.272,M,-12.686,M,,*7E
$GPGGA,103229.00,3030.67211651,N,11424.06144706,E,1,11,3.9,51.220,M,-12.686,M,,*7A
$GPGGA,103230.00,3030.67212982,N,11424.06146003,E,1,12,3.9,51.194,M,-12.686,M,,*7F
$GPGGA,103231.00,3030.67215663,N,11424.06146467,E,1,12,3.9,51.146,M,-12.686,M,,*70
$GPGGA,103232.00,3030.67217288,N,11424.06147430,E,1,12,3.9,51.112,M,-12.686,M,,*72
$GPGGA,103233.00,3030.67219404,N,11424.06147855,E,1,12,3.9,51.065,M,-12.686,M,,*71
$GPGGA,103234.00,3030.67221290,N,11424.06148416,E,1,12,3.9,51.025,M,-12.686,M,,*76
$GPGGA,103235.00,3030.67222600,N,11424.06148990,E,1,12,3.9,51.002,M,-12.686,M,,*7F
$GPGGA,103236.00,3030.67223663,N,11424.06149802,E,1,12,3.9,50.987,M,-12.686,M,,*76
$GPGGA,103237.00,3030.67224777,N,11424.06150475,E,1,12,3.9,50.955,M,-12.686,M,,*7F
$GPGGA,103238.00,3030.67226446,N,11424.06151002,E,1,12,3.9,50.929,M,-12.686,M,,*7D
$GPGGA,103239.00,3030.67228511,N,11424.06151242,E,1,12,3.9,50.894,M,-12.686,M,,*70
$GPGGA,103240.00,3030.67231130,N,11424.06151561,E,1,12,3.9,50.845,M,-12.686,M,,*7B
$GPGGA,103241.00,3030.67233031,N,11424.06152485,E,1,12,3.9,50.813,M,-12.686,M,,*73
$GPGGA,103242.00,3030.67233811,N,11424.06153468,E,1,12,3.9,50.786,M,-12.686,M,,*7B
$GPGGA,103243.00,3030.67232994,N,11424.06154516,E,1,12,3.9,50.798,M,-12.686,M,,*77
$GPGGA,103244.00,3030.67233923,N,11424.06154719,E,1,12,3.9,50.769,M,-12.686,M,,*7E
$GPGGA,103245.00,3030.67235949,N,11424.06155014,E,1,12,3.9,50.726,M,-12.686,M,,*75
$GPGGA,103246.00,3030.67237056,N,11424.06155278,E,1,12,3.9,50.713,M,-12.686,M,,*7D
$GPGGA,103247.00,3030.67238239,N,11424.06155655,E,1,12,3.9,50.699,M,-12.686,M,,*70
$GPGGA,103248.00,3030.67238213,N,11424.06155786,E,1,12,3.9,50.706,M,-12.686,M,,*7F
$GPGGA,103249.00,3030.67238226,N,11424.06156020,E,1,12,3.9,50.713,M,-12.686,M,,*74
$GPGGA,103250.00,3030.67237832,N,11424.06156340,E,1,12,3.9,50.720,M,-12.686,M,,*79
$GPGGA,103251.00,3030.67238269,N,11424.06156804,E,1,12,3.9,50.721,M,-12.686,M,,*79
$GPGGA,103252.00,3030.67239625,N,11424.06158465,E,1,10,4.1,50.701,M,-12.686,M,,*7D
$GPGGA,103253.00,3030.67245464,N,11424.06159410,E,1,09,5.3,50.540,M,-12.686,M,,*7F
$GPGGA,103254.00,3030.67242120,N,11424.06159521,E,1,09,5.3,50.587,M,-12.686,M,,*72
$GPGGA,103255.00,3030.67241233,N,11424.06156288,E,1,08,6.3,50.605,M,-12.686,M,,*71
$GPGGA,103256.00,3030.67242215,N,11424.06154624,E,1,07,5.3,50.690,M,-12.686,M,,*75
$GPGGA,103257.00,3030.67231006,N,11424.06150657,E,1,07,5.3,50.916,M,-12.686,M,,*71
$GPGGA,103258.00,3030.67224594,N,11424.06150513,E,1,07,5.3,51.120,M,-12.686,M,,*7B
$GPGGA,103259.00,3030.67217942,N,11424.06150472,E,1,09,4.8,51.256,M,-12.686,M,,*7D
$GPGGA,103300.00,3030.67204185,N,11424.06149213,E,1,09,4.8,51.537,M,-12.686,M,,*78
$GPGGA,103301.00,3030.67193420,N,11424.06148041,E,1,09,4.8,51.740,M,-12.686,M,,*78
$GPGGA,103302.00,3030.67185595,N,11424.06146609,E,1,10,4.2,51.879,M,-12.686,M,,*70
$GPGGA,103303.00,3030.67177453,N,11424.06145229,E,1,10,4.2,52.027,M,-12.686,M,,*72
$GPGGA,103304.00,3030.67170071,N,11424.06144416,E,1,10,4.2,52.165,M,-12.686,M,,*7A
$GPGGA,103305.00,3030.67163577,N,11424.06143487,E,1,11,4.2,52.280,M,-12.686,M,,*7C
