$GPGGA,091032.00,3030.66920068,N,11424.06359768,E,2,25,0.7,55.729,M,-12.686,M,7.0,0137*57
$GPGGA,091033.00,3030.66919897,N,11424.06359979,E,2,25,0.7,55.758,M,-12.686,M,3.0,0137*58
$GPGGA,091034.00,3030.66919925,N,11424.06360279,E,2,25,0.7,55.789,M,-12.686,M,4.0,0137*5D
$GPGGA,091035.00,3030.66919799,N,11424.06360655,E,2,25,0.7,55.814,M,-12.686,M,5.0,0137*55
$GPGGA,091036.00,3030.66919891,N,11424.06360782,E,2,25,0.7,55.835,M,-12.686,M,6.0,0137*5A
$GPGGA,091037.00,3030.66919932,N,11424.06360969,E,2,25,0.7,55.863,M,-12.686,M,7.0,0137*5A
$GPGGA,091038.00,3030.66920014,N,11424.06361290,E,2,25,0.7,55.882,M,-12.686,M,7.0,0137*51
$GPGGA,091039.00,3030.66920139,N,11424.06361318,E,2,25,0.7,55.894,M,-12.686,M,3.0,0137*5C
$GPGGA,091040.00,3030.66920150,N,11424.06361132,E,2,25,0.7,55.891,M,-12.686,M,4.0,0137*55
$GPGGA,091041.00,3030.66920275,N,11424.06360710,E,2,25,0.7,55.888,M,-12.686,M,5.0,0137*5E
$GPGGA,091042.00,3030.66920319,N,11424.06360526,E,2,25,0.7,55.881,M,-12.686,M,6.0,0137*5B
$GPGGA,091043.00,3030.66920365,N,11424.06360308,E,2,25,0.7,55.879,M,-12.686,M,7.0,0137*5D
$GPGGA,091044.00,3030.66920504,N,11424.06360015,E,2,25,0.7,55.875,M,-12.686,M,7.0,0137*58
$GPGGA,091045.00,3030.66920501,N,11424.06359681,E,2,25,0.7,55.865,M,-12.686,M,3.0,0137*58
$GPGGA,091046.00,3030.66920497,N,11424.06359448,E,2,25,0.7,55.860,M,-12.686,M,4.0,0137*50
$GPGGA,091047.00,3030.66920567,N,11424.06358983,E,2,25,0.7,55.853,M,-12.686,M,5.0,0137*55
$GPGGA,091048.00,3030.66920632,N,11424.06358623,E,2,25,0.7,55.855,M,-12.686,M,6.0,0137*59
$GPGGA,091049.00,3030.66920643,N,11424.06358185,E,2,25,0.7,55.853,M,-12.686,M,7.0,0137*52
$GPGGA,091050.00,3030.66920783,N,11424.06357676,E,2,25,0.7,55.842,M,-12.686,M,7.0,0137*53
$GPGGA,091051.00,3030.66920838,N,11424.06357149,E,2,25,0.7,55.831,M,-12.686,M,3.0,0137*56
$GPGGA,091052.00,3030.66920932,N,11424.06356652,E,2,25,0.7,55.816,M,-12.686,M,4.0,0137*50
$GPGGA,091053.00,3030.66920984,N,11424.06356120,E,2,25,0.7,55.812,M,-12.686,M,5.0,0137*5B
$GPGGA,091054.00,3030.66921158,N,11424.06355627,E,2,25,0.7,55.804,M,-12.686,M,6.0,0137*53
$GPGGA,091055.00,3030.66921310,N,11424.06354954,E,2,25,0.7,55.786,M,-12.686,M,7.0,0137*52
$GPGGA,091056.00,3030.66921512,N,11424.06354365,E,2,25,0.7,55.772,M,-12.686,M,7.0,0137*56
$GPGGA,091057.00,3030.66921794,N,11424.06353730,E,2,25,0.7,55.756,M,-12.686,M,3.0,0137*5A
$GPGGA,091058.00,3030.66922016,N,11424.06353010,E,2,25,0.7,55.741,M,-12.686,M,4.0,0137*5F
$GPGGA,091059.00,3030.66922144,N,11424.06352403,E,2,25,0.7,55.732,M,-12.686,M,5.0,0137*5A
$GPGGA,091100.00,3030.66922384,N,11424.06351674,E,2,25,0.7,55.715,M,-12.686,M,6.0,0137*5E
$GPGGA,091101.00,3030.66922526,N,11424.06351089,E,2,25,0.7,55.696,M,-12.686,M,7.0,0137*5E
$GPGGA,091102.00,3030.66922676,N,11424.06350359,E,2,25,0.7,55.679,M,-12.686,M,7.0,0137*55
$GPGGA,091103.00,3030.66922911,N,11424.06349828,E,2,25,0.7,55.667,M,-12.686,M,3.0,0137*54
$GPGGA,091104.00,3030.66923235,N,11424.06349219,E,2,25,0.7,55.659,M,-12.686,M,4.0,0137*5D
$GPGGA,091105.00,3030.66906493,N,11424.06373825,E,1,24,0.8,55.773,M,-12.686,M,,*76
$GPGGA,091106.00,3030.66904738,N,11424.06382081,E,1,24,0.8,55.312,M,-12.686,M,,*7E
$GPGGA,091107.00,3030.66904974,N,11424.06384182,E,1,24,0.8,55.178,M,-12.686,M,,*73
$GPGGA,091108.00,3030.66905498,N,11424.06385108,E,1,24,0.8,55.136,M,-12.686,M,,*7B
$GPGGA,091109.00,3030.66905486,N,11424.06385775,E,1,24,0.8,55.106,M,-12.686,M,,*7A
$GPGGA,091110.00,3030.66905725,N,11424.06386152,E,1,24,0.8,55.108,M,-12.686,M,,*76
$GPGGA,091111.00,3030.66905920,N,11424.06386446,E,1,24,0.8,55.109,M,-12.686,M,,*7D
$GPGGA,091112.00,3030.66906061,N,11424.06386711,E,1,24,0.8,55.121,M,-12.686,M,,*7A
$GPGGA,091113.00,3030.66906131,N,11424.06387029,E,1,24,0.8,55.138,M,-12.686,M,,*7A
$GPGGA,091114.00,3030.66906247,N,11424.06387169,E,1,24,0.8,55.159,M,-12.686,M,,*7D
$GPGGA,091115.00,3030.66906386,N,11424.06387242,E,1,24,0.8,55.173,M,-12.686,M,,*72
$GPGGA,091116.00,3030.66906431,N,11424.06387371,E,1,24,0.8,55.192,M,-12.686,M,,*74
$GPGGA,091117.00,3030.66906602,N,11424.06387497,E,1,24,0.8,55.211,M,-12.686,M,,*70
$GPGGA,091118.00,3030.66906702,N,11424.06387605,E,1,24,0.8,55.221,M,-12.686,M,,*74
$GPGGA,091119.00,3030.66906708,N,11424.06387473,E,1,24,0.8,55.222,M,-12.686,M,,*7F
$GPGGA,091120.00,3030.66906642,N,11424.06387468,E,1,24,0.8,55.238,M,-12.686,M,,*7B
$GPGGA,091121.00,3030.66906663,N,11424.06387568,E,1,24,0.8,55.249,M,-12.686,M,,*7E
$GPGGA,091122.00,3030.66906570,N,11424.06387681,E,1,24,0.8,55.250,M,-12.686,M,,*70
$GPGGA,091123.00,3030.66906585,N,11424.06387724,E,1,24,0.8,55.259,M,-12.686,M,,*7C
$GPGGA,091124.00,3030.66906620,N,11424.06387725,E,1,24,0.8,55.274,M,-12.686,M,,*79
$GPGGA,091125.00,3030.66906695,N,11424.06387697,E,1,24,0.8,55.297,M,-12.686,M,,*73
$GPGGA,091126.00,3030.66906700,N,11424.06387721,E,1,24,0.8,55.307,M,-12.686,M,,*79
$GPGGA,091127.00,3030.66906801,N,11424.06387832,E,1,24,0.8,55.317,M,-12.686,M,,*7A
$GPGGA,091128.00,3030.66906971,N,11424.06387861,E,1,24,0.8,55.338,M,-12.686,M,,*78
$GPGGA,091129.00,3030.66906913,N,11424.06387807,E,1,24,0.8,55.350,M,-12.686,M,,*73
$GPGGA,091130.00,3030.66906912,N,11424.06387842,E,1,24,0.8,55.357,M,-12.686,M,,*7C
$GPGGA,091131.00,3030.66906994,N,11424.06387871,E,1,24,0.8,55.373,M,-12.686,M,,*75
$GPGGA,091132.00,3030.66907027,N,11424.06387761,E,1,24,0.8,55.383,M,-12.686,M,,*77
$GPGGA,091133.00,3030.66907003,N,11424.06387994,E,1,24,0.8,55.401,M,-12.686,M,,*79
$GPGGA,091134.00,3030.66907070,N,11424.06388192,E,1,24,0.8,55.419,M,-12.686,M,,*72
$GPGGA,091135.00,3030.66907144,N,11424.06388319,E,1,24,0.8,55.441,M,-12.686,M,,*79
$GPGGA,091136.00,3030.66907146,N,11424.06388302,E,1,24,0.8,55.454,M,-12.686,M,,*76
$GPGGA,091137.00,3030.66907188,N,11424.06388340,E,1,24,0.8,55.459,M,-12.686,M,,*7E
$GPGGA,091138.00,3030.66907363,N,11424.06388281,E,1,24,0.8,55.475,M,-12.686,M,,*74
$GPGGA,091139.00,3030.66907430,N,11424.06388299,E,1,24,0.8,55.480,M,-12.686,M,,*77
$GPGGA,091140.00,3030.66907570,N,11424.06388149,E,1,24,0.8,55.486,M,-12.686,M,,*74
$GPGGA,091141.00,3030.66907706,N,11424.06388236,E,1,24,0.8,55.498,M,-12.686,M,,*72
$GPGGA,091142.00,3030.66907726,N,11424.06388170,E,1,24,0.8,55.507,M,-12.686,M,,*75
$GPGGA,091143.00,3030.66907935,N,11424.06388040,E,1,24,0.8,55.512,M,-12.686,M,,*7E
$GPGGA,091144.00,3030.66907935,N,11424.06388023,E,1,24,0.8,55.506,M,-12.686,M,,*79
$GPGGA,091145.00,3030.66908069,N,11424.06387942,E,1,24,0.8,55.516,M,-12.686,M,,*77
$GPGGA,091146.00,3030.66908079,N,11424.06388039,E,1,24,0.8,55.534,M,-12.686,M,,*7F
$GPGGA,091147.00,3030.66908071,N,11424.06387962,E,1,24,0.8,55.542,M,-12.686,M,,*7F
$GPGGA,091148.00,3030.66908095,N,11424.06387976,E,1,24,0.8,55.552,M,-12.686,M,,*7E
$GPGGA,091149.00,3030.66908145,N,11424.06388088,E,1,24,0.8,55.562,M,-12.686,M,,*77
$GPGGA,091150.00,3030.66908069,N,11424.06388142,E,1,24,0.8,55.561,M,-12.686,M,,*74
$GPGGA,091151.00,3030.66908048,N,11424.06388040,E,1,24,0.8,55.566,M,-12.686,M,,*72
$GPGGA,091152.00,3030.66908001,N,11424.06387890,E,1,24,0.8,55.576,M,-12.686,M,,*77
$GPGGA,091153.00,3030.66908107,N,11424.06387835,E,1,24,0.8,55.577,M,-12.686,M,,*7F
$GPGGA,091154.00,3030.66908236,N,11424.06387811,E,1,24,0.8,55.582,M,-12.686,M,,*75
$GPGGA,091155.00,3030.66908518,N,11424.06387683,E,1,24,0.8,55.569,M,-12.686,M,,*7F
$GPGGA,091156.00,3030.66908702,N,11424.06387691,E,1,24,0.8,55.560,M,-12.686,M,,*7F
$GPGGA,091157.00,3030.66908928,N,11424.06387504,E,1,24,0.8,55.550,M,-12.686,M,,*74
$GPGGA,091158.00,3030.66909130,N,11424.06387507,E,1,24,0.8,55.553,M,-12.686,M,,*7B
$GPGGA,091159.00,3030.66909377,N,11424.06387421,E,1,24,0.8,55.543,M,-12.686,M,,*7F
$GPGGA,091200.00,3030.66909820,N,11424.06387307,E,1,24,0.8,55.536,M,-12.686,M,,*78
$GPGGA,091201.00,3030.66910169,N,11424.06387370,E,1,24,0.8,55.534,M,-12.686,M,,*77
$GPGGA,091202.00,3030.66910345,N,11424.06387334,E,1,24,0.8,55.540,M,-12.686,M,,*7B
$GPGGA,091203.00,3030.66910513,N,11424.06387206,E,1,24,0.8,55.542,M,-12.686,M,,*7D
$GPGGA,091204.00,3030.66910858,N,11424.06387221,E,1,24,0.8,55.551,M,-12.686,M,,*7F
$GPGGA,091205.00,3030.66911080,N,11424.06387061,E,1,24,0.8,55.548,M,-12.686,M,,*7C
$GPGGA,091206.00,3030.66911433,N,11424.06386856,E,1,24,0.8,55.546,M,-12.686,M,,*70
$GPGGA,091207.00,3030.66911694,N,11424.06386564,E,1,24,0.8,55.544,M,-12.686,M,,*70
$GPGGA,091208.00,3030.66911980,N,11424.06386319,E,1,24,0.8,55.544,M,-12.686,M,,*79
$GPGGA,091209.00,3030.66912245,N,11424.06385979,E,1,24,0.8,55.544,M,-12.686,M,,*76
$GPGGA,091210.00,3030.66912468,N,11424.06385801,E,1,24,0.8,55.542,M,-12.686,M,,*7F
$GPGGA,091211.00,3030.66912499,N,11424.06385435,E,1,24,0.8,55.538,M,-12.686,M,,*76
$GPGGA,091212.00,3030.66912753,N,11424.06385268,E,1,24,0.8,55.533,M,-12.686,M,,*75
$GPGGA,091213.00,3030.66912799,N,11424.06385112,E,1,24,0.8,55.530,M,-12.686,M,,*7F
$GPGGA,091214.00,3030.66912926,N,11424.06385133,E,1,24,0.8,55.533,M,-12.686,M,,*72
$GPGGA,091215.00,3030.66912898,N,11424.06385008,E,1,24,0.8,55.542,M,-12.686,M,,*78
$GPGGA,091216.00,3030.66912931,N,11424.06384880,E,1,24,0.8,55.550,M,-12.686,M,,*73
$GPGGA,091217.00,3030.66912920,N,11424.06384849,E,1,24,0.8,55.549,M,-12.686,M,,*7F
$GPGGA,091218.00,3030.66913086,N,11424.06384870,E,1,24,0.8,55.556,M,-12.686,M,,*70
$GPGGA,091219.00,3030.66913230,N,11424.06384886,E,1,24,0.8,55.569,M,-12.686,M,,*7B
$GPGGA,091220.00,3030.66913237,N,11424.06384937,E,1,24,0.8,55.582,M,-12.686,M,,*78
$GPGGA,091221.00,3030.66913193,N,11424.06385017,E,1,24,0.8,55.592,M,-12.686,M,,*7F
$GPGGA,091222.00,3030.66913246,N,11424.06385083,E,1,24,0.8,55.603,M,-12.686,M,,*71
$GPGGA,091223.00,3030.66913214,N,11424.06385029,E,1,24,0.8,55.611,M,-12.686,M,,*74
$GPGGA,091224.00,3030.66913307,N,11424.06384985,E,1,24,0.8,55.619,M,-12.686,M,,*76
$GPGGA,091225.00,3030.66913428,N,11424.06384990,E,1,24,0.8,55.631,M,-12.686,M,,*73
$GPGGA,091226.00,3030.66913466,N,11424.06385091,E,1,24,0.8,55.644,M,-12.686,M,,*71
$GPGGA,091227.00,3030.66913457,N,11424.06385173,E,1,24,0.8,55.653,M,-12.686,M,,*79
$GPGGA,091228.00,3030.66913495,N,11424.06385179,E,1,24,0.8,55.654,M,-12.686,M,,*75
$GPGGA,091229.00,3030.66913468,N,11424.06385120,E,1,24,0.8,55.657,M,-12.686,M,,*79
$GPGGA,091230.00,3030.66913536,N,11424.06385121,E,1,24,0.8,55.668,M,-12.686,M,,*76
$GPGGA,091231.00,3030.66913521,N,11424.06385200,E,1,24,0.8,55.676,M,-12.686,M,,*7E
$GPGGA,091232.00,3030.66913502,N,11424.06384864,E,1,24,0.8,55.667,M,-12.686,M,,*75
$GPGGA,091233.00,3030.66913548,N,11424.06384779,E,1,24,0.8,55.674,M,-12.686,M,,*7B
$GPGGA,091234.00,3030.66913543,N,11424.06384729,E,1,24,0.8,55.682,M,-12.686,M,,*7B
$GPGGA,091235.00,3030.66913539,N,11424.06384791,E,1,24,0.8,55.696,M,-12.686,M,,*71
$GPGGA,091236.00,3030.66913549,N,11424.06384898,E,1,24,0.8,55.708,M,-12.686,M,,*75
$GPGGA,091237.00,3030.66913590,N,11424.06385021,E,1,24,0.8,55.716,M,-12.686,M,,*74
$GPGGA,091238.00,3030.66913520,N,11424.06385010,E,1,24,0.8,55.717,M,-12.686,M,,*73
$GPGGA,091239.00,3030.66913572,N,11424.06384985,E,1,24,0.8,55.721,M,-12.686,M,,*74
$GPGGA,091240.00,3030.66913645,N,11424.06385087,E,1,24,0.8,55.727,M,-12.686,M,,*71
$GPGGA,091241.00,3030.66913634,N,11424.06385134,E,1,24,0.8,55.731,M,-12.686,M,,*78
$GPGGA,091242.00,3030.66913603,N,11424.06385153,E,1,24,0.8,55.732,M,-12.686,M,,*7D
$GPGGA,091243.00,3030.66913460,N,11424.06385282,E,1,24,0.8,55.735,M,-12.686,M,,*73
$GPGGA,091244.00,3030.66913390,N,11424.06385336,E,1,24,0.8,55.745,M,-12.686,M,,*75
$GPGGA,091245.00,3030.66913348,N,11424.06385518,E,1,24,0.8,55.763,M,-12.686,M,,*7F
$GPGGA,091246.00,3030.66913353,N,11424.06385511,E,1,24,0.8,55.775,M,-12.686,M,,*78
$GPGGA,091247.00,3030.66913520,N,11424.06384764,E,2,25,0.7,55.774,M,-12.686,M,5.0,0137*58
$GPGGA,091248.00,3030.66913819,N,11424.06382500,E,2,25,0.7,55.774,M,-12.686,M,6.0,0137*55
$GPGGA,091249.00,3030.66914186,N,11424.06380087,E,2,25,0.7,55.766,M,-12.686,M,7.0,0137*56
$GPGGA,091250.00,3030.66914571,N,11424.06377734,E,2,25,0.7,55.752,M,-12.686,M,7.0,0137*52
$GPGGA,091251.00,3030.66914990,N,11424.06375475,E,2,25,0.7,55.738,M,-12.686,M,3.0,0137*5C
$GPGGA,091252.00,3030.66915447,N,11424.06373111,E,2,25,0.7,55.722,M,-12.686,M,4.0,0137*54
$GPGGA,091253.00,3030.66915915,N,11424.06370721,E,2,25,0.7,55.699,M,-12.686,M,5.0,0137*59
$GPGGA,091254.00,3030.66916334,N,11424.06368464,E,2,25,0.7,55.673,M,-12.686,M,6.0,0137*58
$GPGGA,091255.00,3030.66916886,N,11424.06366475,E,2,25,0.7,55.645,M,-12.686,M,7.0,0137*51
$GPGGA,091256.00,3030.66917561,N,11424.06364519,E,2,25,0.7,55.614,M,-12.686,M,7.0,0137*5A
$GPGGA,091257.00,3030.66918117,N,11424.06362631,E,2,25,0.7,55.587,M,-12.686,M,3.0,0137*53
$GPGGA,091258.00,3030.66918618,N,11424.06360932,E,2,25,0.7,55.558,M,-12.686,M,4.0,0137*5F
$GPGGA,091259.00,3030.66919122,N,11424.06359197,E,2,25,0.7,55.526,M,-12.686,M,5.0,0137*54
$GPGGA,091300.00,3030.66919553,N,11424.06357449,E,2,25,0.7,55.490,M,-12.686,M,6.0,0137*5C
$GPGGA,091301.00,3030.66920017,N,11424.06355719,E,2,25,0.7,55.457,M,-12.686,M,7.0,0137*5C
$GPGGA,091302.00,3030.66920633,N,11424.06354173,E,2,24,0.7,55.420,M,-12.686,M,7.0,0137*55
$GPGGA,091303.00,3030.66921138,N,11424.06352757,E,2,24,0.7,55.388,M,-12.686,M,3.0,0137*5E
$GPGGA,091304.00,3030.66921734,N,11424.06351429,E,2,24,0.7,55.355,M,-12.686,M,4.0,0137*5D
$GPGGA,091305.00,3030.66922076,N,11424.06350106,E,2,24,0.7,55.324,M,-12.686,M,5.0,0137*50
$GPGGA,091306.00,3030.66922518,N,11424.06348808,E,2,24,0.7,55.291,M,-12.686,M,6.0,0137*5C
$GPGGA,091307.00,3030.66922979,N,11424.06347655,E,2,24,0.7,55.262,M,-12.686,M,7.0,0137*52
$GPGGA,091308.00,3030.66923372,N,11424.06346503,E,2,24,0.7,55.239,M,-12.686,M,7.0,0137*52
$GPGGA,091309.00,3030.66923822,N,11424.06345594,E,2,24,0.7,55.219,M,-12.686,M,3.0,0137*56
$GPGGA,091310.00,3030.66924211,N,11424.06344691,E,2,24,0.7,55.192,M,-12.686,M,4.0,0137*53
$GPGGA,091311.00,3030.66924662,N,11424.06343802,E,2,24,0.7,55.169,M,-12.686,M,5.0,0137*54
$GPGGA,091312.00,3030.66925024,N,11424.06343054,E,2,24,0.7,55.150,M,-12.686,M,6.0,0137*50
$GPGGA,091313.00,3030.66925406,N,11424.06342369,E,2,24,0.7,55.133,M,-12.686,M,7.0,0137*5D
$GPGGA,091314.00,3030.66925828,N,11424.06341587,E,2,24,0.7,55.122,M,-12.686,M,7.0,0137*5F
$GPGGA,091315.00,3030.66926173,N,11424.06340929,E,2,24,0.7,55.105,M,-12.686,M,3.0,0137*52
$GPGGA,091316.00,3030.66926408,N,11424.06340449,E,2,24,0.7,55.107,M,-12.686,M,4.0,0137*56
$GPGGA,091317.00,3030.66926651,N,11424.06339789,E,2,24,0.7,55.099,M,-12.686,M,5.0,0137*5F
$GPGGA,091318.00,3030.66926904,N,11424.06339337,E,2,24,0.7,55.103,M,-12.686,M,6.0,0137*5F
$GPGGA,091319.00,3030.66927171,N,11424.06339116,E,2,24,0.7,55.112,M,-12.686,M,7.0,0137*55
$GPGGA,091320.00,3030.66927286,N,11424.06338987,E,2,24,0.7,55.125,M,-12.686,M,7.0,0137*51
$GPGGA,091321.00,3030.66927471,N,11424.06338737,E,2,24,0.7,55.133,M,-12.686,M,3.0,0137*58
$GPGGA,091322.00,3030.66927562,N,11424.06338702,E,2,24,0.7,55.152,M,-12.686,M,4.0,0137*5E
$GPGGA,091323.00,3030.66927688,N,11424.06338623,E,2,24,0.7,55.164,M,-12.686,M,5.0,0137*5E
$GPGGA,091324.00,3030.66927767,N,11424.06338609,E,2,24,0.7,55.172,M,-12.686,M,6.0,0137*55
$GPGGA,091325.00,3030.66927820,N,11424.06338851,E,2,24,0.7,55.195,M,-12.686,M,7.0,0137*53
$GPGGA,091326.00,3030.66927712,N,11424.06339238,E,2,24,0.7,55.232,M,-12.686,M,7.0,0137*54
$GPGGA,091327.00,3030.66927483,N,11424.06339683,E,2,24,0.7,55.274,M,-12.686,M,3.0,0137*5C
$GPGGA,091328.00,3030.66927146,N,11424.06340426,E,2,24,0.7,55.339,M,-12.686,M,4.0,0137*53
$GPGGA,091329.00,3030.66926877,N,11424.06341202,E,2,24,0.7,55.387,M,-12.686,M,5.0,0137*5D
$GPGGA,091330.00,3030.66926702,N,11424.06341898,E,2,24,0.7,55.442,M,-12.686,M,6.0,0137*5C
$GPGGA,091331.00,3030.66926565,N,11424.06342716,E,2,24,0.7,55.494,M,-12.686,M,7.0,0137*5E
$GPGGA,091332.00,3030.66926265,N,11424.06343773,E,2,24,0.7,55.561,M,-12.686,M,7.0,0137*53
$GPGGA,091333.00,3030.66925973,N,11424.06344992,E,2,24,0.7,55.643,M,-12.686,M,3.0,0137*5C
$GPGGA,091334.00,3030.66925512,N,11424.06346481,E,2,24,0.7,55.733,M,-12.686,M,4.0,0137*5C
$GPGGA,091335.00,3030.66925044,N,11424.06348137,E,2,24,0.7,55.838,M,-12.686,M,5.0,0137*58
$GPGGA,091336.00,3030.66924582,N,11424.06349724,E,2,24,0.7,55.945,M,-12.686,M,6.0,0137*58
$GPGGA,091337.00,3030.66924270,N,11424.06351239,E,2,24,0.7,56.039,M,-12.686,M,7.0,0137*53
$GPGGA,091338.00,3030.66923749,N,11424.06353087,E,2,24,0.7,56.148,M,-12.686,M,7.0,0137*56
$GPGGA,091339.00,3030.66923414,N,11424.06354555,E,2,24,0.7,56.235,M,-12.686,M,3.0,0137*5C
$GPGGA,091340.00,3030.66923048,N,11424.06356060,E,2,24,0.7,56.322,M,-12.686,M,4.0,0137*5E
$GPGGA,091341.00,3030.66922665,N,11424.06357624,E,2,24,0.7,56.414,M,-12.686,M,5.0,0137*53
$GPGGA,091342.00,3030.66922247,N,11424.06359036,E,2,24,0.7,56.498,M,-12.686,M,6.0,0137*58
$GPGGA,091343.00,3030.66921978,N,11424.06360367,E,2,24,0.7,56.571,M,-12.686,M,7.0,0137*57
$GPGGA,091344.00,3030.66921670,N,11424.06361627,E,2,24,0.7,56.647,M,-12.686,M,7.0,0137*51
$GPGGA,091345.00,3030.66921086,N,11424.06363162,E,2,24,0.7,56.737,M,-12.686,M,3.0,0137*59
$GPGGA,091346.00,3030.66920582,N,11424.06364975,E,2,24,0.7,56.836,M,-12.686,M,4.0,0137*5A
$GPGGA,091347.00,3030.66920269,N,11424.06366590,E,2,24,0.7,56.930,M,-12.686,M,5.0,0137*5A
$GPGGA,091348.00,3030.66919768,N,11424.06368479,E,2,24,0.7,57.042,M,-12.686,M,6.0,0137*5D
$GPGGA,091349.00,3030.66919199,N,11424.06370682,E,2,24,0.7,57.163,M,-12.686,M,7.0,0137*58
$GPGGA,091350.00,3030.66918650,N,11424.06372580,E,2,24,0.7,57.264,M,-12.686,M,7.0,0137*54
$GPGGA,091351.00,3030.66918109,N,11424.06374617,E,2,24,0.7,57.375,M,-12.686,M,3.0,0137*50
$GPGGA,091352.00,3030.66917558,N,11424.06376434,E,2,24,0.7,57.477,M,-12.686,M,4.0,0137*5F
$GPGGA,091353.00,3030.66917151,N,11424.06377794,E,2,24,0.7,57.556,M,-12.686,M,5.0,0137*58
$GPGGA,091354.00,3030.66916783,N,11424.06379154,E,2,24,0.7,57.631,M,-12.686,M,6.0,0137*52
$GPGGA,091355.00,3030.66916339,N,11424.06380974,E,2,24,0.7,57.730,M,-12.686,M,7.0,0137*5B
$GPGGA,091356.00,3030.66916036,N,11424.06382649,E,2,24,0.7,57.832,M,-12.686,M,7.0,0137*5A
$GPGGA,091357.00,3030.66915754,N,11424.06384007,E,2,24,0.7,57.906,M,-12.686,M,3.0,0137*53
$GPGGA,091358.00,3030.66915511,N,11424.06385228,E,2,24,0.7,57.973,M,-12.686,M,4.0,0137*54
$GPGGA,091359.00,3030.66915428,N,11424.06386408,E,2,24,0.7,58.034,M,-12.686,M,5.0,0137*5D
$GPGGA,091400.00,3030.66915382,N,11424.06387206,E,2,24,0.7,58.076,M,-12.686,M,6.0,0137*5D
$GPGGA,091401.00,3030.66915261,N,11424.06387968,E,2,24,0.7,58.112,M,-12.686,M,7.0,0137*51
$GPGGA,091402.00,3030.66915229,N,11424.06388357,E,2,24,0.7,58.134,M,-12.686,M,7.0,0137*53
$GPGGA,091403.00,3030.66915130,N,11424.06388871,E,2,24,0.7,58.164,M,-12.686,M,3.0,0137*57
$GPGGA,091404.00,3030.66914922,N,11424.06389574,E,2,24,0.7,58.213,M,-12.686,M,4.0,0137*57
$GPGGA,091405.00,3030.66914836,N,11424.06390225,E,2,24,0.7,58.254,M,-12.686,M,5.0,0137*5B
$GPGGA,091406.00,3030.66914918,N,11424.06390862,E,2,24,0.7,58.307,M,-12.686,M,6.0,0137*58
$GPGGA,091407.00,3030.66915130,N,11424.06391517,E,2,24,0.7,58.349,M,-12.686,M,7.0,0137*5F
$GPGGA,091408.00,3030.66915368,N,11424.06392082,E,2,24,0.7,58.382,M,-12.686,M,7.0,0137*52
$GPGGA,091409.00,3030.66915462,N,11424.06392531,E,2,24,0.7,58.399,M,-12.686,M,3.0,0137*5D
$GPGGA,091410.00,3030.66915565,N,11424.06392789,E,2,24,0.7,58.426,M,-12.686,M,4.0,0137*56
$GPGGA,091411.00,3030.66915757,N,11424.06392882,E,2,24,0.7,58.439,M,-12.686,M,5.0,0137*5F
$GPGGA,091412.00,3030.66915951,N,11424.06392994,E,2,24,0.7,58.450,M,-12.686,M,6.0,0137*5E
$GPGGA,091413.00,3030.66916203,N,11424.06392932,E,2,23,0.7,58.456,M,-12.686,M,7.0,0137*5C
$GPGGA,091414.00,3030.66916441,N,11424.06393051,E,2,23,0.7,58.468,M,-12.686,M,7.0,0137*5B
$GPGGA,091415.00,3030.66916623,N,11424.06392841,E,2,23,0.7,58.470,M,-12.686,M,3.0,0137*59
$GPGGA,091416.00,3030.66916854,N,11424.06392608,E,2,23,0.7,58.457,M,-12.686,M,4.0,0137*55
$GPGGA,091417.00,3030.66917036,N,11424.06392425,E,2,23,0.7,58.454,M,-12.686,M,5.0,0137*56
$GPGGA,091418.00,3030.66917029,N,11424.06392056,E,2,23,0.7,58.445,M,-12.686,M,6.0,0137*54
$GPGGA,091419.00,3030.66917072,N,11424.06391805,E,2,23,0.7,58.440,M,-12.686,M,7.0,0137*52
$GPGGA,091420.00,3030.66917240,N,11424.06391486,E,2,23,0.7,58.439,M,-12.686,M,7.0,0137*52
$GPGGA,091421.00,3030.66917312,N,11424.06391290,E,2,23,0.7,58.435,M,-12.686,M,3.0,0137*5C
$GPGGA,091422.00,3030.66917466,N,11424.06391072,E,2,23,0.7,58.433,M,-12.686,M,4.0,0137*54
$GPGGA,091423.00,3030.66917526,N,11424.06390530,E,2,23,0.7,58.413,M,-12.686,M,5.0,0137*51
$GPGGA,091424.00,3030.66917538,N,11424.06390000,E,2,23,0.7,58.398,M,-12.686,M,6.0,0137*58
$GPGGA,091425.00,3030.66917439,N,11424.06389651,E,2,23,0.7,58.390,M,-12.686,M,7.0,0137*5A
$GPGGA,091426.00,3030.66917354,N,11424.06389591,E,2,23,0.7,58.403,M,-12.686,M,7.0,0137*57
$GPGGA,091427.00,3030.66917329,N,11424.06389380,E,2,23,0.7,58.407,M,-12.686,M,3.0,0137*5A
$GPGGA,091428.00,3030.66917331,N,11424.06389177,E,2,23,0.7,58.416,M,-12.686,M,4.0,0137*51
$GPGGA,091429.00,3030.66917369,N,11424.06389114,E,2,23,0.7,58.426,M,-12.686,M,5.0,0137*5A
$GPGGA,091430.00,3030.66917381,N,11424.06389038,E,2,23,0.7,58.434,M,-12.686,M,6.0,0137*5B
$GPGGA,091431.00,3030.66917443,N,11424.06388734,E,2,23,0.7,58.426,M,-12.686,M,7.0,0137*5B
$GPGGA,091432.00,3030.66917518,N,11424.06388380,E,2,23,0.7,58.427,M,-12.686,M,7.0,0137*5D
$GPGGA,091433.00,3030.66917539,N,11424.06388022,E,2,23,0.7,58.421,M,-12.686,M,3.0,0137*56
$GPGGA,091434.00,3030.66917669,N,11424.06387712,E,2,23,0.7,58.414,M,-12.686,M,4.0,0137*5D
$GPGGA,091435.00,3030.66917751,N,11424.06387336,E,2,23,0.7,58.401,M,-12.686,M,5.0,0137*51
$GPGGA,091436.00,3030.66917913,N,11424.06386509,E,2,23,0.7,58.363,M,-12.686,M,6.0,0137*51
$GPGGA,091437.00,3030.66918094,N,11424.06385580,E,2,23,0.7,58.328,M,-12.686,M,7.0,0137*55
$GPGGA,091438.00,3030.66918006,N,11424.06385164,E,2,23,0.7,58.314,M,-12.686,M,7.0,0137*50
$GPGGA,091439.00,3030.66918019,N,11424.06384638,E,2,23,0.7,58.297,M,-12.686,M,3.0,0137*5E
$GPGGA,091440.00,3030.66918098,N,11424.06384059,E,2,23,0.7,58.277,M,-12.686,M,4.0,0137*51
$GPGGA,091441.00,3030.66918264,N,11424.06383417,E,2,22,0.7,58.252,M,-12.686,M,5.0,0137*5F
$GPGGA,091442.00,3030.66918172,N,11424.06382660,E,2,22,0.8,58.215,M,-12.686,M,6.0,0137*54
$GPGGA,091443.00,3030.66918214,N,11424.06381910,E,2,22,0.8,58.192,M,-12.686,M,7.0,0137*50
$GPGGA,091444.00,3030.66918215,N,11424.06380989,E,2,22,0.8,58.160,M,-12.686,M,7.0,0137*5A
$GPGGA,091445.00,3030.66918310,N,11424.06379928,E,2,22,0.8,58.118,M,-12.686,M,3.0,0137*59
$GPGGA,091446.00,3030.66918368,N,11424.06379028,E,2,22,0.8,58.078,M,-12.686,M,4.0,0137*5C
$GPGGA,091447.00,3030.66918397,N,11424.06378098,E,2,22,0.8,58.032,M,-12.686,M,5.0,0137*58
$GPGGA,091448.00,3030.66918429,N,11424.06377102,E,2,22,0.8,57.999,M,-12.686,M,6.0,0137*5C
$GPGGA,091449.00,3030.66918486,N,11424.06376063,E,2,22,0.8,57.958,M,-12.686,M,7.0,0137*53
$GPGGA,091450.00,3030.66918636,N,11424.06375200,E,2,22,0.8,57.918,M,-12.686,M,7.0,0137*52
$GPGGA,091451.00,3030.66918669,N,11424.06374333,E,2,22,0.8,57.879,M,-12.686,M,3.0,0137*5B
$GPGGA,091452.00,3030.66918744,N,11424.06373509,E,2,22,0.8,57.843,M,-12.686,M,4.0,0137*50
$GPGGA,091453.00,3030.66918831,N,11424.06372557,E,2,22,0.8,57.797,M,-12.686,M,5.0,0137*51
$GPGGA,091454.00,3030.66918809,N,11424.06371508,E,2,22,0.8,57.751,M,-12.686,M,6.0,0137*5D
$GPGGA,091455.00,3030.66918922,N,11424.06370306,E,2,22,0.8,57.693,M,-12.686,M,7.0,0137*53
$GPGGA,091456.00,3030.66918892,N,11424.06369438,E,2,22,0.8,57.647,M,-12.686,M,7.0,0137*51
$GPGGA,091457.00,3030.66918895,N,11424.06368447,E,2,22,0.8,57.605,M,-12.686,M,3.0,0137*5C
$GPGGA,091458.00,3030.66918903,N,11424.06367275,E,2,22,0.8,57.558,M,-12.686,M,4.0,0137*59
$GPGGA,091459.00,3030.66918923,N,11424.06366189,E,2,22,0.8,57.506,M,-12.686,M,5.0,0137*51
$GPGGA,091500.00,3030.66918904,N,11424.06365063,E,2,22,0.8,57.437,M,-12.686,M,6.0,0137*5F
$GPGGA,091501.00,3030.66918919,N,11424.06363930,E,2,22,0.8,57.376,M,-12.686,M,7.0,0137*58
$GPGGA,091502.00,3030.66918962,N,11424.06362787,E,2,22,0.8,57.325,M,-12.686,M,7.0,0137*52
$GPGGA,091503.00,3030.66919004,N,11424.06361590,E,2,22,0.8,57.262,M,-12.686,M,3.0,0137*5A
$GPGGA,091504.00,3030.66919110,N,11424.06360561,E,2,22,0.8,57.208,M,-12.686,M,4.0,0137*5D
$GPGGA,091505.00,3030.66919135,N,11424.06359647,E,2,22,0.8,57.170,M,-12.686,M,5.0,0137*5B
$GPGGA,091506.00,3030.66919200,N,11424.06358751,E,2,22,0.8,57.119,M,-12.686,M,6.0,0137*56
$GPGGA,091507.00,3030.66919359,N,11424.06357881,E,2,22,0.8,57.067,M,-12.686,M,7.0,0137*5E
$GPGGA,091508.00,3030.66919567,N,11424.06356999,E,2,22,0.8,57.020,M,-12.686,M,7.0,0137*50
$GPGGA,091509.00,3030.66919637,N,11424.06356073,E,2,22,0.8,56.967,M,-12.686,M,3.0,0137*55
$GPGGA,091510.00,3030.66919822,N,11424.06355203,E,2,22,0.8,56.922,M,-12.686,M,4.0,0137*57
$GPGGA,091511.00,3030.66919811,N,11424.06354365,E,2,22,0.8,56.874,M,-12.686,M,5.0,0137*55
$GPGGA,091512.00,3030.66919777,N,11424.06353415,E,2,22,0.8,56.823,M,-12.686,M,6.0,0137*5F
$GPGGA,091513.00,3030.66919719,N,11424.06352657,E,2,22,0.8,56.767,M,-12.686,M,7.0,0137*5D
$GPGGA,091514.00,3030.66914681,N,11424.06371957,E,1,21,0.8,57.678,M,-12.686,M,,*7B
$GPGGA,091515.00,3030.66903623,N,11424.06388204,E,1,21,0.8,57.394,M,-12.686,M,,*78
$GPGGA,091516.00,3030.66901114,N,11424.06392012,E,1,21,0.8,57.287,M,-12.686,M,,*77
$GPGGA,091517.00,3030.66899902,N,11424.06393831,E,1,21,0.8,57.227,M,-12.686,M,,*7B
$GPGGA,091518.00,3030.66899229,N,11424.06394986,E,1,21,0.8,57.198,M,-12.686,M,,*7B
$GPGGA,091519.00,3030.66898804,N,11424.06395584,E,1,21,0.8,57.177,M,-12.686,M,,*70
$GPGGA,091520.00,3030.66898600,N,11424.06396115,E,1,21,0.8,57.162,M,-12.686,M,,*7B
$GPGGA,091521.00,3030.66898444,N,11424.06396568,E,1,21,0.8,57.148,M,-12.686,M,,*7E
$GPGGA,091522.00,3030.66898281,N,11424.06396720,E,1,21,0.8,57.131,M,-12.686,M,,*72
$GPGGA,091523.00,3030.66898095,N,11424.06396850,E,1,21,0.8,57.120,M,-12.686,M,,*7C
$GPGGA,091524.00,3030.66897940,N,11424.06396904,E,1,21,0.8,57.108,M,-12.686,M,,*7F
$GPGGA,091525.00,3030.66897898,N,11424.06396939,E,1,21,0.8,57.088,M,-12.686,M,,*7D
$GPGGA,091526.00,3030.66897871,N,11424.06397122,E,1,21,0.8,57.083,M,-12.686,M,,*71
$GPGGA,091527.00,3030.66897870,N,11424.06397271,E,1,21,0.8,57.081,M,-12.686,M,,*76
$GPGGA,091528.00,3030.66897776,N,11424.06397339,E,1,21,0.8,57.075,M,-12.686,M,,*76
$GPGGA,091529.00,3030.66897645,N,11424.06397381,E,1,21,0.8,57.067,M,-12.686,M,,*76
$GPGGA,091530.00,3030.66897546,N,11424.06397579,E,1,21,0.8,57.072,M,-12.686,M,,*7B
$GPGGA,091531.00,3030.66897443,N,11424.06397724,E,1,21,0.8,57.072,M,-12.686,M,,*74
$GPGGA,091532.00,3030.66897328,N,11424.06397797,E,1,21,0.8,57.074,M,-12.686,M,,*73
$GPGGA,091533.00,3030.66897185,N,11424.06398098,E,1,21,0.8,57.080,M,-12.686,M,,*7B
$GPGGA,091534.00,3030.66897149,N,11424.06398093,E,1,21,0.8,57.083,M,-12.686,M,,*74
$GPGGA,091535.00,3030.66897091,N,11424.06398192,E,1,21,0.8,57.078,M,-12.686,M,,*75
$GPGGA,091536.00,3030.66897135,N,11424.06398279,E,1,21,0.8,57.073,M,-12.686,M,,*74
$GPGGA,091537.00,3030.66897126,N,11424.06398372,E,1,21,0.8,57.072,M,-12.686,M,,*7C
$GPGGA,091538.00,3030.66897132,N,11424.06398326,E,1,21,0.8,57.067,M,-12.686,M,,*73
$GPGGA,091539.00,3030.66897179,N,11424.06398355,E,1,21,0.8,57.068,M,-12.686,M,,*76
$GPGGA,091540.00,3030.66897122,N,11424.06398334,E,1,21,0.8,57.066,M,-12.686,M,,*7F
$GPGGA,091541.00,3030.66897142,N,11424.06398283,E,1,21,0.8,57.064,M,-12.686,M,,*77
$GPGGA,091542.00,3030.66897189,N,11424.06398278,E,1,21,0.8,57.062,M,-12.686,M,,*71
$GPGGA,091543.00,3030.66897233,N,11424.06398186,E,1,21,0.8,57.056,M,-12.686,M,,*77
$GPGGA,091544.00,3030.66897227,N,11424.06398336,E,1,21,0.8,57.064,M,-12.686,M,,*7D
$GPGGA,091545.00,3030.66897231,N,11424.06398364,E,1,21,0.8,57.065,M,-12.686,M,,*7D
$GPGGA,091546.00,3030.66897209,N,11424.06398348,E,1,21,0.8,57.073,M,-12.686,M,,*7C
$GPGGA,091547.00,3030.66897258,N,11424.06398380,E,1,21,0.8,57.077,M,-12.686,M,,*79
$GPGGA,091548.00,3030.66897276,N,11424.06398332,E,1,21,0.8,57.087,M,-12.686,M,,*7C
$GPGGA,091549.00,3030.66897216,N,11424.06398440,E,1,21,0.8,57.096,M,-12.686,M,,*79
$GPGGA,091550.00,3030.66897121,N,11424.06398555,E,1,21,0.8,57.101,M,-12.686,M,,*7C
$GPGGA,091551.00,3030.66897086,N,11424.06398761,E,1,21,0.8,57.116,M,-12.686,M,,*72
$GPGGA,091552.00,3030.66897020,N,11424.06398894,E,1,21,0.8,57.118,M,-12.686,M,,*76
$GPGGA,091553.00,3030.66897019,N,11424.06398868,E,1,21,0.8,57.119,M,-12.686,M,,*7F
$GPGGA,091554.00,3030.66896994,N,11424.06398949,E,1,21,0.8,57.131,M,-12.686,M,,*7D
$GPGGA,091555.00,3030.66896976,N,11424.06399161,E,1,21,0.8,57.148,M,-12.686,M,,*7D
$GPGGA,091556.00,3030.66896919,N,11424.06399309,E,1,21,0.8,57.165,M,-12.686,M,,*74
$GPGGA,091557.00,3030.66896922,N,11424.06399332,E,1,21,0.8,57.167,M,-12.686,M,,*77
$GPGGA,091558.00,3030.66896918,N,11424.06399671,E,1,21,0.8,57.176,M,-12.686,M,,*73
$GPGGA,091559.00,3030.66896871,N,11424.06399730,E,1,21,0.8,57.171,M,-12.686,M,,*7F
$GPGGA,091600.00,3030.66896968,N,11424.06399829,E,1,21,0.8,57.179,M,-12.686,M,,*76
$GPGGA,091601.00,3030.66896846,N,11424.06400020,E,1,21,0.8,57.194,M,-12.686,M,,*7F
$GPGGA,091602.00,3030.66896819,N,11424.06400012,E,1,21,0.8,57.200,M,-12.686,M,,*79
$GPGGA,091603.00,3030.66896814,N,11424.06400042,E,1,21,0.8,57.201,M,-12.686,M,,*71
$GPGGA,091604.00,3030.66896738,N,11424.06400030,E,1,21,0.8,57.197,M,-12.686,M,,*7E
$GPGGA,091605.00,3030.66896700,N,11424.06399968,E,1,21,0.8,57.191,M,-12.686,M,,*71
$GPGGA,091606.00,3030.66896628,N,11424.06399889,E,1,21,0.8,57.191,M,-12.686,M,,*77
$GPGGA,091607.00,3030.66896632,N,11424.06399915,E,1,21,0.8,57.198,M,-12.686,M,,*70
$GPGGA,091608.00,3030.66896517,N,11424.06399904,E,1,21,0.8,57.206,M,-12.686,M,,*7F
$GPGGA,091609.00,3030.66896477,N,11424.06399973,E,1,21,0.8,57.208,M,-12.686,M,,*77
$GPGGA,091610.00,3030.66896445,N,11424.06400060,E,1,21,0.8,57.216,M,-12.686,M,,*7D
$GPGGA,091611.00,3030.66896379,N,11424.06400353,E,1,21,0.8,57.219,M,-12.686,M,,*78
$GPGGA,091612.00,3030.66896374,N,11424.06400629,E,1,21,0.8,57.234,M,-12.686,M,,*71
$GPGGA,091613.00,3030.66896397,N,11424.06400768,E,1,21,0.8,57.245,M,-12.686,M,,*7F
$GPGGA,091614.00,3030.66896408,N,11424.06400750,E,1,21,0.8,57.253,M,-12.686,M,,*75
$GPGGA,091615.00,3030.66896430,N,11424.06400831,E,1,21,0.8,57.259,M,-12.686,M,,*7D
$GPGGA,091616.00,3030.66896465,N,11424.06400805,E,1,21,0.8,57.259,M,-12.686,M,,*79
$GPGGA,091617.00,3030.66896427,N,11424.06400756,E,1,21,0.8,57.259,M,-12.686,M,,*77
$GPGGA,091618.00,3030.66896311,N,11424.06400775,E,1,21,0.8,57.266,M,-12.686,M,,*77
$GPGGA,091619.00,3030.66896252,N,11424.06400917,E,1,21,0.8,57.283,M,-12.686,M,,*71
$GPGGA,091620.00,3030.66896146,N,11424.06401103,E,1,21,0.8,57.299,M,-12.686,M,,*7A
$GPGGA,091621.00,3030.66896162,N,11424.06401073,E,1,21,0.8,57.318,M,-12.686,M,,*73
$GPGGA,091622.00,3030.66896134,N,11424.06401265,E,1,21,0.8,57.323,M,-12.686,M,,*7E
$GPGGA,091623.00,3030.66896171,N,11424.06401284,E,1,21,0.8,57.338,M,-12.686,M,,*7B
$GPGGA,091624.00,3030.66896224,N,11424.06401382,E,1,21,0.8,57.347,M,-12.686,M,,*70
$GPGGA,091625.00,3030.66896231,N,11424.06401528,E,1,21,0.8,57.356,M,-12.686,M,,*73
$GPGGA,091626.00,3030.66896200,N,11424.06401662,E,1,21,0.8,57.365,M,-12.686,M,,*7F
$GPGGA,091627.00,3030.66896215,N,11424.06401826,E,1,21,0.8,57.370,M,-12.686,M,,*70
$GPGGA,091628.00,3030.66896251,N,11424.06401859,E,1,21,0.8,57.379,M,-12.686,M,,*7E
$GPGGA,091629.00,3030.66896098,N,11424.06401846,E,1,21,0.8,57.381,M,-12.686,M,,*71
$GPGGA,091630.00,3030.66896081,N,11424.06401876,E,1,21,0.8,57.389,M,-12.686,M,,*7A
$GPGGA,091631.00,3030.66895970,N,11424.06401953,E,1,21,0.8,57.391,M,-12.686,M,,*70
$GPGGA,091632.00,3030.66895954,N,11424.06401844,E,1,21,0.8,57.385,M,-12.686,M,,*77
$GPGGA,091633.00,3030.66895976,N,11424.06401743,E,1,21,0.8,57.396,M,-12.686,M,,*7C
$GPGGA,091634.00,3030.66895924,N,11424.06401860,E,1,21,0.8,57.404,M,-12.686,M,,*7E
$GPGGA,091635.00,3030.66895859,N,11424.06402011,E,1,21,0.8,57.420,M,-12.686,M,,*7F
$GPGGA,091636.00,3030.66895806,N,11424.06402121,E,1,21,0.8,57.431,M,-12.686,M,,*74
$GPGGA,091637.00,3030.66895769,N,11424.06402247,E,1,21,0.8,57.448,M,-12.686,M,,*7E
$GPGGA,091638.00,3030.66895756,N,11424.06402257,E,1,21,0.8,57.459,M,-12.686,M,,*7C
$GPGGA,091639.00,3030.66895707,N,11424.06402408,E,1,21,0.8,57.474,M,-12.686,M,,*7A
$GPGGA,091640.00,3030.66895731,N,11424.06402460,E,1,21,0.8,57.479,M,-12.686,M,,*72
$GPGGA,091641.00,3030.66895775,N,11424.06402588,E,1,21,0.8,57.485,M,-12.686,M,,*77
$GPGGA,091642.00,3030.66895793,N,11424.06402866,E,1,21,0.8,57.489,M,-12.686,M,,*7D
$GPGGA,091643.00,3030.66895736,N,11424.06403092,E,1,21,0.8,57.494,M,-12.686,M,,*7D
$GPGGA,091644.00,3030.66895698,N,11424.06403043,E,1,21,0.8,57.494,M,-12.686,M,,*73
$GPGGA,091645.00,3030.66895687,N,11424.06403086,E,1,21,0.8,57.493,M,-12.686,M,,*72
$GPGGA,091646.00,3030.66895687,N,11424.06403139,E,1,21,0.8,57.497,M,-12.686,M,,*70
$GPGGA,091647.00,3030.66895644,N,11424.06403336,E,1,21,0.8,57.502,M,-12.686,M,,*7E
$GPGGA,091648.00,3030.66895529,N,11424.06403541,E,1,21,0.8,57.503,M,-12.686,M,,*7E
$GPGGA,091649.00,3030.66895465,N,11424.06403664,E,1,21,0.8,57.504,M,-12.686,M,,*75
$GPGGA,091650.00,3030.66895430,N,11424.06403738,E,1,22,0.8,57.515,M,-12.686,M,,*76
$GPGGA,091651.00,3030.66895342,N,11424.06403896,E,1,22,0.8,57.511,M,-12.686,M,,*7A
$GPGGA,091652.00,3030.66895343,N,11424.06404108,E,1,22,0.8,57.502,M,-12.686,M,,*73
$GPGGA,091653.00,3030.66895336,N,11424.06404225,E,1,22,0.8,57.495,M,-12.686,M,,*73
$GPGGA,091654.00,3030.66895168,N,11424.06404246,E,1,22,0.8,57.492,M,-12.686,M,,*7F
$GPGGA,091655.00,3030.66895099,N,11424.06404188,E,1,22,0.8,57.490,M,-12.686,M,,*72
$GPGGA,091656.00,3030.66894951,N,11424.06404085,E,1,22,0.8,57.484,M,-12.686,M,,*74
$GPGGA,091657.00,3030.66895234,N,11424.06402643,E,2,23,0.7,57.469,M,-12.686,M,3.0,0137*50
$GPGGA,091658.00,3030.66895840,N,11424.06400450,E,2,23,0.7,57.437,M,-12.686,M,4.0,0137*58
$GPGGA,091659.00,3030.66896401,N,11424.06398198,E,2,23,0.7,57.402,M,-12.686,M,5.0,0137*53
$GPGGA,091700.00,3030.66896957,N,11424.06395825,E,2,23,0.7,57.362,M,-12.686,M,6.0,0137*50
$GPGGA,091701.00,3030.66897538,N,11424.06393461,E,2,23,0.7,57.316,M,-12.686,M,7.0,0137*5D
$GPGGA,091702.00,3030.66898166,N,11424.06391060,E,2,23,0.7,57.265,M,-12.686,M,7.0,0137*5C
$GPGGA,091703.00,3030.66898826,N,11424.06388584,E,2,23,0.7,57.214,M,-12.686,M,3.0,0137*55
$GPGGA,091704.00,3030.66899407,N,11424.06386349,E,2,23,0.7,57.165,M,-12.686,M,4.0,0137*57
$GPGGA,091705.00,3030.66899906,N,11424.06384131,E,2,24,0.7,57.104,M,-12.686,M,5.0,0137*54
$GPGGA,091706.00,3030.66900530,N,11424.06381854,E,2,24,0.7,57.042,M,-12.686,M,6.0,0137*50
$GPGGA,091707.00,3030.66901207,N,11424.06379676,E,2,24,0.7,56.976,M,-12.686,M,7.0,0137*54
$GPGGA,091708.00,3030.66901790,N,11424.06377436,E,2,24,0.7,56.913,M,-12.686,M,7.0,0137*5B
$GPGGA,091709.00,3030.66902477,N,11424.06375493,E,2,24,0.7,56.851,M,-12.686,M,3.0,0137*5D
$GPGGA,091710.00,3030.66903130,N,11424.06373385,E,2,24,0.7,56.795,M,-12.686,M,4.0,0137*54
$GPGGA,091711.00,3030.66903668,N,11424.06371508,E,2,24,0.7,56.740,M,-12.686,M,5.0,0137*57
$GPGGA,091712.00,3030.66904257,N,11424.06369615,E,2,24,0.7,56.680,M,-12.686,M,6.0,0137*53
$GPGGA,091713.00,3030.66904974,N,11424.06367864,E,2,24,0.7,56.613,M,-12.686,M,7.0,0137*55
$GPGGA,091714.00,3030.66905620,N,11424.06366170,E,2,24,0.7,56.546,M,-12.686,M,7.0,0137*53
$GPGGA,091715.00,3030.66906210,N,11424.06364599,E,2,24,0.7,56.481,M,-12.686,M,3.0,0137*59
$GPGGA,091716.00,3030.66906801,N,11424.06363085,E,2,24,0.7,56.414,M,-12.686,M,4.0,0137*54
$GPGGA,091717.00,3030.66907371,N,11424.06361394,E,2,24,0.7,56.347,M,-12.686,M,5.0,0137*59
$GPGGA,091718.00,3030.66907936,N,11424.06360120,E,2,24,0.7,56.293,M,-12.686,M,6.0,0137*58
$GPGGA,091719.00,3030.66908544,N,11424.06358842,E,2,24,0.7,56.243,M,-12.686,M,7.0,0137*55
$GPGGA,091720.00,3030.66909156,N,11424.06357536,E,2,24,0.7,56.188,M,-12.686,M,7.0,0137*5C
$GPGGA,091721.00,3030.66909750,N,11424.06356386,E,2,24,0.7,56.133,M,-12.686,M,3.0,0137*55
$GPGGA,091722.00,3030.66910346,N,11424.06355222,E,2,24,0.7,56.074,M,-12.686,M,4.0,0137*54
$GPGGA,091723.00,3030.66910841,N,11424.06354110,E,2,24,0.7,56.013,M,-12.686,M,5.0,0137*5A
$GPGGA,091724.00,3030.66911396,N,11424.06353193,E,2,24,0.7,55.970,M,-12.686,M,6.0,0137*5D
$GPGGA,091725.00,3030.66911847,N,11424.06352230,E,2,24,0.7,55.922,M,-12.686,M,7.0,0137*56
$GPGGA,091726.00,3030.66912226,N,11424.06351380,E,2,24,0.7,55.882,M,-12.686,M,7.0,0137*59
$GPGGA,091727.00,3030.66912746,N,11424.06350609,E,2,24,0.7,55.832,M,-12.686,M,3.0,0137*51
$GPGGA,091728.00,3030.66913211,N,11424.06349862,E,2,24,0.7,55.789,M,-12.686,M,4.0,0137*5B
$GPGGA,091729.00,3030.66913508,N,11424.06349152,E,2,24,0.7,55.742,M,-12.686,M,5.0,0137*59
$GPGGA,091730.00,3030.66913891,N,11424.06348671,E,2,24,0.7,55.703,M,-12.686,M,6.0,0137*5D
$GPGGA,091731.00,3030.66914291,N,11424.06348230,E,2,24,0.7,55.674,M,-12.686,M,7.0,0137*50
$GPGGA,091732.00,3030.66914608,N,11424.06347885,E,2,24,0.7,55.659,M,-12.686,M,7.0,0137*53
$GPGGA,091733.00,3030.66914726,N,11424.06347739,E,2,24,0.7,55.648,M,-12.686,M,3.0,0137*53
$GPGGA,091734.00,3030.66914874,N,11424.06347619,E,2,24,0.7,55.627,M,-12.686,M,4.0,0137*51
$GPGGA,091735.00,3030.66915053,N,11424.06347416,E,2,24,0.7,55.618,M,-12.686,M,5.0,0137*5C
$GPGGA,091736.00,3030.66915202,N,11424.06347569,E,2,24,0.7,55.619,M,-12.686,M,6.0,0137*52
$GPGGA,091737.00,3030.66915351,N,11424.06347630,E,2,24,0.7,55.617,M,-12.686,M,7.0,0137*54
$GPGGA,091738.00,3030.66915310,N,11424.06348099,E,2,24,0.7,55.636,M,-12.686,M,7.0,0137*57
$GPGGA,091739.00,3030.66915348,N,11424.06348471,E,2,24,0.7,55.653,M,-12.686,M,3.0,0137*5E
$GPGGA,091740.00,3030.66915484,N,11424.06348766,E,2,24,0.7,55.664,M,-12.686,M,4.0,0137*51
$GPGGA,091741.00,3030.66915345,N,11424.06349434,E,2,24,0.7,55.684,M,-12.686,M,5.0,0137*50
$GPGGA,091742.00,3030.66915342,N,11424.06350025,E,2,24,0.7,55.713,M,-12.686,M,6.0,0137*54
$GPGGA,091743.00,3030.66915318,N,11424.06350456,E,2,24,0.7,55.738,M,-12.686,M,7.0,0137*52
$GPGGA,091744.00,3030.66915364,N,11424.06350926,E,2,24,0.7,55.761,M,-12.686,M,7.0,0137*58
$GPGGA,091745.00,3030.66915177,N,11424.06351686,E,2,24,0.7,55.806,M,-12.686,M,3.0,0137*57
$GPGGA,091746.00,3030.66914985,N,11424.06352806,E,2,24,0.7,55.861,M,-12.686,M,4.0,0137*53
$GPGGA,091747.00,3030.66914794,N,11424.06353891,E,2,24,0.7,55.927,M,-12.686,M,5.0,0137*51
$GPGGA,091748.00,3030.66914489,N,11424.06355234,E,2,24,0.7,55.994,M,-12.686,M,6.0,0137*59
$GPGGA,091749.00,3030.66914131,N,11424.06356365,E,2,24,0.7,56.054,M,-12.686,M,7.0,0137*5F
$GPGGA,091750.00,3030.66913871,N,11424.06357370,E,2,24,0.7,56.104,M,-12.686,M,7.0,0137*5C
$GPGGA,091751.00,3030.66913570,N,11424.06358579,E,2,24,0.7,56.180,M,-12.686,M,3.0,0137*59
$GPGGA,091752.00,3030.66913315,N,11424.06360111,E,2,24,0.7,56.257,M,-12.686,M,4.0,0137*50
$GPGGA,091753.00,3030.66913065,N,11424.06361486,E,2,24,0.7,56.330,M,-12.686,M,5.0,0137*5E
$GPGGA,091754.00,3030.66912922,N,11424.06362668,E,2,24,0.7,56.403,M,-12.686,M,6.0,0137*57
$GPGGA,091755.00,3030.66912737,N,11424.06363826,E,2,24,0.7,56.463,M,-12.686,M,7.0,0137*5E
$GPGGA,091756.00,3030.66912450,N,11424.06365026,E,2,24,0.7,56.523,M,-12.686,M,7.0,0137*54
$GPGGA,091757.00,3030.66912238,N,11424.06366262,E,2,24,0.7,56.578,M,-12.686,M,3.0,0137*56
$GPGGA,091758.00,3030.66912068,N,11424.06367423,E,2,24,0.7,56.645,M,-12.686,M,4.0,0137*56
$GPGGA,091759.00,3030.66911922,N,11424.06368405,E,2,24,0.7,56.704,M,-12.686,M,5.0,0137*5D
$GPGGA,091800.00,3030.66911859,N,11424.06369211,E,2,24,0.7,56.760,M,-12.686,M,6.0,0137*50
$GPGGA,091801.00,3030.66911715,N,11424.06370198,E,2,24,0.7,56.806,M,-12.686,M,7.0,0137*52
$GPGGA,091802.00,3030.66911575,N,11424.06371297,E,2,24,0.7,56.868,M,-12.686,M,7.0,0137*50
$GPGGA,091803.00,3030.66911439,N,11424.06372334,E,2,24,0.7,56.907,M,-12.686,M,3.0,0137*5F
$GPGGA,091804.00,3030.66911352,N,11424.06373405,E,2,24,0.7,56.961,M,-12.686,M,4.0,0137*51
$GPGGA,091805.00,3030.66911223,N,11424.06374256,E,2,24,0.7,57.001,M,-12.686,M,5.0,0137*5F
$GPGGA,091806.00,3030.66911116,N,11424.06374604,E,2,24,0.7,57.020,M,-12.686,M,6.0,0137*5A
$GPGGA,091807.00,3030.66910984,N,11424.06375702,E,2,24,0.7,57.067,M,-12.686,M,7.0,0137*5D
$GPGGA,091808.00,3030.66910921,N,11424.06376377,E,2,24,0.7,57.103,M,-12.686,M,7.0,0137*5B
$GPGGA,091809.00,3030.66910799,N,11424.06377191,E,2,24,0.7,57.148,M,-12.686,M,3.0,0137*57
$GPGGA,091810.00,3030.66910770,N,11424.06377721,E,2,24,0.7,57.170,M,-12.686,M,4.0,0137*59
$GPGGA,091811.00,3030.66910958,N,11424.06377990,E,2,24,0.7,57.166,M,-12.686,M,5.0,0137*5E
$GPGGA,091812.00,3030.66911014,N,11424.06378181,E,2,24,0.7,57.165,M,-12.686,M,6.0,0137*5A
$GPGGA,091813.00,3030.66911120,N,11424.06378315,E,2,24,0.7,57.175,M,-12.686,M,7.0,0137*52
$GPGGA,091814.00,3030.66911224,N,11424.06378588,E,2,24,0.7,57.191,M,-12.686,M,7.0,0137*5A
$GPGGA,091815.00,3030.66911262,N,11424.06378777,E,2,24,0.7,57.197,M,-12.686,M,3.0,0137*59
$GPGGA,091816.00,3030.66911445,N,11424.06378839,E,2,24,0.7,57.190,M,-12.686,M,4.0,0137*5C
$GPGGA,091817.00,3030.66911599,N,11424.06379119,E,2,24,0.7,57.202,M,-12.686,M,5.0,0137*5E
$GPGGA,091818.00,3030.66911798,N,11424.06379273,E,2,24,0.7,57.206,M,-12.686,M,6.0,0137*5A
$GPGGA,091819.00,3030.66912020,N,11424.06379387,E,2,24,0.7,57.215,M,-12.686,M,7.0,0137*55
$GPGGA,091820.00,3030.66912210,N,11424.06379559,E,2,24,0.7,57.219,M,-12.686,M,7.0,0137*57
$GPGGA,091821.00,3030.66912288,N,11424.06379884,E,2,24,0.7,57.231,M,-12.686,M,3.0,0137*54
$GPGGA,091822.00,3030.66912398,N,11424.06380228,E,2,24,0.7,57.238,M,-12.686,M,4.0,0137*53
$GPGGA,091823.00,3030.66912405,N,11424.06380479,E,2,24,0.7,57.244,M,-12.686,M,5.0,0137*59
$GPGGA,091824.00,3030.66912391,N,11424.06380801,E,2,24,0.7,57.255,M,-12.686,M,6.0,0137*54
$GPGGA,091825.00,3030.66912552,N,11424.06380801,E,2,24,0.7,57.258,M,-12.686,M,7.0,0137*50
$GPGGA,091826.00,3030.66912586,N,11424.06380956,E,2,24,0.7,57.255,M,-12.686,M,7.0,0137*54
$GPGGA,091827.00,3030.66912602,N,11424.06380846,E,2,24,0.7,57.245,M,-12.686,M,3.0,0137*5F
$GPGGA,091828.00,3030.66912739,N,11424.06380702,E,2,24,0.7,57.237,M,-12.686,M,4.0,0137*54
$GPGGA,091829.00,3030.66912845,N,11424.06380658,E,2,24,0.7,57.226,M,-12.686,M,5.0,0137*5E
$GPGGA,091830.00,3030.66912901,N,11424.06380807,E,2,24,0.7,57.235,M,-12.686,M,6.0,0137*52
$GPGGA,091831.00,3030.66913168,N,11424.06380863,E,2,24,0.7,57.239,M,-12.686,M,7.0,0137*5A
$GPGGA,091832.00,3030.66913505,N,11424.06380800,E,2,24,0.7,57.226,M,-12.686,M,7.0,0137*5D
$GPGGA,091833.00,3030.66913688,N,11424.06380617,E,2,24,0.7,57.215,M,-12.686,M,3.0,0137*56
$GPGGA,091834.00,3030.66913810,N,11424.06380500,E,2,24,0.7,57.218,M,-12.686,M,4.0,0137*51
$GPGGA,091835.00,3030.66914149,N,11424.06380563,E,2,24,0.7,57.213,M,-12.686,M,5.0,0137*5D
$GPGGA,091836.00,3030.66914377,N,11424.06380575,E,2,24,0.7,57.211,M,-12.686,M,6.0,0137*57
$GPGGA,091837.00,3030.66914566,N,11424.06380530,E,2,24,0.7,57.207,M,-12.686,M,7.0,0137*57
$GPGGA,091838.00,3030.66914708,N,11424.06380336,E,2,24,0.7,57.196,M,-12.686,M,7.0,0137*59
$GPGGA,091839.00,3030.66915063,N,11424.06379998,E,2,24,0.7,57.180,M,-12.686,M,3.0,0137*58
$GPGGA,091840.00,3030.66915226,N,11424.06379685,E,2,24,0.7,57.158,M,-12.686,M,4.0,0137*54
$GPGGA,091841.00,3030.66915465,N,11424.06379390,E,2,24,0.7,57.138,M,-12.686,M,5.0,0137*52
$GPGGA,091842.00,3030.66915562,N,11424.06379032,E,2,24,0.7,57.122,M,-12.686,M,6.0,0137*54
$GPGGA,091843.00,3030.66915625,N,11424.06378992,E,2,24,0.7,57.105,M,-12.686,M,7.0,0137*53
$GPGGA,091844.00,3030.66915839,N,11424.06378622,E,2,24,0.7,57.077,M,-12.686,M,7.0,0137*57
$GPGGA,091845.00,3030.66916045,N,11424.06378047,E,2,24,0.7,57.040,M,-12.686,M,3.0,0137*53
$GPGGA,091846.00,3030.66916267,N,11424.06377565,E,2,24,0.7,57.005,M,-12.686,M,4.0,0137*5E
$GPGGA,091847.00,3030.66916427,N,11424.06377015,E,2,24,0.7,56.982,M,-12.686,M,5.0,0137*59
$GPGGA,091848.00,3030.66916467,N,11424.06376370,E,2,23,0.7,56.954,M,-12.686,M,6.0,0137*5C
$GPGGA,091849.00,3030.66916510,N,11424.06375810,E,2,23,0.7,56.937,M,-12.686,M,7.0,0137*56
$GPGGA,091850.00,3030.66916683,N,11424.06375384,E,2,23,0.7,56.903,M,-12.686,M,7.0,0137*56
$GPGGA,091851.00,3030.66916885,N,11424.06374807,E,2,23,0.7,56.872,M,-12.686,M,3.0,0137*5D
$GPGGA,091852.00,3030.66917102,N,11424.06374302,E,2,23,0.7,56.844,M,-12.686,M,4.0,0137*55
$GPGGA,091853.00,3030.66917270,N,11424.06373908,E,2,23,0.7,56.808,M,-12.686,M,5.0,0137*5C
$GPGGA,091854.00,3030.66917471,N,11424.06373224,E,2,23,0.7,56.776,M,-12.686,M,6.0,0137*5C
$GPGGA,091855.00,3030.66917646,N,11424.06372602,E,2,23,0.7,56.744,M,-12.686,M,7.0,0137*5A
$GPGGA,091856.00,3030.66917741,N,11424.06371923,E,2,23,0.7,56.705,M,-12.686,M,7.0,0137*55
$GPGGA,091857.00,3030.66917948,N,11424.06371131,E,2,23,0.7,56.667,M,-12.686,M,3.0,0137*59
$GPGGA,091858.00,3030.66918095,N,11424.06370251,E,2,23,0.7,56.631,M,-12.686,M,4.0,0137*50
$GPGGA,091859.00,3030.66918378,N,11424.06369589,E,2,23,0.7,56.586,M,-12.686,M,5.0,0137*55
$GPGGA,091900.00,3030.66918515,N,11424.06368692,E,2,23,0.7,56.560,M,-12.686,M,6.0,0137*56
$GPGGA,091901.00,3030.66918674,N,11424.06368219,E,2,23,0.7,56.525,M,-12.686,M,7.0,0137*54
$GPGGA,091902.00,3030.66918792,N,11424.06367532,E,2,23,0.7,56.495,M,-12.686,M,7.0,0137*55
$GPGGA,091903.00,3030.66918892,N,11424.06366899,E,2,23,0.7,56.473,M,-12.686,M,3.0,0137*5A
$GPGGA,091904.00,3030.66919081,N,11424.06366186,E,2,23,0.7,56.435,M,-12.686,M,4.0,0137*54
$GPGGA,091905.00,3030.66919267,N,11424.06365633,E,2,23,0.7,56.401,M,-12.686,M,5.0,0137*53
$GPGGA,091906.00,3030.66919409,N,11424.06365094,E,2,23,0.7,56.356,M,-12.686,M,6.0,0137*53
$GPGGA,091907.00,3030.66919658,N,11424.06364540,E,2,23,0.7,56.320,M,-12.686,M,7.0,0137*59
$GPGGA,091908.00,3030.66919839,N,11424.06363881,E,2,23,0.7,56.277,M,-12.686,M,7.0,0137*5B
$GPGGA,091909.00,3030.66919926,N,11424.06363268,E,2,23,0.7,56.238,M,-12.686,M,3.0,0137*57
$GPGGA,091910.00,3030.66920111,N,11424.06362502,E,2,23,0.7,56.205,M,-12.686,M,4.0,0137*5A
$GPGGA,091911.00,3030.66920223,N,11424.06361986,E,2,23,0.7,56.173,M,-12.686,M,5.0,0137*59
$GPGGA,091912.00,3030.66920498,N,11424.06361428,E,2,23,0.7,56.126,M,-12.686,M,6.0,0137*56
$GPGGA,091913.00,3030.66920658,N,11424.06360711,E,2,23,0.7,56.082,M,-12.686,M,7.0,0137*5F
$GPGGA,091914.00,3030.66920909,N,11424.06360170,E,2,23,0.7,56.046,M,-12.686,M,7.0,0137*5A
$GPGGA,091915.00,3030.66921028,N,11424.06359491,E,2,23,0.7,56.004,M,-12.686,M,3.0,0137*52
$GPGGA,091916.00,3030.66921186,N,11424.06358887,E,2,23,0.7,55.965,M,-12.686,M,4.0,0137*54
$GPGGA,091917.00,3030.66921269,N,11424.06358312,E,2,23,0.7,55.921,M,-12.686,M,5.0,0137*51
$GPGGA,091918.00,3030.66921263,N,11424.06357659,E,2,23,0.7,55.885,M,-12.686,M,6.0,0137*5D
$GPGGA,091919.00,3030.66921337,N,11424.06357045,E,2,23,0.7,55.852,M,-12.686,M,7.0,0137*5C
$GPGGA,091920.00,3030.66921590,N,11424.06356611,E,2,23,0.7,55.806,M,-12.686,M,7.0,0137*5A
$GPGGA,091921.00,3030.66921684,N,11424.06355918,E,2,23,0.7,55.757,M,-12.686,M,3.0,0137*57
$GPGGA,091922.00,3030.66921849,N,11424.06355163,E,2,23,0.7,55.728,M,-12.686,M,4.0,0137*50
$GPGGA,091923.00,3030.66921950,N,11424.06354608,E,2,23,0.7,55.691,M,-12.686,M,5.0,0137*51
$GPGGA,091924.00,3030.66922013,N,11424.06354082,E,2,23,0.7,55.655,M,-12.686,M,6.0,0137*54
$GPGGA,091925.00,3030.66922185,N,11424.06353596,E,2,23,0.7,55.616,M,-12.686,M,7.0,0137*5A
$GPGGA,091926.00,3030.66922352,N,11424.06352990,E,2,23,0.7,55.582,M,-12.686,M,7.0,0137*54
$GPGGA,091927.00,3030.66922396,N,11424.06352262,E,2,23,0.7,55.548,M,-12.686,M,3.0,0137*59
$GPGGA,091928.00,3030.66922496,N,11424.06351723,E,2,23,0.7,55.508,M,-12.686,M,4.0,0137*51
$GPGGA,091929.00,3030.66922527,N,11424.06351088,E,2,23,0.7,55.468,M,-12.686,M,5.0,0137*5B
$GPGGA,091930.00,3030.66922699,N,11424.06350410,E,2,23,0.7,55.428,M,-12.686,M,6.0,0137*56
$GPGGA,091931.00,3030.66922727,N,11424.06349435,E,2,23,0.7,55.387,M,-12.686,M,7.0,0137*5F
$GPGGA,091932.00,3030.66922653,N,11424.06348786,E,2,23,0.7,55.343,M,-12.686,M,7.0,0137*5C
$GPGGA,091933.00,3030.66922569,N,11424.06348273,E,2,23,0.7,55.311,M,-12.686,M,3.0,0137*5B
$GPGGA,091934.00,3030.66922658,N,11424.06347693,E,2,23,0.7,55.287,M,-12.686,M,4.0,0137*51
$GPGGA,091935.00,3030.66922866,N,11424.06347366,E,2,23,0.7,55.246,M,-12.686,M,5.0,0137*50
$GPGGA,091936.00,3030.66922942,N,11424.06346753,E,2,23,0.7,55.216,M,-12.686,M,6.0,0137*51
$GPGGA,091937.00,3030.66923172,N,11424.06346300,E,2,23,0.7,55.182,M,-12.686,M,7.0,0137*57
$GPGGA,091938.00,3030.66923349,N,11424.06345727,E,2,23,0.7,55.156,M,-12.686,M,7.0,0137*59
$GPGGA,091939.00,3030.66923532,N,11424.06345247,E,2,23,0.7,55.115,M,-12.686,M,3.0,0137*52
$GPGGA,091940.00,3030.66923761,N,11424.06344775,E,2,23,0.7,55.081,M,-12.686,M,4.0,0137*56
$GPGGA,091941.00,3030.66924032,N,11424.06344164,E,2,23,0.7,55.044,M,-12.686,M,5.0,0137*5F
$GPGGA,091942.00,3030.66924085,N,11424.06343692,E,2,23,0.7,55.022,M,-12.686,M,6.0,0137*5A
$GPGGA,091943.00,3030.66924321,N,11424.06343495,E,2,23,0.7,54.984,M,-12.686,M,7.0,0137*56
$GPGGA,091944.00,3030.66905823,N,11424.06378322,E,1,22,0.8,55.796,M,-12.686,M,,*75
$GPGGA,091945.00,3030.66895762,N,11424.06390685,E,1,22,0.8,55.624,M,-12.686,M,,*70
$GPGGA,091946.00,3030.66892436,N,11424.06394697,E,1,22,0.8,55.571,M,-12.686,M,,*72
$GPGGA,091947.00,3030.66890757,N,11424.06396635,E,1,22,0.8,55.529,M,-12.686,M,,*72
$GPGGA,091948.00,3030.66889835,N,11424.06397654,E,1,22,0.8,55.492,M,-12.686,M,,*79
$GPGGA,091949.00,3030.66889060,N,11424.06398339,E,1,22,0.8,55.472,M,-12.686,M,,*7F
$GPGGA,091950.00,3030.66888506,N,11424.06398974,E,1,22,0.8,55.460,M,-12.686,M,,*73
$GPGGA,091951.00,3030.66888066,N,11424.06399568,E,1,22,0.8,55.449,M,-12.686,M,,*7A
$GPGGA,091952.00,3030.66887691,N,11424.06399946,E,1,22,0.8,55.443,M,-12.686,M,,*72
$GPGGA,091953.00,3030.66887507,N,11424.06400167,E,1,22,0.8,55.426,M,-12.686,M,,*70
$GPGGA,091954.00,3030.66887180,N,11424.06400290,E,1,22,0.8,55.424,M,-12.686,M,,*75
$GPGGA,091955.00,3030.66887099,N,11424.06400343,E,1,22,0.8,55.414,M,-12.686,M,,*71
$GPGGA,091956.00,3030.66886938,N,11424.06400524,E,1,22,0.8,55.402,M,-12.686,M,,*71
$GPGGA,091957.00,3030.66886831,N,11424.06400794,E,1,22,0.8,55.391,M,-12.686,M,,*7C
$GPGGA,091958.00,3030.66886736,N,11424.06400905,E,1,22,0.8,55.385,M,-12.686,M,,*78
$GPGGA,091959.00,3030.66886477,N,11424.06400802,E,1,22,0.8,55.379,M,-12.686,M,,*7A
$GPGGA,092000.00,3030.66886340,N,11424.06401157,E,1,22,0.8,55.362,M,-12.686,M,,*7D
$GPGGA,092001.00,3030.66886115,N,11424.06401390,E,1,22,0.8,55.358,M,-12.686,M,,*7E
$GPGGA,092002.00,3030.66885857,N,11424.06401356,E,1,22,0.8,55.362,M,-12.686,M,,*72
$GPGGA,092003.00,3030.66885671,N,11424.06401625,E,1,22,0.8,55.351,M,-12.686,M,,*78
$GPGGA,092004.00,3030.66885463,N,11424.06401737,E,1,22,0.8,55.336,M,-12.686,M,,*7D
$GPGGA,092005.00,3030.66885377,N,11424.06402050,E,1,22,0.8,55.326,M,-12.686,M,,*7A
$GPGGA,092006.00,3030.66885149,N,11424.06402145,E,1,22,0.8,55.314,M,-12.686,M,,*72
$GPGGA,092007.00,3030.66884968,N,11424.06402121,E,1,22,0.8,55.303,M,-12.686,M,,*7D
$GPGGA,092008.00,3030.66884766,N,11424.06402331,E,1,22,0.8,55.282,M,-12.686,M,,*79
$GPGGA,092009.00,3030.66884481,N,11424.06402620,E,1,22,0.8,55.274,M,-12.686,M,,*7E
$GPGGA,092010.00,3030.66884410,N,11424.06402599,E,1,22,0.8,55.270,M,-12.686,M,,*7B
$GPGGA,092011.00,3030.66884118,N,11424.06402619,E,1,22,0.8,55.270,M,-12.686,M,,*7C
$GPGGA,092012.00,3030.66883983,N,11424.06402698,E,1,22,0.8,55.268,M,-12.686,M,,*72
$GPGGA,092013.00,3030.66883719,N,11424.06402795,E,1,22,0.8,55.255,M,-12.686,M,,*7C
$GPGGA,092014.00,3030.66883645,N,11424.06402944,E,1,22,0.8,55.260,M,-12.686,M,,*77
$GPGGA,092015.00,3030.66883548,N,11424.06403112,E,1,22,0.8,55.252,M,-12.686,M,,*73
$GPGGA,092016.00,3030.66883590,N,11424.06403209,E,1,22,0.8,55.244,M,-12.686,M,,*7B
$GPGGA,092017.00,3030.66883504,N,11424.06403326,E,1,22,0.8,55.241,M,-12.686,M,,*7E
$GPGGA,092018.00,3030.66883329,N,11424.06403436,E,1,22,0.8,55.228,M,-12.686,M,,*71
$GPGGA,092019.00,3030.66883227,N,11424.06403594,E,1,22,0.8,55.232,M,-12.686,M,,*7D
$GPGGA,092020.00,3030.66883266,N,11424.06402825,E,2,23,0.7,55.242,M,-12.686,M,7.0,0137*52
$GPGGA,092021.00,3030.66883634,N,11424.06400201,E,2,23,0.7,55.277,M,-12.686,M,3.0,0137*5C
$GPGGA,092022.00,3030.66884126,N,11424.06397567,E,2,23,0.7,55.309,M,-12.686,M,4.0,0137*5D
$GPGGA,092023.00,3030.66884540,N,11424.06395189,E,2,23,0.7,55.332,M,-12.686,M,5.0,0137*57
$GPGGA,092024.00,3030.66885282,N,11424.06392679,E,2,23,0.7,55.343,M,-12.686,M,6.0,0137*52
$GPGGA,092025.00,3030.66885880,N,11424.06390207,E,2,23,0.7,55.351,M,-12.686,M,7.0,0137*56
$GPGGA,092026.00,3030.66886485,N,11424.06387748,E,2,23,0.7,55.356,M,-12.686,M,7.0,0137*50
$GPGGA,092027.00,3030.66887279,N,11424.06385212,E,2,23,0.7,55.352,M,-12.686,M,3.0,0137*5D
$GPGGA,092028.00,3030.66888124,N,11424.06382780,E,2,23,0.7,55.342,M,-12.686,M,4.0,0137*59
$GPGGA,092029.00,3030.66888776,N,11424.06380342,E,2,23,0.7,55.322,M,-12.686,M,5.0,0137*56
$GPGGA,092030.00,3030.66889531,N,11424.06378125,E,2,23,0.7,55.305,M,-12.686,M,6.0,0137*5C
$GPGGA,092031.00,3030.66890406,N,11424.06375943,E,2,23,0.7,55.279,M,-12.686,M,7.0,0137*5E
$GPGGA,092032.00,3030.66891349,N,11424.06373709,E,2,23,0.7,55.260,M,-12.686,M,7.0,0137*5E
$GPGGA,092033.00,3030.66892340,N,11424.06371437,E,2,23,0.7,55.236,M,-12.686,M,3.0,0137*5E
$GPGGA,092034.00,3030.66893291,N,11424.06369357,E,2,23,0.7,55.205,M,-12.686,M,4.0,0137*5A
$GPGGA,092035.00,3030.66894178,N,11424.06367408,E,2,23,0.7,55.185,M,-12.686,M,5.0,0137*51
$GPGGA,092036.00,3030.66895178,N,11424.06365412,E,2,23,0.7,55.166,M,-12.686,M,6.0,0137*54
$GPGGA,092037.00,3030.66896185,N,11424.06363412,E,2,23,0.7,55.130,M,-12.686,M,7.0,0137*50
$GPGGA,092038.00,3030.66897038,N,11424.06361628,E,2,23,0.7,55.094,M,-12.686,M,7.0,0137*5F
$GPGGA,092039.00,3030.66897850,N,11424.06359896,E,2,23,0.7,55.070,M,-12.686,M,3.0,0137*56
$GPGGA,092040.00,3030.66898659,N,11424.06358393,E,2,23,0.7,55.048,M,-12.686,M,4.0,0137*53
$GPGGA,092041.00,3030.66899380,N,11424.06356912,E,2,23,0.7,55.006,M,-12.686,M,5.0,0137*54
$GPGGA,092042.00,3030.66900300,N,11424.06355283,E,2,23,0.7,54.950,M,-12.686,M,6.0,0137*56
$GPGGA,092043.00,3030.66901214,N,11424.06353441,E,2,23,0.7,54.899,M,-12.686,M,7.0,0137*59
$GPGGA,092044.00,3030.66902176,N,11424.06351769,E,2,23,0.7,54.848,M,-12.686,M,7.0,0137*5D
$GPGGA,092045.00,3030.66903097,N,11424.06350248,E,2,22,0.8,54.798,M,-12.686,M,3.0,0137*5C
$GPGGA,092046.00,3030.66903895,N,11424.06348788,E,2,22,0.8,54.743,M,-12.686,M,4.0,0137*54
$GPGGA,092047.00,3030.66904598,N,11424.06347383,E,2,22,0.8,54.688,M,-12.686,M,5.0,0137*55
$GPGGA,092048.00,3030.66905447,N,11424.06346090,E,2,22,0.8,54.644,M,-12.686,M,6.0,0137*5B
$GPGGA,092049.00,3030.66906232,N,11424.06344923,E,2,22,0.8,54.583,M,-12.686,M,7.0,0137*57
$GPGGA,092050.00,3030.66906905,N,11424.06343821,E,2,22,0.8,54.521,M,-12.686,M,7.0,0137*5C
$GPGGA,092051.00,3030.66907594,N,11424.06342655,E,2,22,0.8,54.468,M,-12.686,M,3.0,0137*5C
$GPGGA,092052.00,3030.66908417,N,11424.06341186,E,2,22,0.8,54.419,M,-12.686,M,4.0,0137*51
$GPGGA,092053.00,3030.66909141,N,11424.06339875,E,2,22,0.8,54.367,M,-12.686,M,5.0,0137*52
$GPGGA,092054.00,3030.66909761,N,11424.06338650,E,2,22,0.8,54.329,M,-12.686,M,6.0,0137*50
$GPGGA,092055.00,3030.66910368,N,11424.06337715,E,2,22,0.8,54.293,M,-12.686,M,7.0,0137*5A
$GPGGA,092056.00,3030.66911115,N,11424.06336308,E,2,22,0.8,54.239,M,-12.686,M,7.0,0137*59
$GPGGA,092057.00,3030.66911626,N,11424.06335524,E,2,22,0.8,54.197,M,-12.686,M,3.0,0137*57
$GPGGA,092058.00,3030.66912335,N,11424.06334556,E,2,22,0.8,54.150,M,-12.686,M,4.0,0137*54
$GPGGA,092059.00,3030.66912834,N,11424.06333762,E,2,22,0.8,54.100,M,-12.686,M,5.0,0137*59
$GPGGA,092100.00,3030.66913236,N,11424.06333118,E,2,22,0.8,54.057,M,-12.686,M,6.0,0137*56
$GPGGA,092101.00,3030.66913656,N,11424.06332417,E,2,22,0.8,54.004,M,-12.686,M,7.0,0137*59
$GPGGA,092102.00,3030.66914331,N,11424.06331413,E,2,22,0.8,53.964,M,-12.686,M,7.0,0137*56
$GPGGA,092103.00,3030.66915026,N,11424.06330590,E,2,22,0.8,53.922,M,-12.686,M,3.0,0137*5E
$GPGGA,092104.00,3030.66915630,N,11424.06329562,E,2,22,0.8,53.875,M,-12.686,M,4.0,0137*59
$GPGGA,092105.00,3030.66916229,N,11424.06328552,E,2,22,0.8,53.829,M,-12.686,M,5.0,0137*5D
