$GPGGA,104945.00,3030.67136662,N,11424.06228385,E,1,09,4.6,58.325,M,-12.686,M,,*70
$GPGGA,104946.00,3030.67134287,N,11424.06230347,E,1,09,4.6,58.403,M,-12.686,M,,*7A
$GPGGA,104947.00,3030.67130724,N,11424.06233214,E,1,09,4.6,58.549,M,-12.686,M,,*78
$GPGGA,104948.00,3030.67127932,N,11424.06236139,E,1,09,4.6,58.701,M,-12.686,M,,*7F
$GPGGA,104949.00,3030.67115932,N,11424.06246150,E,1,10,3.8,59.243,M,-12.686,M,,*74
$GPGGA,104950.00,3030.67093688,N,11424.06261632,E,1,09,4.6,60.023,M,-12.686,M,,*74
$GPGGA,104951.00,3030.67079214,N,11424.06271409,E,1,09,4.6,60.457,M,-12.686,M,,*7C
$GPGGA,104952.00,3030.67071547,N,11424.06278697,E,1,09,4.6,60.780,M,-12.686,M,,*73
$GPGGA,104953.00,3030.67068668,N,11424.06282397,E,1,09,4.6,60.935,M,-12.686,M,,*74
$GPGGA,104954.00,3030.67066538,N,11424.06285561,E,1,09,4.6,61.068,M,-12.686,M,,*73
$GPGGA,104955.00,3030.67063739,N,11424.06288398,E,1,10,4.2,61.180,M,-12.686,M,,*72
$GPGGA,104956.00,3030.67054038,N,11424.06295900,E,1,10,4.2,61.573,M,-12.686,M,,*7C
$GPGGA,104957.00,3030.67047613,N,11424.06300797,E,1,10,4.2,61.823,M,-12.686,M,,*75
$GPGGA,104958.00,3030.67026553,N,11424.06311605,E,1,09,4.3,62.388,M,-12.686,M,,*70
$GPGGA,104959.00,3030.67012545,N,11424.06319743,E,1,09,4.3,62.794,M,-12.686,M,,*73
$GPGGA,105000.00,3030.67002984,N,11424.06325532,E,1,09,4.3,63.091,M,-12.686,M,,*7F
$GPGGA,105001.00,3030.66994172,N,11424.06331318,E,1,09,4.3,63.382,M,-12.686,M,,*72
$GPGGA,105002.00,3030.66986831,N,11424.06336093,E,1,09,4.3,63.611,M,-12.686,M,,*74
$GPGGA,105003.00,3030.66981931,N,11424.06339364,E,1,10,3.7,63.781,M,-12.686,M,,*74
$GPGGA,105004.00,3030.66979954,N,11424.06341351,E,1,10,3.7,63.893,M,-12.686,M,,*72
$GPGGA,105005.00,3030.66978569,N,11424.06342710,E,1,10,3.7,63.967,M,-12.686,M,,*78
$GPGGA,105006.00,3030.66977906,N,11424.06343698,E,1,10,3.7,64.029,M,-12.686,M,,*75
$GPGGA,105007.00,3030.66978326,N,11424.06344024,E,1,10,3.7,64.057,M,-12.686,M,,*7C
$GPGGA,105008.00,3030.66980531,N,11424.06343890,E,1,10,3.7,64.079,M,-12.686,M,,*78
$GPGGA,105009.00,3030.66983731,N,11424.06343273,E,1,10,3.7,64.082,M,-12.686,M,,*7B
$GPGGA,105010.00,3030.66986097,N,11424.06342344,E,1,10,3.7,64.063,M,-12.686,M,,*76
$GPGGA,105011.00,3030.66988948,N,11424.06341690,E,1,10,3.7,64.034,M,-12.686,M,,*7F
$GPGGA,105012.00,3030.66991527,N,11424.06341177,E,1,10,3.7,64.017,M,-12.686,M,,*7E
$GPGGA,105013.00,3030.66993509,N,11424.06340737,E,1,10,3.7,64.019,M,-12.686,M,,*7C
$GPGGA,105014.00,3030.66995632,N,11424.06339757,E,1,10,3.7,63.997,M,-12.686,M,,*76
$GPGGA,105015.00,3030.66998834,N,11424.06338544,E,1,10,3.7,63.954,M,-12.686,M,,*7C
$GPGGA,105016.00,3030.67001841,N,11424.06337340,E,1,10,3.7,63.897,M,-12.686,M,,*76
$GPGGA,105017.00,3030.67004959,N,11424.06335974,E,1,10,3.7,63.848,M,-12.686,M,,*77
$GPGGA,105018.00,3030.67008502,N,11424.06334273,E,1,10,3.7,63.786,M,-12.686,M,,*76
$GPGGA,105019.00,3030.67013137,N,11424.06332430,E,1,10,3.7,63.710,M,-12.686,M,,*77
$GPGGA,105020.00,3030.67017031,N,11424.06330494,E,1,10,3.7,63.636,M,-12.686,M,,*77
$GPGGA,105021.00,3030.67021199,N,11424.06328642,E,1,10,3.7,63.566,M,-12.686,M,,*76
$GPGGA,105022.00,3030.67024655,N,11424.06326837,E,1,10,3.7,63.497,M,-12.686,M,,*7A
$GPGGA,105023.00,3030.67027940,N,11424.06325152,E,1,10,3.7,63.428,M,-12.686,M,,*7E
$GPGGA,105024.00,3030.67030532,N,11424.06324003,E,1,10,3.7,63.376,M,-12.686,M,,*7E
$GPGGA,105025.00,3030.67032667,N,11424.06322976,E,1,10,3.7,63.339,M,-12.686,M,,*78
$GPGGA,105026.00,3030.67034376,N,11424.06322059,E,1,10,3.7,63.307,M,-12.686,M,,*71
$GPGGA,105027.00,3030.67036592,N,11424.06321087,E,1,10,3.7,63.279,M,-12.686,M,,*76
$GPGGA,105028.00,3030.67038369,N,11424.06320552,E,1,10,3.7,63.251,M,-12.686,M,,*73
$GPGGA,105029.00,3030.67040058,N,11424.06319873,E,1,10,3.7,63.227,M,-12.686,M,,*79
$GPGGA,105030.00,3030.67042840,N,11424.06319072,E,1,10,3.7,63.190,M,-12.686,M,,*74
$GPGGA,105031.00,3030.67045279,N,11424.06318006,E,1,10,3.7,63.143,M,-12.686,M,,*7E
$GPGGA,105032.00,3030.67047197,N,11424.06317172,E,1,10,3.7,63.087,M,-12.686,M,,*78
$GPGGA,105033.00,3030.67048387,N,11424.06316493,E,1,10,3.7,63.051,M,-12.686,M,,*75
$GPGGA,105034.00,3030.67048714,N,11424.06316524,E,1,10,3.7,63.058,M,-12.686,M,,*78
$GPGGA,105035.00,3030.67048661,N,11424.06317229,E,1,10,3.7,63.074,M,-12.686,M,,*7F
$GPGGA,105036.00,3030.67047138,N,11424.06317994,E,1,10,3.7,63.122,M,-12.686,M,,*77
$GPGGA,105037.00,3030.67046364,N,11424.06318804,E,1,10,3.7,63.155,M,-12.686,M,,*7B
$GPGGA,105038.00,3030.67045336,N,11424.06319620,E,1,10,3.7,63.188,M,-12.686,M,,*79
$GPGGA,105039.00,3030.67045463,N,11424.06319921,E,1,10,3.7,63.188,M,-12.686,M,,*71
$GPGGA,105040.00,3030.67044388,N,11424.06320461,E,1,10,3.7,63.206,M,-12.686,M,,*7A
$GPGGA,105041.00,3030.67043962,N,11424.06321241,E,1,10,3.7,63.228,M,-12.686,M,,*7B
$GPGGA,105042.00,3030.67042567,N,11424.06322333,E,1,10,3.7,63.265,M,-12.686,M,,*7E
$GPGGA,105043.00,3030.67041420,N,11424.06323148,E,1,10,3.7,63.286,M,-12.686,M,,*7C
$GPGGA,105044.00,3030.67039848,N,11424.06324381,E,1,10,3.7,63.326,M,-12.686,M,,*7D
$GPGGA,105045.00,3030.67039234,N,11424.06325020,E,1,10,3.7,63.343,M,-12.686,M,,*77
$GPGGA,105046.00,3030.67038867,N,11424.06325470,E,1,10,3.7,63.343,M,-12.686,M,,*78
$GPGGA,105047.00,3030.67038997,N,11424.06325481,E,1,10,3.7,63.345,M,-12.686,M,,*7F
$GPGGA,105048.00,3030.67040548,N,11424.06325221,E,1,10,3.7,63.305,M,-12.686,M,,*79
$GPGGA,105049.00,3030.67041496,N,11424.06324845,E,1,10,3.7,63.255,M,-12.686,M,,*76
$GPGGA,105050.00,3030.67041923,N,11424.06324736,E,1,10,3.7,63.224,M,-12.686,M,,*70
$GPGGA,105051.00,3030.67043397,N,11424.06324473,E,1,10,3.7,63.181,M,-12.686,M,,*78
$GPGGA,105052.00,3030.67044444,N,11424.06324319,E,1,10,3.7,63.154,M,-12.686,M,,*76
$GPGGA,105053.00,3030.67044089,N,11424.06324258,E,1,10,3.7,63.139,M,-12.686,M,,*7D
$GPGGA,105054.00,3030.67044607,N,11424.06323883,E,1,10,3.7,63.100,M,-12.686,M,,*7B
$GPGGA,105055.00,3030.67043772,N,11424.06323957,E,1,10,3.7,63.094,M,-12.686,M,,*7A
$GPGGA,105056.00,3030.67044236,N,11424.06323787,E,1,10,3.6,63.069,M,-12.686,M,,*7B
$GPGGA,105057.00,3030.67044263,N,11424.06323694,E,1,10,3.6,63.059,M,-12.686,M,,*7A
$GPGGA,105058.00,3030.67044169,N,11424.06323870,E,1,10,3.6,63.053,M,-12.686,M,,*72
$GPGGA,105059.00,3030.67044263,N,11424.06323865,E,1,10,3.6,63.031,M,-12.686,M,,*7A
$GPGGA,105100.00,3030.67044057,N,11424.06323930,E,1,10,3.6,63.006,M,-12.686,M,,*77
$GPGGA,105101.00,3030.67044091,N,11424.06324231,E,1,10,3.6,62.980,M,-12.686,M,,*77
$GPGGA,105102.00,3030.67044599,N,11424.06324295,E,1,10,3.6,62.952,M,-12.686,M,,*78
$GPGGA,105103.00,3030.67044645,N,11424.06324214,E,1,10,3.6,62.935,M,-12.686,M,,*73
$GPGGA,105104.00,3030.67044072,N,11424.06324469,E,1,10,3.6,62.909,M,-12.686,M,,*75
$GPGGA,105105.00,3030.67043813,N,11424.06324405,E,1,10,3.6,62.882,M,-12.686,M,,*74
$GPGGA,105106.00,3030.67044700,N,11424.06324517,E,1,10,3.6,62.837,M,-12.686,M,,*71
$GPGGA,105107.00,3030.67045656,N,11424.06324618,E,1,10,3.6,62.799,M,-12.686,M,,*74
$GPGGA,105108.00,3030.67046727,N,11424.06324827,E,1,10,3.6,62.765,M,-12.686,M,,*7E
$GPGGA,105109.00,3030.67047673,N,11424.06325076,E,1,10,3.6,62.753,M,-12.686,M,,*76
$GPGGA,105110.00,3030.67049685,N,11424.06324954,E,1,10,3.6,62.698,M,-12.686,M,,*77
$GPGGA,105111.00,3030.67050587,N,11424.06324990,E,1,10,3.6,62.665,M,-12.686,M,,*75
$GPGGA,105112.00,3030.67052770,N,11424.06324862,E,1,10,3.6,62.614,M,-12.686,M,,*74
$GPGGA,105113.00,3030.67052617,N,11424.06325121,E,1,10,3.6,62.603,M,-12.686,M,,*7C
$GPGGA,105114.00,3030.67053768,N,11424.06324699,E,1,10,3.6,62.563,M,-12.686,M,,*73
$GPGGA,105115.00,3030.67054350,N,11424.06324864,E,1,11,3.6,62.534,M,-12.686,M,,*75
$GPGGA,105116.00,3030.67055354,N,11424.06324755,E,1,11,3.6,62.514,M,-12.686,M,,*7C
$GPGGA,105117.00,3030.67055374,N,11424.06324523,E,1,11,3.6,62.491,M,-12.686,M,,*70
$GPGGA,105118.00,3030.67056195,N,11424.06324265,E,1,11,3.6,62.452,M,-12.686,M,,*7B
$GPGGA,105119.00,3030.67058033,N,11424.06323781,E,1,11,3.6,62.400,M,-12.686,M,,*76
$GPGGA,105120.00,3030.67059113,N,11424.06323274,E,1,11,3.6,62.358,M,-12.686,M,,*7B
$GPGGA,105121.00,3030.67058757,N,11424.06323164,E,1,11,3.6,62.345,M,-12.686,M,,*73
$GPGGA,105122.00,3030.67058245,N,11424.06323342,E,1,11,3.6,62.333,M,-12.686,M,,*71
$GPGGA,105123.00,3030.67058576,N,11424.06323109,E,1,11,3.6,62.328,M,-12.686,M,,*70
$GPGGA,105124.00,3030.67058879,N,11424.06322919,E,1,11,3.6,62.304,M,-12.686,M,,*73
$GPGGA,105125.00,3030.67058384,N,11424.06323045,E,1,11,3.6,62.296,M,-12.686,M,,*70
$GPGGA,105126.00,3030.67057704,N,11424.06322954,E,1,11,3.6,62.283,M,-12.686,M,,*7C
$GPGGA,105127.00,3030.67056473,N,11424.06322756,E,1,11,3.6,62.286,M,-12.686,M,,*76
$GPGGA,105128.00,3030.67055543,N,11424.06322957,E,1,11,3.6,62.287,M,-12.686,M,,*76
$GPGGA,105129.00,3030.67053825,N,11424.06323230,E,1,11,3.6,62.301,M,-12.686,M,,*78
$GPGGA,105130.00,3030.67052606,N,11424.06323450,E,1,11,3.6,62.312,M,-12.686,M,,*7C
$GPGGA,105131.00,3030.67052257,N,11424.06323456,E,1,11,3.6,62.319,M,-12.686,M,,*70
$GPGGA,105132.00,3030.67051502,N,11424.06323311,E,1,11,3.6,62.329,M,-12.686,M,,*70
$GPGGA,105133.00,3030.67049996,N,11424.06323336,E,1,11,3.6,62.339,M,-12.686,M,,*7D
$GPGGA,105134.00,3030.67049521,N,11424.06323363,E,1,11,3.6,62.343,M,-12.686,M,,*77
$GPGGA,105135.00,3030.67047993,N,11424.06323606,E,1,11,3.6,62.364,M,-12.686,M,,*7E
$GPGGA,105136.00,3030.67047987,N,11424.06323678,E,1,11,3.6,62.367,M,-12.686,M,,*72
$GPGGA,105137.00,3030.67046228,N,11424.06323987,E,1,11,3.6,62.391,M,-12.686,M,,*7A
$GPGGA,105138.00,3030.67045034,N,11424.06324222,E,1,11,3.6,62.395,M,-12.686,M,,*7E
$GPGGA,105139.00,3030.67043815,N,11424.06324237,E,1,11,3.6,62.414,M,-12.686,M,,*78
$GPGGA,105140.00,3030.67043661,N,11424.06324458,E,1,11,3.6,62.411,M,-12.686,M,,*71
$GPGGA,105141.00,3030.67042618,N,11424.06324767,E,1,11,3.6,62.438,M,-12.686,M,,*7B
$GPGGA,105142.00,3030.67042325,N,11424.06324712,E,1,11,3.6,62.448,M,-12.686,M,,*76
$GPGGA,105143.00,3030.67042622,N,11424.06324466,E,1,11,3.6,62.452,M,-12.686,M,,*7E
$GPGGA,105144.00,3030.67042191,N,11424.06324312,E,1,11,3.6,62.452,M,-12.686,M,,*72
$GPGGA,105145.00,3030.67041471,N,11424.06324150,E,1,11,3.6,62.455,M,-12.686,M,,*78
$GPGGA,105146.00,3030.67041348,N,11424.06324043,E,1,11,3.6,62.458,M,-12.686,M,,*78
$GPGGA,105147.00,3030.67042036,N,11424.06323812,E,1,11,3.6,62.452,M,-12.686,M,,*71
$GPGGA,105148.00,3030.67041186,N,11424.06323823,E,1,11,3.6,62.447,M,-12.686,M,,*71
$GPGGA,105149.00,3030.67042154,N,11424.06323679,E,1,11,3.6,62.433,M,-12.686,M,,*7E
$GPGGA,105150.00,3030.67041604,N,11424.06324041,E,1,11,3.6,62.430,M,-12.686,M,,*7E
$GPGGA,105151.00,3030.67040656,N,11424.06324343,E,1,11,3.6,62.449,M,-12.686,M,,*76
$GPGGA,105152.00,3030.67040341,N,11424.06324637,E,1,11,3.6,62.453,M,-12.686,M,,*7B
$GPGGA,105153.00,3030.67039630,N,11424.06324706,E,1,11,3.6,62.447,M,-12.686,M,,*71
$GPGGA,105154.00,3030.67039961,N,11424.06324654,E,1,11,3.6,62.419,M,-12.686,M,,*70
$GPGGA,105155.00,3030.67040340,N,11424.06324874,E,1,11,3.6,62.401,M,-12.686,M,,*73
$GPGGA,105156.00,3030.67039638,N,11424.06325388,E,1,11,3.6,62.408,M,-12.686,M,,*74
$GPGGA,105157.00,3030.67038812,N,11424.06325776,E,1,11,3.6,62.424,M,-12.686,M,,*79
$GPGGA,105158.00,3030.67037241,N,11424.06326224,E,1,11,3.6,62.452,M,-12.686,M,,*75
$GPGGA,105159.00,3030.67035608,N,11424.06326752,E,1,11,3.6,62.468,M,-12.686,M,,*72
$GPGGA,105200.00,3030.67035572,N,11424.06326959,E,1,11,3.6,62.471,M,-12.686,M,,*7E
$GPGGA,105201.00,3030.67034994,N,11424.06327232,E,1,11,3.6,62.473,M,-12.686,M,,*7F
$GPGGA,105202.00,3030.67035525,N,11424.06327302,E,1,11,3.6,62.469,M,-12.686,M,,*72
$GPGGA,105203.00,3030.67035438,N,11424.06327577,E,1,11,3.6,62.463,M,-12.686,M,,*70
$GPGGA,105204.00,3030.67035113,N,11424.06327863,E,1,11,3.6,62.463,M,-12.686,M,,*73
$GPGGA,105205.00,3030.67034353,N,11424.06328366,E,1,11,3.6,62.473,M,-12.686,M,,*75
$GPGGA,105206.00,3030.67033269,N,11424.06329041,E,1,11,3.6,62.485,M,-12.686,M,,*77
$GPGGA,105207.00,3030.67032399,N,11424.06329338,E,1,11,3.6,62.490,M,-12.686,M,,*70
$GPGGA,105208.00,3030.67031933,N,11424.06329672,E,1,11,3.6,62.495,M,-12.686,M,,*78
$GPGGA,105209.00,3030.67031876,N,11424.06329903,E,1,11,3.6,62.496,M,-12.686,M,,*73
$GPGGA,105210.00,3030.67030558,N,11424.06330216,E,1,11,3.6,62.515,M,-12.686,M,,*76
$GPGGA,105211.00,3030.67030819,N,11424.06330304,E,1,11,3.6,62.499,M,-12.686,M,,*78
$GPGGA,105212.00,3030.67031620,N,11424.06330160,E,1,11,3.6,62.481,M,-12.686,M,,*77
$GPGGA,105213.00,3030.67031916,N,11424.06330476,E,1,11,3.6,62.480,M,-12.686,M,,*7F
$GPGGA,105214.00,3030.67030949,N,11424.06330669,E,1,11,3.6,62.483,M,-12.686,M,,*7C
$GPGGA,105215.00,3030.67030003,N,11424.06330793,E,1,11,3.6,62.479,M,-12.686,M,,*7B
$GPGGA,105216.00,3030.67030227,N,11424.06331366,E,1,11,3.6,62.486,M,-12.686,M,,*73
$GPGGA,105217.00,3030.67029521,N,11424.06331535,E,1,11,3.6,62.482,M,-12.686,M,,*7F
$GPGGA,105218.00,3030.67030014,N,11424.06332050,E,1,11,3.6,62.478,M,-12.686,M,,*7B
$GPGGA,105219.00,3030.67028767,N,11424.06332411,E,1,11,3.6,62.480,M,-12.686,M,,*76
$GPGGA,105220.00,3030.67027385,N,11424.06333042,E,1,11,3.6,62.501,M,-12.686,M,,*70
$GPGGA,105221.00,3030.67026729,N,11424.06333515,E,1,11,3.6,62.517,M,-12.686,M,,*72
$GPGGA,105222.00,3030.67026342,N,11424.06333509,E,1,11,3.6,62.510,M,-12.686,M,,*72
$GPGGA,105223.00,3030.67026384,N,11424.06333695,E,1,11,3.6,62.505,M,-12.686,M,,*7B
$GPGGA,105224.00,3030.67026032,N,11424.06333924,E,1,11,3.6,62.500,M,-12.686,M,,*72
$GPGGA,105225.00,3030.67024601,N,11424.06334606,E,1,11,3.6,62.521,M,-12.686,M,,*7C
$GPGGA,105226.00,3030.67023912,N,11424.06334837,E,1,11,3.6,62.523,M,-12.686,M,,*7B
$GPGGA,105227.00,3030.67023316,N,11424.06335361,E,1,11,3.6,62.524,M,-12.686,M,,*7A
$GPGGA,105228.00,3030.67021878,N,11424.06336080,E,1,11,3.6,62.538,M,-12.686,M,,*76
$GPGGA,105229.00,3030.67021299,N,11424.06336656,E,1,11,3.6,62.540,M,-12.686,M,,*70
$GPGGA,105230.00,3030.67021306,N,11424.06336868,E,1,11,3.6,62.541,M,-12.686,M,,*7D
$GPGGA,105231.00,3030.67020783,N,11424.06337572,E,1,11,3.6,62.558,M,-12.686,M,,*7B
$GPGGA,105232.00,3030.67020847,N,11424.06337887,E,1,11,3.5,62.554,M,-12.686,M,,*77
$GPGGA,105233.00,3030.67020318,N,11424.06338548,E,1,11,3.5,62.561,M,-12.686,M,,*70
$GPGGA,105234.00,3030.67019456,N,11424.06338954,E,1,11,3.5,62.566,M,-12.686,M,,*76
$GPGGA,105235.00,3030.67018896,N,11424.06339816,E,1,11,3.5,62.583,M,-12.686,M,,*7B
$GPGGA,105236.00,3030.67018786,N,11424.06340044,E,1,11,3.5,62.589,M,-12.686,M,,*7D
$GPGGA,105237.00,3030.67018759,N,11424.06340370,E,1,11,3.5,62.595,M,-12.686,M,,*77
$GPGGA,105238.00,3030.67018617,N,11424.06340984,E,1,11,3.5,62.595,M,-12.686,M,,*72
$GPGGA,105239.00,3030.67018049,N,11424.06341517,E,1,11,3.5,62.611,M,-12.686,M,,*76
$GPGGA,105240.00,3030.67017645,N,11424.06342417,E,1,11,3.5,62.641,M,-12.686,M,,*7A
$GPGGA,105241.00,3030.67017286,N,11424.06342971,E,1,11,3.5,62.662,M,-12.686,M,,*7C
$GPGGA,105242.00,3030.67016443,N,11424.06343817,E,1,11,3.5,62.682,M,-12.686,M,,*7F
$GPGGA,105243.00,3030.67016243,N,11424.06344348,E,1,11,3.5,62.689,M,-12.686,M,,*75
$GPGGA,105244.00,3030.67015850,N,11424.06344928,E,1,11,3.5,62.710,M,-12.686,M,,*74
$GPGGA,105245.00,3030.67015896,N,11424.06345328,E,1,11,3.5,62.706,M,-12.686,M,,*73
$GPGGA,105246.00,3030.67015537,N,11424.06345785,E,1,11,3.5,62.710,M,-12.686,M,,*72
$GPGGA,105247.00,3030.67014477,N,11424.06346296,E,1,11,3.5,62.722,M,-12.686,M,,*72
$GPGGA,105248.00,3030.67014051,N,11424.06346516,E,1,11,3.5,62.737,M,-12.686,M,,*76
$GPGGA,105249.00,3030.67013882,N,11424.06347257,E,1,11,3.5,62.768,M,-12.686,M,,*7F
$GPGGA,105250.00,3030.67013470,N,11424.06347863,E,1,11,3.5,62.770,M,-12.686,M,,*72
$GPGGA,105251.00,3030.67012012,N,11424.06348352,E,1,11,3.5,62.787,M,-12.686,M,,*7C
$GPGGA,105252.00,3030.67011426,N,11424.06348199,E,1,11,3.5,62.794,M,-12.686,M,,*78
$GPGGA,105253.00,3030.67010905,N,11424.06349053,E,1,11,3.5,62.826,M,-12.686,M,,*74
$GPGGA,105254.00,3030.67010679,N,11424.06349804,E,1,11,3.5,62.835,M,-12.686,M,,*7F
$GPGGA,105255.00,3030.67010551,N,11424.06350204,E,1,11,3.5,62.848,M,-12.686,M,,*7F
$GPGGA,105256.00,3030.67010295,N,11424.06350900,E,1,11,3.5,62.863,M,-12.686,M,,*75
$GPGGA,105257.00,3030.67009516,N,11424.06351648,E,1,11,3.5,62.890,M,-12.686,M,,*7E
$GPGGA,105258.00,3030.67010424,N,11424.06352014,E,1,11,3.5,62.887,M,-12.686,M,,*73
$GPGGA,105259.00,3030.67010139,N,11424.06352550,E,1,11,3.5,62.894,M,-12.686,M,,*7C
$GPGGA,105300.00,3030.67010466,N,11424.06352999,E,1,11,3.5,62.897,M,-12.686,M,,*74
$GPGGA,105301.00,3030.67009859,N,11424.06353668,E,1,11,3.5,62.919,M,-12.686,M,,*7A
$GPGGA,105302.00,3030.67009282,N,11424.06354319,E,1,11,3.5,62.940,M,-12.686,M,,*7D
$GPGGA,105303.00,3030.67007940,N,11424.06355346,E,1,11,3.5,62.983,M,-12.686,M,,*73
$GPGGA,105304.00,3030.67007159,N,11424.06355906,E,1,11,3.5,62.993,M,-12.686,M,,*7B
$GPGGA,105305.00,3030.67007071,N,11424.06356302,E,1,11,3.5,62.994,M,-12.686,M,,*7B
$GPGGA,105306.00,3030.67007052,N,11424.06356408,E,1,11,3.5,62.969,M,-12.686,M,,*76
$GPGGA,105307.00,3030.67006776,N,11424.06356689,E,1,11,3.5,62.979,M,-12.686,M,,*7D
$GPGGA,105308.00,3030.67006746,N,11424.06356927,E,1,11,3.5,62.981,M,-12.686,M,,*7D
$GPGGA,105309.00,3030.67005756,N,11424.06357711,E,1,11,3.5,63.003,M,-12.686,M,,*76
$GPGGA,105310.00,3030.67005799,N,11424.06357978,E,1,11,3.5,63.005,M,-12.686,M,,*7A
$GPGGA,105311.00,3030.67005581,N,11424.06358186,E,1,11,3.5,63.007,M,-12.686,M,,*74
$GPGGA,105312.00,3030.67006058,N,11424.06358386,E,1,11,3.5,62.998,M,-12.686,M,,*79
$GPGGA,105313.00,3030.67006091,N,11424.06358641,E,1,11,3.5,62.993,M,-12.686,M,,*78
$GPGGA,105314.00,3030.67006887,N,11424.06358520,E,1,11,3.5,62.973,M,-12.686,M,,*7A
$GPGGA,105315.00,3030.67007309,N,11424.06358758,E,1,11,3.5,62.970,M,-12.686,M,,*79
$GPGGA,105316.00,3030.67006719,N,11424.06359074,E,1,11,3.5,62.970,M,-12.686,M,,*76
$GPGGA,105317.00,3030.67007637,N,11424.06358991,E,1,11,3.5,62.952,M,-12.686,M,,*78
$GPGGA,105318.00,3030.67007498,N,11424.06359566,E,1,11,3.5,62.960,M,-12.686,M,,*74
$GPGGA,105319.00,3030.67007229,N,11424.06359996,E,1,11,3.5,62.961,M,-12.686,M,,*7B
$GPGGA,105320.00,3030.67007405,N,11424.06360503,E,1,11,3.5,62.992,M,-12.686,M,,*7F
$GPGGA,105321.00,3030.67006906,N,11424.06361196,E,1,11,3.5,63.022,M,-12.686,M,,*7B
$GPGGA,105322.00,3030.67006588,N,11424.06362059,E,1,11,3.5,63.052,M,-12.686,M,,*74
$GPGGA,105323.00,3030.67007465,N,11424.06362262,E,1,11,3.5,63.042,M,-12.686,M,,*7D
$GPGGA,105324.00,3030.67006853,N,11424.06362846,E,1,11,3.5,63.059,M,-12.686,M,,*74
$GPGGA,105325.00,3030.67006715,N,11424.06363054,E,1,11,3.5,63.059,M,-12.686,M,,*72
$GPGGA,105326.00,3030.67006237,N,11424.06363451,E,1,11,3.5,63.057,M,-12.686,M,,*7B
$GPGGA,105327.00,3030.67005630,N,11424.06363784,E,1,11,3.5,63.060,M,-12.686,M,,*75
$GPGGA,105328.00,3030.67005690,N,11424.06363697,E,1,11,3.5,63.046,M,-12.686,M,,*77
$GPGGA,105329.00,3030.67006981,N,11424.06363359,E,1,11,3.5,63.022,M,-12.686,M,,*7F
$GPGGA,105330.00,3030.67006269,N,11424.06363915,E,1,11,3.5,63.043,M,-12.686,M,,*7F
$GPGGA,105331.00,3030.67005723,N,11424.06364397,E,1,11,3.5,63.045,M,-12.686,M,,*77
$GPGGA,105332.00,3030.67005212,N,11424.06364884,E,1,11,3.5,63.064,M,-12.686,M,,*79
$GPGGA,105333.00,3030.67006520,N,11424.06364770,E,1,11,3.5,63.072,M,-12.686,M,,*7E
$GPGGA,105334.00,3030.67007445,N,11424.06364685,E,1,11,3.5,63.048,M,-12.686,M,,*78
$GPGGA,105335.00,3030.67007681,N,11424.06364801,E,1,11,3.5,63.048,M,-12.686,M,,*71
$GPGGA,105336.00,3030.67005990,N,11424.06365540,E,1,11,3.5,63.076,M,-12.686,M,,*7B
$GPGGA,105337.00,3030.67005555,N,11424.06365944,E,1,11,3.5,63.080,M,-12.686,M,,*7E
$GPGGA,105338.00,3030.67004483,N,11424.06366472,E,1,11,3.5,63.105,M,-12.686,M,,*7D
$GPGGA,105339.00,3030.67004910,N,11424.06366741,E,1,11,3.5,63.109,M,-12.686,M,,*74
$GPGGA,105340.00,3030.67004478,N,11424.06366820,E,1,11,3.5,63.125,M,-12.686,M,,*7F
$GPGGA,105341.00,3030.67004668,N,11424.06366778,E,1,11,3.5,63.129,M,-12.686,M,,*73
$GPGGA,105342.00,3030.67004912,N,11424.06366807,E,1,11,3.5,63.120,M,-12.686,M,,*7C
$GPGGA,105343.00,3030.67004942,N,11424.06367102,E,1,11,3.5,63.117,M,-12.686,M,,*71
$GPGGA,105344.00,3030.67005030,N,11424.06367117,E,1,11,3.5,63.123,M,-12.686,M,,*78
$GPGGA,105345.00,3030.67005829,N,11424.06367569,E,1,11,3.5,63.137,M,-12.686,M,,*71
$GPGGA,105346.00,3030.67006263,N,11424.06367861,E,1,11,3.5,63.165,M,-12.686,M,,*77
$GPGGA,105347.00,3030.67007240,N,11424.06367994,E,1,11,3.5,63.163,M,-12.686,M,,*7B
$GPGGA,105348.00,3030.67008436,N,11424.06367838,E,1,11,3.5,63.123,M,-12.686,M,,*7F
$GPGGA,105349.00,3030.67009199,N,11424.06367634,E,1,11,3.5,63.111,M,-12.686,M,,*7C
$GPGGA,105350.00,3030.67009307,N,11424.06367376,E,1,11,3.5,63.098,M,-12.686,M,,*72
$GPGGA,105351.00,3030.67010058,N,11424.06367034,E,1,11,3.5,63.079,M,-12.686,M,,*78
$GPGGA,105352.00,3030.67010864,N,11424.06366455,E,1,11,3.5,63.048,M,-12.686,M,,*7C
$GPGGA,105353.00,3030.67012357,N,11424.06365985,E,1,12,3.4,62.992,M,-12.686,M,,*7A
$GPGGA,105354.00,3030.67012317,N,11424.06365883,E,1,12,3.4,62.986,M,-12.686,M,,*7B
$GPGGA,105355.00,3030.67012300,N,11424.06365899,E,1,12,3.4,62.980,M,-12.686,M,,*71
$GPGGA,105356.00,3030.67013198,N,11424.06365688,E,1,12,3.4,62.950,M,-12.686,M,,*73
$GPGGA,105357.00,3030.67013419,N,11424.06365454,E,1,12,3.4,62.932,M,-12.686,M,,*79
$GPGGA,105358.00,3030.67013521,N,11424.06365422,E,1,12,3.4,62.926,M,-12.686,M,,*78
$GPGGA,105359.00,3030.67013118,N,11424.06365627,E,1,12,3.4,62.939,M,-12.686,M,,*7E
$GPGGA,105400.00,3030.67013215,N,11424.06365771,E,1,12,3.4,62.926,M,-12.686,M,,*77
$GPGGA,105401.00,3030.67013239,N,11424.06365787,E,1,12,3.4,62.919,M,-12.686,M,,*7D
$GPGGA,105402.00,3030.67014216,N,11424.06365343,E,1,12,3.4,62.891,M,-12.686,M,,*79
$GPGGA,105403.00,3030.67014641,N,11424.06365064,E,1,12,3.4,62.844,M,-12.686,M,,*70
$GPGGA,105404.00,3030.67014961,N,11424.06364701,E,1,12,3.4,62.809,M,-12.686,M,,*76
$GPGGA,105405.00,3030.67015046,N,11424.06364670,E,1,12,3.4,62.796,M,-12.686,M,,*74
$GPGGA,105406.00,3030.67015018,N,11424.06364605,E,1,12,3.4,62.790,M,-12.686,M,,*78
$GPGGA,105407.00,3030.67015836,N,11424.06364283,E,1,12,3.4,62.757,M,-12.686,M,,*7C
$GPGGA,105408.00,3030.67016068,N,11424.06363788,E,1,12,3.4,62.727,M,-12.686,M,,*7D
$GPGGA,105409.00,3030.67015935,N,11424.06363928,E,1,12,3.4,62.724,M,-12.686,M,,*79
$GPGGA,105410.00,3030.67015801,N,11424.06364069,E,1,12,3.4,62.715,M,-12.686,M,,*7E
$GPGGA,105411.00,3030.67015825,N,11424.06363802,E,1,12,3.4,62.689,M,-12.686,M,,*7F
$GPGGA,105412.00,3030.67015973,N,11424.06363568,E,1,12,3.4,62.667,M,-12.686,M,,*7F
$GPGGA,105413.00,3030.67017450,N,11424.06363500,E,1,12,3.4,62.658,M,-12.686,M,,*72
$GPGGA,105414.00,3030.67017532,N,11424.06363583,E,1,12,3.4,62.646,M,-12.686,M,,*74
$GPGGA,105415.00,3030.67017224,N,11424.06363979,E,1,12,3.4,62.664,M,-12.686,M,,*7C
$GPGGA,105416.00,3030.67017665,N,11424.06363703,E,1,12,3.4,62.648,M,-12.686,M,,*73
$GPGGA,105417.00,3030.67017720,N,11424.06363657,E,1,12,3.4,62.641,M,-12.686,M,,*7B
$GPGGA,105418.00,3030.67017727,N,11424.06363587,E,1,12,3.4,62.633,M,-12.686,M,,*78
$GPGGA,105419.00,3030.67017586,N,11424.06363713,E,1,12,3.4,62.628,M,-12.686,M,,*75
$GPGGA,105420.00,3030.67017669,N,11424.06363762,E,1,12,3.4,62.633,M,-12.686,M,,*71
$GPGGA,105421.00,3030.67017586,N,11424.06363635,E,1,12,3.4,62.611,M,-12.686,M,,*71
$GPGGA,105422.00,3030.67018316,N,11424.06363439,E,1,12,3.4,62.576,M,-12.686,M,,*7E
$GPGGA,105423.00,3030.67018489,N,11424.06363278,E,1,12,3.4,62.563,M,-12.686,M,,*79
$GPGGA,105424.00,3030.67018482,N,11424.06363307,E,1,12,3.4,62.561,M,-12.686,M,,*7E
$GPGGA,105425.00,3030.67019616,N,11424.06363123,E,1,12,3.4,62.539,M,-12.686,M,,*78
$GPGGA,105426.00,3030.67019971,N,11424.06362877,E,1,12,3.4,62.508,M,-12.686,M,,*7E
$GPGGA,105427.00,3030.67020473,N,11424.06362696,E,1,12,3.4,62.489,M,-12.686,M,,*73
$GPGGA,105428.00,3030.67020422,N,11424.06363028,E,1,12,3.4,62.492,M,-12.686,M,,*70
$GPGGA,105429.00,3030.67020239,N,11424.06362911,E,1,12,3.4,62.489,M,-12.686,M,,*75
$GPGGA,105430.00,3030.67019813,N,11424.06362944,E,1,12,3.4,62.478,M,-12.686,M,,*7B
$GPGGA,105431.00,3030.67020039,N,11424.06362831,E,1,12,3.4,62.469,M,-12.686,M,,*73
$GPGGA,105432.00,3030.67019204,N,11424.06363089,E,1,12,3.4,62.474,M,-12.686,M,,*70
$GPGGA,105433.00,3030.67019990,N,11424.06362852,E,1,12,3.4,62.456,M,-12.686,M,,*78
$GPGGA,105434.00,3030.67019534,N,11424.06362856,E,1,12,3.4,62.467,M,-12.686,M,,*7B
$GPGGA,105435.00,3030.67019774,N,11424.06362897,E,1,12,3.4,62.470,M,-12.686,M,,*77
$GPGGA,105436.00,3030.67019999,N,11424.06362714,E,1,12,3.4,62.462,M,-12.686,M,,*7E
$GPGGA,105437.00,3030.67019348,N,11424.06362554,E,1,12,3.4,62.451,M,-12.686,M,,*7F
$GPGGA,105438.00,3030.67019608,N,11424.06362311,E,1,12,3.4,62.444,M,-12.686,M,,*72
$GPGGA,105439.00,3030.67019874,N,11424.06362294,E,1,12,3.4,62.434,M,-12.686,M,,*7D
$GPGGA,105440.00,3030.67020054,N,11424.06362284,E,1,12,3.4,62.436,M,-12.686,M,,*70
$GPGGA,105441.00,3030.67019760,N,11424.06362641,E,1,12,3.4,62.455,M,-12.686,M,,*73
$GPGGA,105442.00,3030.67018425,N,11424.06363110,E,1,12,3.4,62.487,M,-12.686,M,,*7E
$GPGGA,105443.00,3030.67018503,N,11424.06362854,E,1,12,3.4,62.492,M,-12.686,M,,*76
$GPGGA,105444.00,3030.67018659,N,11424.06362797,E,1,12,3.4,62.496,M,-12.686,M,,*79
$GPGGA,105445.00,3030.67017517,N,11424.06363266,E,1,12,3.4,62.518,M,-12.686,M,,*73
$GPGGA,105446.00,3030.67017087,N,11424.06363510,E,1,12,3.4,62.532,M,-12.686,M,,*72
$GPGGA,105447.00,3030.67017382,N,11424.06363425,E,1,12,3.4,62.537,M,-12.686,M,,*77
$GPGGA,105448.00,3030.67017380,N,11424.06363334,E,1,12,3.4,62.529,M,-12.686,M,,*72
$GPGGA,105449.00,3030.67016073,N,11424.06363652,E,1,12,3.4,62.548,M,-12.686,M,,*7F
$GPGGA,105450.00,3030.67016623,N,11424.06363246,E,1,12,3.4,62.534,M,-12.686,M,,*7E
$GPGGA,105451.00,3030.67016734,N,11424.06363097,E,1,12,3.4,62.531,M,-12.686,M,,*73
$GPGGA,105452.00,3030.67016975,N,11424.06362923,E,1,12,3.4,62.513,M,-12.686,M,,*7C
$GPGGA,105453.00,3030.67016588,N,11424.06362783,E,1,12,3.4,62.529,M,-12.686,M,,*7E
$GPGGA,105454.00,3030.67016760,N,11424.06362713,E,1,12,3.4,62.533,M,-12.686,M,,*7F
$GPGGA,105455.00,3030.67016778,N,11424.06362459,E,1,12,3.4,62.533,M,-12.686,M,,*7A
$GPGGA,105456.00,3030.67016763,N,11424.06362541,E,1,12,3.4,62.525,M,-12.686,M,,*7C
$GPGGA,105457.00,3030.67015680,N,11424.06362498,E,1,12,3.4,62.536,M,-12.686,M,,*75
$GPGGA,105458.00,3030.67014977,N,11424.06362541,E,1,12,3.4,62.548,M,-12.686,M,,*70
$GPGGA,105459.00,3030.67014570,N,11424.06362414,E,1,12,3.4,62.548,M,-12.686,M,,*7B
$GPGGA,105500.00,3030.67014014,N,11424.06362370,E,1,12,3.4,62.557,M,-12.686,M,,*7A
$GPGGA,105501.00,3030.67014318,N,11424.06362163,E,1,12,3.4,62.553,M,-12.686,M,,*70
$GPGGA,105502.00,3030.67014537,N,11424.06361905,E,1,12,3.4,62.548,M,-12.686,M,,*79
$GPGGA,105503.00,3030.67014467,N,11424.06361534,E,1,12,3.4,62.533,M,-12.686,M,,*7E
$GPGGA,105504.00,3030.67014863,N,11424.06361203,E,1,12,3.4,62.522,M,-12.686,M,,*72
$GPGGA,105505.00,3030.67015490,N,11424.06361017,E,1,12,3.3,62.506,M,-12.686,M,,*74
$GPGGA,105506.00,3030.67015849,N,11424.06360738,E,1,12,3.3,62.486,M,-12.686,M,,*7D
$GPGGA,105507.00,3030.67016105,N,11424.06360608,E,1,12,3.3,62.488,M,-12.686,M,,*72
$GPGGA,105508.00,3030.67015392,N,11424.06360760,E,1,12,3.3,62.512,M,-12.686,M,,*7F
$GPGGA,105509.00,3030.67014777,N,11424.06360890,E,1,12,3.3,62.535,M,-12.686,M,,*75
$GPGGA,105510.00,3030.67015200,N,11424.06360952,E,1,12,3.3,62.546,M,-12.686,M,,*72
$GPGGA,105511.00,3030.67015664,N,11424.06360940,E,1,12,3.3,62.552,M,-12.686,M,,*73
$GPGGA,105512.00,3030.67015693,N,11424.06360790,E,1,12,3.3,62.558,M,-12.686,M,,*71
$GPGGA,105513.00,3030.67015127,N,11424.06361018,E,1,12,3.3,62.569,M,-12.686,M,,*7C
$GPGGA,105514.00,3030.67014832,N,11424.06361037,E,1,12,3.3,62.564,M,-12.686,M,,*77
$GPGGA,105515.00,3030.67015150,N,11424.06360944,E,1,12,3.3,62.564,M,-12.686,M,,*76
$GPGGA,105516.00,3030.67015670,N,11424.06360728,E,1,12,3.3,62.546,M,-12.686,M,,*74
$GPGGA,105517.00,3030.67016310,N,11424.06360672,E,1,12,3.3,62.540,M,-12.686,M,,*7D
$GPGGA,105518.00,3030.67016310,N,11424.06360480,E,1,12,3.3,62.540,M,-12.686,M,,*7D
$GPGGA,105519.00,3030.67016244,N,11424.06360489,E,1,12,3.3,62.538,M,-12.686,M,,*7A
$GPGGA,105520.00,3030.67016089,N,11424.06360377,E,1,12,3.3,62.541,M,-12.686,M,,*7B
$GPGGA,105521.00,3030.67016324,N,11424.06360182,E,1,12,3.3,62.535,M,-12.686,M,,*75
$GPGGA,105522.00,3030.67016799,N,11424.06360055,E,1,12,3.3,62.525,M,-12.686,M,,*7E
$GPGGA,105523.00,3030.67017083,N,11424.06359706,E,1,12,3.3,62.499,M,-12.686,M,,*7F
$GPGGA,105524.00,3030.67016671,N,11424.06359955,E,1,12,3.3,62.502,M,-12.686,M,,*79
$GPGGA,105525.00,3030.67015906,N,11424.06360174,E,1,12,3.3,62.511,M,-12.686,M,,*77
$GPGGA,105526.00,3030.67015753,N,11424.06360120,E,1,12,3.3,62.508,M,-12.686,M,,*73
$GPGGA,105527.00,3030.67017162,N,11424.06359799,E,1,12,3.3,62.489,M,-12.686,M,,*72
$GPGGA,105528.00,3030.67017557,N,11424.06359532,E,1,12,3.3,62.468,M,-12.686,M,,*73
$GPGGA,105529.00,3030.67017121,N,11424.06359489,E,1,12,3.3,62.460,M,-12.686,M,,*7E
$GPGGA,105530.00,3030.67016834,N,11424.06359675,E,1,12,3.3,62.475,M,-12.686,M,,*7F
$GPGGA,105531.00,3030.67015943,N,11424.06359582,E,1,12,3.3,62.485,M,-12.686,M,,*78
$GPGGA,105532.00,3030.67016772,N,11424.06359240,E,1,12,3.3,62.458,M,-12.686,M,,*7D
$GPGGA,105533.00,3030.67016206,N,11424.06358863,E,1,12,3.3,62.448,M,-12.686,M,,*71
$GPGGA,105534.00,3030.67016500,N,11424.06358701,E,1,12,3.3,62.430,M,-12.686,M,,*73
$GPGGA,105535.00,3030.67016643,N,11424.06358670,E,1,12,3.3,62.444,M,-12.686,M,,*72
$GPGGA,105536.00,3030.67017288,N,11424.06358251,E,1,12,3.3,62.434,M,-12.686,M,,*73
$GPGGA,105537.00,3030.67017609,N,11424.06358323,E,1,12,3.3,62.431,M,-12.686,M,,*7E
$GPGGA,105538.00,3030.67017933,N,11424.06358163,E,1,12,3.3,62.419,M,-12.686,M,,*7B
$GPGGA,105539.00,3030.67017890,N,11424.06358038,E,1,12,3.3,62.408,M,-12.686,M,,*7D
$GPGGA,105540.00,3030.67018437,N,11424.06357800,E,1,12,3.3,62.400,M,-12.686,M,,*79
$GPGGA,105541.00,3030.67019447,N,11424.06357587,E,1,12,3.3,62.383,M,-12.686,M,,*70
$GPGGA,105542.00,3030.67020012,N,11424.06357191,E,1,12,3.3,62.358,M,-12.686,M,,*78
$GPGGA,105543.00,3030.67020525,N,11424.06357002,E,1,12,3.3,62.343,M,-12.686,M,,*79
$GPGGA,105544.00,3030.67020866,N,11424.06356696,E,1,12,3.3,62.336,M,-12.686,M,,*7C
$GPGGA,105545.00,3030.67021030,N,11424.06356241,E,1,12,3.3,62.314,M,-12.686,M,,*79
$GPGGA,105546.00,3030.67021017,N,11424.06356075,E,1,12,3.3,62.299,M,-12.686,M,,*7E
$GPGGA,105547.00,3030.67021529,N,11424.06355660,E,1,12,3.3,62.283,M,-12.686,M,,*7D
$GPGGA,105548.00,3030.67021517,N,11424.06355640,E,1,12,3.3,62.275,M,-12.686,M,,*74
$GPGGA,105549.00,3030.67021128,N,11424.06355507,E,1,12,3.3,62.283,M,-12.686,M,,*74
$GPGGA,105550.00,3030.67021260,N,11424.06355136,E,1,12,3.3,62.269,M,-12.686,M,,*71
$GPGGA,105551.00,3030.67022194,N,11424.06354848,E,1,12,3.3,62.266,M,-12.686,M,,*75
$GPGGA,105552.00,3030.67021825,N,11424.06354685,E,1,12,3.3,62.263,M,-12.686,M,,*7C
$GPGGA,105553.00,3030.67021879,N,11424.06354513,E,1,12,3.3,62.254,M,-12.686,M,,*7C
$GPGGA,105554.00,3030.67021920,N,11424.06354547,E,1,12,3.3,62.254,M,-12.686,M,,*77
$GPGGA,105555.00,3030.67021303,N,11424.06354435,E,1,12,3.3,62.263,M,-12.686,M,,*7D
$GPGGA,105556.00,3030.67021119,N,11424.06354300,E,1,12,3.3,62.256,M,-12.686,M,,*70
$GPGGA,105557.00,3030.67021010,N,11424.06354236,E,1,12,3.3,62.248,M,-12.686,M,,*72
$GPGGA,105558.00,3030.67021045,N,11424.06354073,E,1,12,3.3,62.242,M,-12.686,M,,*74
$GPGGA,105559.00,3030.67021178,N,11424.06354157,E,1,12,3.3,62.242,M,-12.686,M,,*7D
$GPGGA,105600.00,3030.67021153,N,11424.06354087,E,1,12,3.3,62.230,M,-12.686,M,,*72
$GPGGA,105601.00,3030.67021147,N,11424.06354002,E,1,12,3.3,62.227,M,-12.686,M,,*7D
$GPGGA,105602.00,3030.67021402,N,11424.06353978,E,1,12,3.3,62.231,M,-12.686,M,,*7E
$GPGGA,105603.00,3030.67021976,N,11424.06353824,E,1,12,3.3,62.223,M,-12.686,M,,*7A
$GPGGA,105604.00,3030.67021972,N,11424.06353814,E,1,12,3.3,62.222,M,-12.686,M,,*7B
$GPGGA,105605.00,3030.67022252,N,11424.06353885,E,1,12,3.3,62.223,M,-12.686,M,,*79
$GPGGA,105606.00,3030.67022314,N,11424.06353719,E,1,12,3.3,62.216,M,-12.686,M,,*75
$GPGGA,105607.00,3030.67022646,N,11424.06353613,E,1,12,3.3,62.196,M,-12.686,M,,*76
$GPGGA,105608.00,3030.67023082,N,11424.06353376,E,1,12,3.3,62.184,M,-12.686,M,,*73
$GPGGA,105609.00,3030.67023123,N,11424.06352951,E,1,12,3.3,62.165,M,-12.686,M,,*79
$GPGGA,105610.00,3030.67023150,N,11424.06353035,E,1,12,3.3,62.164,M,-12.686,M,,*7E
$GPGGA,105611.00,3030.67022682,N,11424.06353133,E,1,12,3.3,62.164,M,-12.686,M,,*71
$GPGGA,105612.00,3030.67022848,N,11424.06353048,E,1,12,3.3,62.151,M,-12.686,M,,*71
$GPGGA,105613.00,3030.67022965,N,11424.06352988,E,1,12,3.3,62.145,M,-12.686,M,,*7F
$GPGGA,105614.00,3030.67023232,N,11424.06352808,E,1,12,3.3,62.142,M,-12.686,M,,*7E
$GPGGA,105615.00,3030.67024001,N,11424.06352598,E,1,12,3.3,62.120,M,-12.686,M,,*7A
$GPGGA,105616.00,3030.67024730,N,11424.06352568,E,1,12,3.3,62.111,M,-12.686,M,,*71
$GPGGA,105617.00,3030.67024342,N,11424.06352574,E,1,12,3.3,62.105,M,-12.686,M,,*79
$GPGGA,105618.00,3030.67024307,N,11424.06352751,E,1,12,3.3,62.117,M,-12.686,M,,*71
$GPGGA,105619.00,3030.67024300,N,11424.06352600,E,1,12,3.3,62.124,M,-12.686,M,,*72
$GPGGA,105620.00,3030.67024667,N,11424.06352319,E,1,12,3.3,62.117,M,-12.686,M,,*71
$GPGGA,105621.00,3030.67025198,N,11424.06352216,E,1,12,3.3,62.117,M,-12.686,M,,*78
$GPGGA,105622.00,3030.67025197,N,11424.06352216,E,1,12,3.3,62.103,M,-12.686,M,,*71
$GPGGA,105623.00,3030.67026096,N,11424.06351893,E,1,12,3.3,62.085,M,-12.686,M,,*78
$GPGGA,105624.00,3030.67027330,N,11424.06351564,E,1,12,3.3,62.064,M,-12.686,M,,*7B
$GPGGA,105625.00,3030.67027703,N,11424.06351322,E,1,12,3.3,62.052,M,-12.686,M,,*7F
$GPGGA,105626.00,3030.67027380,N,11424.06351382,E,1,12,3.3,62.045,M,-12.686,M,,*7F
$GPGGA,105627.00,3030.67027363,N,11424.06351280,E,1,12,3.3,62.046,M,-12.686,M,,*73
$GPGGA,105628.00,3030.67027677,N,11424.06351291,E,1,12,3.3,62.048,M,-12.686,M,,*72
$GPGGA,105629.00,3030.67027514,N,11424.06351324,E,1,12,3.3,62.046,M,-12.686,M,,*74
$GPGGA,105630.00,3030.67027274,N,11424.06351547,E,1,12,3.3,62.053,M,-12.686,M,,*7A
$GPGGA,105631.00,3030.67027626,N,11424.06351412,E,1,12,3.3,62.073,M,-12.686,M,,*7B
$GPGGA,105632.00,3030.67027588,N,11424.06351402,E,1,12,3.3,62.097,M,-12.686,M,,*74
$GPGGA,105633.00,3030.67027314,N,11424.06351509,E,1,12,3.3,62.123,M,-12.686,M,,*72
$GPGGA,105634.00,3030.67027268,N,11424.06351578,E,1,12,3.3,62.146,M,-12.686,M,,*7A
$GPGGA,105635.00,3030.67027615,N,11424.06351624,E,1,12,3.3,62.160,M,-12.686,M,,*7B
$GPGGA,105636.00,3030.67027646,N,11424.06351902,E,1,12,3.3,62.164,M,-12.686,M,,*71
$GPGGA,105637.00,3030.67027540,N,11424.06351972,E,1,12,3.3,62.175,M,-12.686,M,,*72
$GPGGA,105638.00,3030.67028153,N,11424.06351869,E,1,12,3.3,62.167,M,-12.686,M,,*7C
$GPGGA,105639.00,3030.67028491,N,11424.06351921,E,1,12,3.3,62.170,M,-12.686,M,,*7D
$GPGGA,105640.00,3030.67028655,N,11424.06351957,E,1,12,3.3,62.162,M,-12.686,M,,*7B
$GPGGA,105641.00,3030.67029979,N,11424.06351665,E,1,13,3.3,62.147,M,-12.686,M,,*72
$GPGGA,105642.00,3030.67030187,N,11424.06351461,E,1,13,3.3,62.151,M,-12.686,M,,*71
$GPGGA,105643.00,3030.67030427,N,11424.06351389,E,1,13,3.3,62.157,M,-12.686,M,,*78
$GPGGA,105644.00,3030.67030183,N,11424.06351279,E,1,13,3.3,62.131,M,-12.686,M,,*7A
$GPGGA,105645.00,3030.67030515,N,11424.06351494,E,1,13,3.3,62.143,M,-12.686,M,,*70
$GPGGA,105646.00,3030.67030807,N,11424.06351263,E,1,13,3.3,62.130,M,-12.686,M,,*77
$GPGGA,105647.00,3030.67032244,N,11424.06351035,E,1,13,3.3,62.118,M,-12.686,M,,*72
$GPGGA,105648.00,3030.67032477,N,11424.06351267,E,1,13,3.3,62.111,M,-12.686,M,,*77
$GPGGA,105649.00,3030.67032066,N,11424.06351380,E,1,13,3.3,62.127,M,-12.686,M,,*7F
$GPGGA,105650.00,3030.67031500,N,11424.06351524,E,1,13,3.3,62.124,M,-12.686,M,,*7A
$GPGGA,105651.00,3030.67031699,N,11424.06351453,E,1,13,3.3,62.122,M,-12.686,M,,*7F
$GPGGA,105652.00,3030.67032438,N,11424.06351204,E,1,13,3.3,62.108,M,-12.686,M,,*7A
$GPGGA,105653.00,3030.67033208,N,11424.06350978,E,1,13,3.3,62.104,M,-12.686,M,,*72
$GPGGA,105654.00,3030.67033247,N,11424.06351175,E,1,13,3.3,62.096,M,-12.686,M,,*70
$GPGGA,105655.00,3030.67033506,N,11424.06351224,E,1,13,3.3,62.088,M,-12.686,M,,*7B
$GPGGA,105656.00,3030.67033103,N,11424.06351265,E,1,13,3.2,62.087,M,-12.686,M,,*72
$GPGGA,105657.00,3030.67031976,N,11424.06351297,E,1,13,3.2,62.100,M,-12.686,M,,*78
$GPGGA,105658.00,3030.67030386,N,11424.06351621,E,1,13,3.2,62.124,M,-12.686,M,,*7C
$GPGGA,105659.00,3030.67029905,N,11424.06351702,E,1,13,3.2,62.136,M,-12.686,M,,*77
$GPGGA,105700.00,3030.67029193,N,11424.06351650,E,1,13,3.2,62.156,M,-12.686,M,,*7D
$GPGGA,105701.00,3030.67028640,N,11424.06351637,E,1,13,3.2,62.174,M,-12.686,M,,*75
$GPGGA,105702.00,3030.67028420,N,11424.06351750,E,1,13,3.2,62.179,M,-12.686,M,,*7F
$GPGGA,105703.00,3030.67028703,N,11424.06351723,E,1,13,3.2,62.187,M,-12.686,M,,*79
$GPGGA,105704.00,3030.67029243,N,11424.06351803,E,1,13,3.2,62.178,M,-12.686,M,,*73
$GPGGA,105705.00,3030.67029269,N,11424.06351884,E,1,13,3.2,62.178,M,-12.686,M,,*75
$GPGGA,105706.00,3030.67028509,N,11424.06352085,E,1,13,3.2,62.201,M,-12.686,M,,*71
$GPGGA,105707.00,3030.67029005,N,11424.06352010,E,1,13,3.2,62.189,M,-12.686,M,,*77
$GPGGA,105708.00,3030.67028727,N,11424.06352182,E,1,13,3.2,62.195,M,-12.686,M,,*79
$GPGGA,105709.00,3030.67028425,N,11424.06352456,E,1,13,3.2,62.203,M,-12.686,M,,*79
$GPGGA,105710.00,3030.67028425,N,11424.06352428,E,1,13,3.2,62.206,M,-12.686,M,,*7D
$GPGGA,105711.00,3030.67028401,N,11424.06352390,E,1,13,3.2,62.209,M,-12.686,M,,*71
$GPGGA,105712.00,3030.67028797,N,11424.06352300,E,1,13,3.2,62.197,M,-12.686,M,,*73
$GPGGA,105713.00,3030.67029073,N,11424.06352340,E,1,13,3.2,62.202,M,-12.686,M,,*75
$GPGGA,105714.00,3030.67028026,N,11424.06352509,E,1,13,3.2,62.211,M,-12.686,M,,*7A
$GPGGA,105715.00,3030.67028212,N,11424.06352378,E,1,13,3.2,62.208,M,-12.686,M,,*76
$GPGGA,105716.00,3030.67028521,N,11424.06352432,E,1,13,3.2,62.208,M,-12.686,M,,*7B
$GPGGA,105717.00,3030.67028499,N,11424.06352359,E,1,13,3.2,62.222,M,-12.686,M,,*7A
$GPGGA,105718.00,3030.67028220,N,11424.06352524,E,1,13,3.2,62.232,M,-12.686,M,,*7C
$GPGGA,105719.00,3030.67028589,N,11424.06352393,E,1,13,3.2,62.226,M,-12.686,M,,*76
$GPGGA,105720.00,3030.67028575,N,11424.06352278,E,1,13,3.2,62.233,M,-12.686,M,,*7F
$GPGGA,105721.00,3030.67029464,N,11424.06352105,E,1,13,3.2,62.225,M,-12.686,M,,*70
$GPGGA,105722.00,3030.67029187,N,11424.06351938,E,1,13,3.2,62.220,M,-12.686,M,,*7B
$GPGGA,105723.00,3030.67029785,N,11424.06351656,E,1,13,3.2,62.218,M,-12.686,M,,*72
$GPGGA,105724.00,3030.67030523,N,11424.06351185,E,1,13,3.2,62.202,M,-12.686,M,,*71
$GPGGA,105725.00,3030.67030821,N,11424.06350768,E,1,13,3.2,62.191,M,-12.686,M,,*72
$GPGGA,105726.00,3030.67030906,N,11424.06350587,E,1,13,3.2,62.198,M,-12.686,M,,*7F
$GPGGA,105727.00,3030.67031323,N,11424.06350441,E,1,13,3.2,62.197,M,-12.686,M,,*76
$GPGGA,105728.00,3030.67031399,N,11424.06350446,E,1,13,3.2,62.203,M,-12.686,M,,*71
$GPGGA,105729.00,3030.67031725,N,11424.06350088,E,1,13,3.2,62.203,M,-12.686,M,,*75
$GPGGA,105730.00,3030.67032566,N,11424.06349739,E,1,13,3.2,62.190,M,-12.686,M,,*77
$GPGGA,105731.00,3030.67032205,N,11424.06349512,E,1,13,3.2,62.201,M,-12.686,M,,*74
$GPGGA,105732.00,3030.67032415,N,11424.06349431,E,1,13,3.2,62.194,M,-12.686,M,,*7F
$GPGGA,105733.00,3030.67032153,N,11424.06349707,E,1,13,3.2,62.183,M,-12.686,M,,*79
$GPGGA,105734.00,3030.67031509,N,11424.06349816,E,1,13,3.2,62.184,M,-12.686,M,,*7E
$GPGGA,105735.00,3030.67031269,N,11424.06349919,E,1,13,3.2,62.194,M,-12.686,M,,*71
$GPGGA,105736.00,3030.67032263,N,11424.06349559,E,1,13,3.2,62.175,M,-12.686,M,,*7C
$GPGGA,105737.00,3030.67032784,N,11424.06349376,E,1,13,3.2,62.170,M,-12.686,M,,*7F
$GPGGA,105738.00,3030.67032786,N,11424.06349345,E,1,13,3.2,62.160,M,-12.686,M,,*73
$GPGGA,105739.00,3030.67032966,N,11424.06349514,E,1,13,3.2,62.154,M,-12.686,M,,*77
$GPGGA,105740.00,3030.67032336,N,11424.06349670,E,1,13,3.2,62.162,M,-12.686,M,,*72
$GPGGA,105741.00,3030.67031787,N,11424.06349897,E,1,13,3.2,62.174,M,-12.686,M,,*7E
$GPGGA,105742.00,3030.67030834,N,11424.06349959,E,1,13,3.2,62.176,M,-12.686,M,,*7A
$GPGGA,105743.00,3030.67030656,N,11424.06350124,E,1,13,3.2,62.175,M,-12.686,M,,*78
$GPGGA,105744.00,3030.67030875,N,11424.06350270,E,1,13,3.2,62.188,M,-12.686,M,,*70
$GPGGA,105745.00,3030.67030862,N,11424.06350221,E,1,13,3.2,62.185,M,-12.686,M,,*7E
$GPGGA,105746.00,3030.67031174,N,11424.06350440,E,1,13,3.2,62.183,M,-12.686,M,,*75
$GPGGA,105747.00,3030.67031368,N,11424.06350406,E,1,13,3.2,62.176,M,-12.686,M,,*73
$GPGGA,105748.00,3030.67031762,N,11424.06350270,E,1,13,3.2,62.164,M,-12.686,M,,*76
$GPGGA,105749.00,3030.67032997,N,11424.06350188,E,1,13,3.2,62.148,M,-12.686,M,,*7A
$GPGGA,105750.00,3030.67033178,N,11424.06350373,E,1,13,3.2,62.150,M,-12.686,M,,*75
$GPGGA,105751.00,3030.67032886,N,11424.06350399,E,1,13,3.2,62.126,M,-12.686,M,,*78
$GPGGA,105752.00,3030.67033177,N,11424.06350223,E,1,13,3.2,62.129,M,-12.686,M,,*72
$GPGGA,105753.00,3030.67033386,N,11424.06350378,E,1,13,3.2,62.110,M,-12.686,M,,*7A
$GPGGA,105754.00,3030.67033556,N,11424.06350369,E,1,13,3.2,62.105,M,-12.686,M,,*72
$GPGGA,105755.00,3030.67034092,N,11424.06350335,E,1,13,3.2,62.101,M,-12.686,M,,*74
$GPGGA,105756.00,3030.67034442,N,11424.06350173,E,1,13,3.2,62.101,M,-12.686,M,,*7E
$GPGGA,105757.00,3030.67035757,N,11424.06350085,E,1,13,3.2,62.084,M,-12.686,M,,*7D
$GPGGA,105758.00,3030.67035767,N,11424.06350104,E,1,13,3.2,62.083,M,-12.686,M,,*7E
$GPGGA,105759.00,3030.67035973,N,11424.06350080,E,1,13,3.2,62.093,M,-12.686,M,,*78
$GPGGA,105800.00,3030.67035676,N,11424.06350155,E,1,13,3.2,62.108,M,-12.686,M,,*7B
$GPGGA,105801.00,3030.67036326,N,11424.06350188,E,1,13,3.2,62.103,M,-12.686,M,,*72
$GPGGA,105802.00,3030.67037638,N,11424.06350001,E,1,13,3.2,62.101,M,-12.686,M,,*78
$GPGGA,105803.00,3030.67037613,N,11424.06350207,E,1,13,3.2,62.105,M,-12.686,M,,*70
$GPGGA,105804.00,3030.67036977,N,11424.06350543,E,1,13,3.2,62.108,M,-12.686,M,,*71
$GPGGA,105805.00,3030.67036606,N,11424.06350475,E,1,13,3.2,62.107,M,-12.686,M,,*72
$GPGGA,105806.00,3030.67036581,N,11424.06350324,E,1,13,3.2,62.092,M,-12.686,M,,*73
$GPGGA,105807.00,3030.67036828,N,11424.06350381,E,1,13,3.2,62.089,M,-12.686,M,,*79
$GPGGA,105808.00,3030.67036767,N,11424.06350479,E,1,13,3.2,62.095,M,-12.686,M,,*7F
$GPGGA,105809.00,3030.67037184,N,11424.06350520,E,1,13,3.2,62.091,M,-12.686,M,,*7D
$GPGGA,105810.00,3030.67036922,N,11424.06350411,E,1,13,3.2,62.091,M,-12.686,M,,*73
$GPGGA,105811.00,3030.67036549,N,11424.06350376,E,1,13,3.2,62.084,M,-12.686,M,,*71
$GPGGA,105812.00,3030.67036144,N,11424.06350495,E,1,13,3.2,62.095,M,-12.686,M,,*71
$GPGGA,105813.00,3030.67036080,N,11424.06350406,E,1,13,3.2,62.090,M,-12.686,M,,*76
$GPGGA,105814.00,3030.67036176,N,11424.06350307,E,1,13,3.2,62.090,M,-12.686,M,,*7F
$GPGGA,105815.00,3030.67036258,N,11424.06350575,E,1,13,3.2,62.094,M,-12.686,M,,*76
$GPGGA,105816.00,3030.67035063,N,11424.06350982,E,1,13,3.2,62.105,M,-12.686,M,,*71
$GPGGA,105817.00,3030.67034527,N,11424.06350886,E,1,13,3.2,62.107,M,-12.686,M,,*73
$GPGGA,105818.00,3030.67034099,N,11424.06351067,E,1,13,3.2,62.121,M,-12.686,M,,*7E
$GPGGA,105819.00,3030.67033240,N,11424.06351338,E,1,13,3.2,62.135,M,-12.686,M,,*72
$GPGGA,105820.00,3030.67033207,N,11424.06351308,E,1,13,3.2,62.137,M,-12.686,M,,*7A
$GPGGA,105821.00,3030.67032866,N,11424.06351403,E,1,13,3.2,62.146,M,-12.686,M,,*7D
$GPGGA,105822.00,3030.67032823,N,11424.06351450,E,1,13,3.2,62.144,M,-12.686,M,,*7B
$GPGGA,105823.00,3030.67032152,N,11424.06351604,E,1,13,3.2,62.141,M,-12.686,M,,*73
$GPGGA,105824.00,3030.67032023,N,11424.06351734,E,1,13,3.2,62.144,M,-12.686,M,,*74
$GPGGA,105825.00,3030.67032193,N,11424.06351559,E,1,13,3.2,62.157,M,-12.686,M,,*74
$GPGGA,105826.00,3030.67032096,N,11424.06351639,E,1,13,3.2,62.161,M,-12.686,M,,*73
$GPGGA,105827.00,3030.67031982,N,11424.06351695,E,1,13,3.2,62.166,M,-12.686,M,,*7C
$GPGGA,105828.00,3030.67031304,N,11424.06351769,E,1,13,3.2,62.179,M,-12.686,M,,*7B
$GPGGA,105829.00,3030.67029370,N,11424.06352093,E,1,13,3.2,62.193,M,-12.686,M,,*75
$GPGGA,105830.00,3030.67028722,N,11424.06352513,E,1,13,3.2,62.195,M,-12.686,M,,*74
$GPGGA,105831.00,3030.67027651,N,11424.06352476,E,1,13,3.2,62.196,M,-12.686,M,,*7E
$GPGGA,105832.00,3030.67027070,N,11424.06352489,E,1,13,3.2,62.208,M,-12.686,M,,*7C
$GPGGA,105833.00,3030.67026580,N,11424.06352734,E,1,13,3.2,62.209,M,-12.686,M,,*72
$GPGGA,105834.00,3030.67026180,N,11424.06352957,E,1,13,3.2,62.207,M,-12.686,M,,*74
$GPGGA,105835.00,3030.67025884,N,11424.06353045,E,1,13,3.2,62.210,M,-12.686,M,,*76
$GPGGA,105836.00,3030.67024996,N,11424.06353185,E,1,13,3.2,62.230,M,-12.686,M,,*79
$GPGGA,105837.00,3030.67024694,N,11424.06353678,E,1,13,3.2,62.253,M,-12.686,M,,*75
$GPGGA,105838.00,3030.67023952,N,11424.06354227,E,1,13,3.2,62.267,M,-12.686,M,,*76
$GPGGA,105839.00,3030.67023053,N,11424.06354802,E,1,13,3.2,62.287,M,-12.686,M,,*7C
$GPGGA,105840.00,3030.67023093,N,11424.06355059,E,1,13,3.2,62.302,M,-12.686,M,,*75
$GPGGA,105841.00,3030.67022906,N,11424.06355390,E,1,13,3.2,62.316,M,-12.686,M,,*73
$GPGGA,105842.00,3030.67022901,N,11424.06355508,E,1,13,3.2,62.319,M,-12.686,M,,*7F
$GPGGA,105843.00,3030.67022590,N,11424.06355872,E,1,13,3.2,62.338,M,-12.686,M,,*79
$GPGGA,105844.00,3030.67022198,N,11424.06356192,E,1,13,3.2,62.344,M,-12.686,M,,*7D
$GPGGA,105845.00,3030.67022730,N,11424.06356247,E,1,13,3.2,62.338,M,-12.686,M,,*78
$GPGGA,105846.00,3030.67022401,N,11424.06356169,E,1,13,3.2,62.345,M,-12.686,M,,*7F
$GPGGA,105847.00,3030.67022869,N,11424.06356099,E,1,13,3.2,62.348,M,-12.686,M,,*7F
$GPGGA,105848.00,3030.67023058,N,11424.06356207,E,1,13,3.2,62.338,M,-12.686,M,,*79
$GPGGA,105849.00,3030.67023039,N,11424.06356145,E,1,13,3.2,62.337,M,-12.686,M,,*75
$GPGGA,105850.00,3030.67022723,N,11424.06356183,E,1,13,3.2,62.342,M,-12.686,M,,*78
$GPGGA,105851.00,3030.67023088,N,11424.06355939,E,1,13,3.2,62.339,M,-12.686,M,,*78
$GPGGA,105852.00,3030.67022335,N,11424.06356234,E,1,13,3.2,62.357,M,-12.686,M,,*72
$GPGGA,105853.00,3030.67022174,N,11424.06356060,E,1,13,3.2,62.352,M,-12.686,M,,*72
$GPGGA,105854.00,3030.67022039,N,11424.06355963,E,1,13,3.2,62.340,M,-12.686,M,,*77
$GPGGA,105855.00,3030.67022085,N,11424.06355763,E,1,13,3.2,62.333,M,-12.686,M,,*7B
$GPGGA,105856.00,3030.67021784,N,11424.06356020,E,1,13,3.2,62.339,M,-12.686,M,,*74
$GPGGA,105857.00,3030.67021927,N,11424.06355890,E,1,13,3.2,62.343,M,-12.686,M,,*7F
$GPGGA,105858.00,3030.67021567,N,11424.06355955,E,1,13,3.2,62.346,M,-12.686,M,,*75
$GPGGA,105859.00,3030.67021165,N,11424.06356006,E,1,13,3.1,62.342,M,-12.686,M,,*79
$GPGGA,105900.00,3030.67021205,N,11424.06355675,E,1,13,3.1,62.333,M,-12.686,M,,*76
$GPGGA,105901.00,3030.67021334,N,11424.06355499,E,1,13,3.1,62.321,M,-12.686,M,,*77
$GPGGA,105902.00,3030.67021515,N,11424.06355375,E,1,13,3.1,62.309,M,-12.686,M,,*7E
$GPGGA,105903.00,3030.67021111,N,11424.06355454,E,1,13,3.1,62.297,M,-12.686,M,,*7D
$GPGGA,105904.00,3030.67021267,N,11424.06355248,E,1,13,3.1,62.290,M,-12.686,M,,*74
$GPGGA,105905.00,3030.67020687,N,11424.06355272,E,1,13,3.1,62.290,M,-12.686,M,,*77
$GPGGA,105906.00,3030.67020748,N,11424.06355747,E,1,13,3.1,62.303,M,-12.686,M,,*7E
$GPGGA,105907.00,3030.67020481,N,11424.06355914,E,1,13,3.1,62.300,M,-12.686,M,,*72
$GPGGA,105908.00,3030.67019665,N,11424.06356059,E,1,13,3.1,62.312,M,-12.686,M,,*7F
$GPGGA,105909.00,3030.67019546,N,11424.06356296,E,1,13,3.1,62.309,M,-12.686,M,,*77
$GPGGA,105910.00,3030.67019280,N,11424.06356346,E,1,13,3.1,62.312,M,-12.686,M,,*74
$GPGGA,105911.00,3030.67018453,N,11424.06356578,E,1,13,3.1,62.305,M,-12.686,M,,*71
$GPGGA,105912.00,3030.67018214,N,11424.06356500,E,1,13,3.1,62.296,M,-12.686,M,,*73
$GPGGA,105913.00,3030.67017855,N,11424.06356227,E,1,13,3.1,62.280,M,-12.686,M,,*77
$GPGGA,105914.00,3030.67017754,N,11424.06356368,E,1,13,3.1,62.288,M,-12.686,M,,*7C
$GPGGA,105915.00,3030.67017799,N,11424.06356372,E,1,13,3.1,62.280,M,-12.686,M,,*7F
$GPGGA,105916.00,3030.67017771,N,11424.06356131,E,1,13,3.1,62.272,M,-12.686,M,,*72
$GPGGA,105917.00,3030.67016990,N,11424.06356251,E,1,13,3.1,62.285,M,-12.686,M,,*7E
$GPGGA,105918.00,3030.67017206,N,11424.06356232,E,1,13,3.1,62.263,M,-12.686,M,,*79
$GPGGA,105919.00,3030.67017067,N,11424.06356399,E,1,13,3.1,62.262,M,-12.686,M,,*7C
$GPGGA,105920.00,3030.67016404,N,11424.06356381,E,1,13,3.1,62.264,M,-12.686,M,,*79
$GPGGA,105921.00,3030.67016680,N,11424.06356272,E,1,13,3.1,62.249,M,-12.686,M,,*74
$GPGGA,105922.00,3030.67017032,N,11424.06356146,E,1,12,3.6,62.233,M,-12.686,M,,*76
$GPGGA,105923.00,3030.67016529,N,11424.06356336,E,1,12,3.6,62.243,M,-12.686,M,,*7B
$GPGGA,105924.00,3030.67016143,N,11424.06356645,E,1,12,3.6,62.255,M,-12.686,M,,*72
$GPGGA,105925.00,3030.67015218,N,11424.06357031,E,1,12,3.6,62.261,M,-12.686,M,,*7E
$GPGGA,105926.00,3030.67014799,N,11424.06357033,E,1,12,3.6,62.263,M,-12.686,M,,*70
$GPGGA,105927.00,3030.67013672,N,11424.06357571,E,1,12,3.6,62.274,M,-12.686,M,,*77
$GPGGA,105928.00,3030.67011909,N,11424.06358149,E,1,12,3.6,62.299,M,-12.686,M,,*7A
$GPGGA,105929.00,3030.67010914,N,11424.06358386,E,1,12,3.6,62.293,M,-12.686,M,,*7D
$GPGGA,105930.00,3030.67011382,N,11424.06358260,E,1,12,3.5,62.295,M,-12.686,M,,*7D
$GPGGA,105931.00,3030.67011427,N,11424.06358429,E,1,12,3.5,62.304,M,-12.686,M,,*76
$GPGGA,105932.00,3030.67011195,N,11424.06358608,E,1,12,3.5,62.296,M,-12.686,M,,*72
$GPGGA,105933.00,3030.67010921,N,11424.06358553,E,1,12,3.5,62.302,M,-12.686,M,,*74
$GPGGA,105934.00,3030.67010353,N,11424.06358813,E,1,12,3.5,62.297,M,-12.686,M,,*78
$GPGGA,105935.00,3030.67009919,N,11424.06358626,E,1,12,3.5,62.297,M,-12.686,M,,*7D
$GPGGA,105936.00,3030.67009777,N,11424.06358729,E,1,12,3.5,62.287,M,-12.686,M,,*77
$GPGGA,105937.00,3030.67008598,N,11424.06358992,E,1,12,3.5,62.303,M,-12.686,M,,*77
$GPGGA,105938.00,3030.67007848,N,11424.06359308,E,1,12,3.5,62.311,M,-12.686,M,,*7C
$GPGGA,105939.00,3030.67006721,N,11424.06359545,E,1,12,3.5,62.319,M,-12.686,M,,*7B
$GPGGA,105940.00,3030.67006701,N,11424.06359540,E,1,12,3.5,62.309,M,-12.686,M,,*73
$GPGGA,105941.00,3030.67005386,N,11424.06359830,E,1,12,3.5,62.334,M,-12.686,M,,*7E
$GPGGA,105942.00,3030.67005410,N,11424.06359789,E,1,12,3.5,62.329,M,-12.686,M,,*74
$GPGGA,105943.00,3030.67004634,N,11424.06359727,E,1,12,3.5,62.336,M,-12.686,M,,*7A
$GPGGA,105944.00,3030.67005167,N,11424.06359602,E,1,12,3.5,62.324,M,-12.686,M,,*78
$GPGGA,105945.00,3030.67005336,N,11424.06359539,E,1,12,3.5,62.326,M,-12.686,M,,*76
$GPGGA,105946.00,3030.67005392,N,11424.06359779,E,1,12,3.5,62.333,M,-12.686,M,,*79
$GPGGA,105947.00,3030.67005340,N,11424.06359805,E,1,12,3.5,62.321,M,-12.686,M,,*70
$GPGGA,105948.00,3030.67005132,N,11424.06360245,E,1,12,3.5,62.312,M,-12.686,M,,*7C
$GPGGA,105949.00,3030.67005147,N,11424.06360181,E,1,12,3.5,62.302,M,-12.686,M,,*75
$GPGGA,105950.00,3030.67005374,N,11424.06360344,E,1,12,3.5,62.299,M,-12.686,M,,*77
$GPGGA,105951.00,3030.67005736,N,11424.06360389,E,1,11,3.6,62.287,M,-12.686,M,,*7A
$GPGGA,105952.00,3030.67005986,N,11424.06360565,E,1,11,3.6,62.287,M,-12.686,M,,*78
$GPGGA,105953.00,3030.67005476,N,11424.06360937,E,1,11,3.6,62.302,M,-12.686,M,,*7C
$GPGGA,105954.00,3030.67005489,N,11424.06361140,E,1,11,3.6,62.325,M,-12.686,M,,*77
$GPGGA,105955.00,3030.67006404,N,11424.06361408,E,1,11,3.6,62.328,M,-12.686,M,,*74
$GPGGA,105956.00,3030.67006041,N,11424.06361894,E,1,11,3.6,62.354,M,-12.686,M,,*70
$GPGGA,105957.00,3030.67005721,N,11424.06361899,E,1,11,3.6,62.388,M,-12.686,M,,*7F
$GPGGA,105958.00,3030.67005659,N,11424.06361885,E,1,11,3.6,62.406,M,-12.686,M,,*72
$GPGGA,105959.00,3030.67006387,N,11424.06361709,E,1,11,3.6,62.388,M,-12.686,M,,*7C
$GPGGA,110000.00,3030.67005958,N,11424.06362073,E,1,11,3.6,62.393,M,-12.686,M,,*75
$GPGGA,110001.00,3030.67006832,N,11424.06362134,E,1,11,3.6,62.395,M,-12.686,M,,*7E
$GPGGA,110002.00,3030.67007999,N,11424.06362092,E,1,11,3.6,62.410,M,-12.686,M,,*7B
$GPGGA,110003.00,3030.67008519,N,11424.06362361,E,1,11,3.6,62.438,M,-12.686,M,,*74
$GPGGA,110004.00,3030.67010292,N,11424.06361899,E,1,11,3.6,62.438,M,-12.686,M,,*71
$GPGGA,110005.00,3030.67011175,N,11424.06361658,E,1,11,3.6,62.428,M,-12.686,M,,*79
$GPGGA,110006.00,3030.67012580,N,11424.06361269,E,1,11,3.6,62.404,M,-12.686,M,,*7F
$GPGGA,110007.00,3030.67012859,N,11424.06361113,E,1,11,3.6,62.400,M,-12.686,M,,*7D
$GPGGA,110008.00,3030.67013915,N,11424.06360823,E,1,11,3.6,62.405,M,-12.686,M,,*74
$GPGGA,110009.00,3030.67014132,N,11424.06360765,E,1,11,3.6,62.382,M,-12.686,M,,*7A
$GPGGA,110010.00,3030.67014322,N,11424.06360841,E,1,11,3.6,62.372,M,-12.686,M,,*77
$GPGGA,110011.00,3030.67014270,N,11424.06361208,E,1,11,3.6,62.379,M,-12.686,M,,*7D
$GPGGA,110012.00,3030.67013971,N,11424.06361106,E,1,11,3.6,62.369,M,-12.686,M,,*7F
$GPGGA,110013.00,3030.67014107,N,11424.06360796,E,1,11,3.6,62.384,M,-12.686,M,,*7D
$GPGGA,110014.00,3030.67013542,N,11424.06360822,E,1,11,3.6,62.392,M,-12.686,M,,*7F
$GPGGA,110015.00,3030.67014313,N,11424.06361603,E,1,11,3.6,62.386,M,-12.686,M,,*72
$GPGGA,110016.00,3030.67014492,N,11424.06362824,E,1,11,3.6,62.377,M,-12.686,M,,*79
$GPGGA,110017.00,3030.67014949,N,11424.06363367,E,1,11,3.6,62.356,M,-12.686,M,,*7D
$GPGGA,110018.00,3030.67014992,N,11424.06363755,E,1,11,3.6,62.362,M,-12.686,M,,*76
$GPGGA,110019.00,3030.67016077,N,11424.06364357,E,1,11,3.6,62.345,M,-12.686,M,,*73
$GPGGA,110020.00,3030.67016684,N,11424.06364990,E,1,11,3.6,62.338,M,-12.686,M,,*78
$GPGGA,110021.00,3030.67017462,N,11424.06365737,E,1,11,3.6,62.330,M,-12.686,M,,*78
$GPGGA,110022.00,3030.67017311,N,11424.06366412,E,1,11,3.6,62.331,M,-12.686,M,,*7E
$GPGGA,110023.00,3030.67017699,N,11424.06366987,E,1,11,3.6,62.343,M,-12.686,M,,*7E
$GPGGA,110024.00,3030.67017777,N,11424.06367192,E,1,11,3.6,62.340,M,-12.686,M,,*76
$GPGGA,110025.00,3030.67020103,N,11424.06367935,E,1,12,3.1,62.332,M,-12.686,M,,*72
$GPGGA,110026.00,3030.67022529,N,11424.06368235,E,1,12,3.1,62.339,M,-12.686,M,,*70
$GPGGA,110027.00,3030.67023723,N,11424.06368460,E,1,12,3.1,62.380,M,-12.686,M,,*7C
$GPGGA,110028.00,3030.67026215,N,11424.06369656,E,1,12,3.1,62.355,M,-12.686,M,,*78
$GPGGA,110029.00,3030.67027144,N,11424.06370921,E,1,12,3.1,62.351,M,-12.686,M,,*7C
$GPGGA,110030.00,3030.67028705,N,11424.06371949,E,1,12,3.1,62.340,M,-12.686,M,,*77
$GPGGA,110031.00,3030.67030055,N,11424.06371927,E,1,12,3.1,62.358,M,-12.686,M,,*7C
$GPGGA,110032.00,3030.67031302,N,11424.06372719,E,1,12,3.1,62.347,M,-12.686,M,,*71
$GPGGA,110033.00,3030.67032135,N,11424.06373440,E,1,12,3.1,62.335,M,-12.686,M,,*7E
$GPGGA,110034.00,3030.67033164,N,11424.06374062,E,1,12,3.1,62.314,M,-12.686,M,,*7C
$GPGGA,110035.00,3030.67033920,N,11424.06374657,E,1,12,3.1,62.311,M,-12.686,M,,*70
$GPGGA,110036.00,3030.67034639,N,11424.06375121,E,1,12,3.1,62.299,M,-12.686,M,,*75
$GPGGA,110037.00,3030.67035319,N,11424.06375688,E,1,12,3.1,62.287,M,-12.686,M,,*79
$GPGGA,110038.00,3030.67035310,N,11424.06376195,E,1,12,3.1,62.285,M,-12.686,M,,*75
$GPGGA,110039.00,3030.67036011,N,11424.06376591,E,1,12,3.1,62.273,M,-12.686,M,,*7C
$GPGGA,110040.00,3030.67036693,N,11424.06376817,E,1,12,3.1,62.274,M,-12.686,M,,*7A
$GPGGA,110041.00,3030.67036347,N,11424.06377267,E,1,12,3.1,62.302,M,-12.686,M,,*7B
$GPGGA,110042.00,3030.67035639,N,11424.06377759,E,1,12,3.1,62.281,M,-12.686,M,,*75
$GPGGA,110043.00,3030.67036361,N,11424.06377972,E,1,12,3.1,62.266,M,-12.686,M,,*71
$GPGGA,110044.00,3030.67035976,N,11424.06378429,E,1,12,3.1,62.262,M,-12.686,M,,*71
$GPGGA,110045.00,3030.67035166,N,11424.06378742,E,1,12,3.1,62.286,M,-12.686,M,,*7D
$GPGGA,110046.00,3030.67035281,N,11424.06378785,E,1,12,3.1,62.292,M,-12.686,M,,*7A
$GPGGA,110047.00,3030.67034395,N,11424.06379060,E,1,12,3.1,62.316,M,-12.686,M,,*7E
$GPGGA,110048.00,3030.67034552,N,11424.06379735,E,1,12,3.1,62.308,M,-12.686,M,,*74
$GPGGA,110049.00,3030.67035241,N,11424.06379821,E,1,12,3.1,62.300,M,-12.686,M,,*73
$GPGGA,110050.00,3030.67035118,N,11424.06380139,E,1,12,3.1,62.300,M,-12.686,M,,*72
$GPGGA,110051.00,3030.67035111,N,11424.06380464,E,1,12,3.1,62.291,M,-12.686,M,,*7E
$GPGGA,110052.00,3030.67035636,N,11424.06380583,E,1,12,3.1,62.283,M,-12.686,M,,*74
$GPGGA,110053.00,3030.67035701,N,11424.06380968,E,1,12,3.1,62.293,M,-12.686,M,,*78
$GPGGA,110054.00,3030.67035408,N,11424.06380698,E,1,12,3.1,62.330,M,-12.686,M,,*7D
$GPGGA,110055.00,3030.67036479,N,11424.06380578,E,1,12,3.1,62.346,M,-12.686,M,,*75
$GPGGA,110056.00,3030.67036635,N,11424.06380503,E,1,12,3.1,62.332,M,-12.686,M,,*73
$GPGGA,110057.00,3030.67036154,N,11424.06380859,E,1,12,3.1,62.311,M,-12.686,M,,*71
$GPGGA,110058.00,3030.67035039,N,11424.06381356,E,1,12,3.1,62.322,M,-12.686,M,,*72
$GPGGA,110059.00,3030.67033852,N,11424.06381602,E,1,12,3.1,62.344,M,-12.686,M,,*74
$GPGGA,110100.00,3030.67034282,N,11424.06381584,E,1,12,3.1,62.341,M,-12.686,M,,*71
$GPGGA,110101.00,3030.67034538,N,11424.06381863,E,1,12,3.1,62.320,M,-12.686,M,,*75
$GPGGA,110102.00,3030.67033857,N,11424.06382302,E,1,12,3.1,62.311,M,-12.686,M,,*78
$GPGGA,110103.00,3030.67033315,N,11424.06382523,E,1,12,3.1,62.334,M,-12.686,M,,*76
$GPGGA,110104.00,3030.67033310,N,11424.06382685,E,1,12,3.1,62.327,M,-12.686,M,,*79
$GPGGA,110105.00,3030.67033525,N,11424.06382786,E,1,12,3.1,62.328,M,-12.686,M,,*75
$GPGGA,110106.00,3030.67034569,N,11424.06382782,E,1,12,3.1,62.332,M,-12.686,M,,*76
$GPGGA,110107.00,3030.67034139,N,11424.06383240,E,1,12,3.1,62.327,M,-12.686,M,,*78
$GPGGA,110108.00,3030.67034665,N,11424.06383090,E,1,12,3.1,62.323,M,-12.686,M,,*72
$GPGGA,110109.00,3030.67035549,N,11424.06382834,E,1,12,3.1,62.315,M,-12.686,M,,*7D
$GPGGA,110110.00,3030.67035679,N,11424.06383115,E,1,12,3.1,62.336,M,-12.686,M,,*7F
$GPGGA,110111.00,3030.67035951,N,11424.06383174,E,1,12,3.1,62.343,M,-12.686,M,,*7E
$GPGGA,110112.00,3030.67035676,N,11424.06383417,E,1,12,3.1,62.347,M,-12.686,M,,*73
$GPGGA,110113.00,3030.67036909,N,11424.06383467,E,1,12,3.1,62.328,M,-12.686,M,,*78
$GPGGA,110114.00,3030.67037480,N,11424.06383668,E,1,12,3.1,62.324,M,-12.686,M,,*73
$GPGGA,110115.00,3030.67037545,N,11424.06383593,E,1,12,3.1,62.345,M,-12.686,M,,*7A
$GPGGA,110116.00,3030.67037048,N,11424.06383202,E,1,12,3.1,62.349,M,-12.686,M,,*72
$GPGGA,110117.00,3030.67036303,N,11424.06383003,E,1,12,3.1,62.381,M,-12.686,M,,*79
$GPGGA,110118.00,3030.67036424,N,11424.06383296,E,1,12,3.1,62.386,M,-12.686,M,,*7D
$GPGGA,110119.00,3030.67036674,N,11424.06383237,E,1,12,3.1,62.385,M,-12.686,M,,*73
$GPGGA,110120.00,3030.67036078,N,11424.06383439,E,1,12,3.1,62.387,M,-12.686,M,,*79
$GPGGA,110121.00,3030.67034787,N,11424.06383579,E,1,12,3.1,62.381,M,-12.686,M,,*7E
$GPGGA,110122.00,3030.67033311,N,11424.06383626,E,1,12,3.1,62.412,M,-12.686,M,,*75
$GPGGA,110123.00,3030.67032477,N,11424.06383717,E,1,12,3.1,62.418,M,-12.686,M,,*7B
$GPGGA,110124.00,3030.67031738,N,11424.06383988,E,1,12,3.1,62.403,M,-12.686,M,,*75
$GPGGA,110125.00,3030.67030854,N,11424.06384015,E,1,12,3.1,62.387,M,-12.686,M,,*71
$GPGGA,110126.00,3030.67029905,N,11424.06384186,E,1,12,3.1,62.389,M,-12.686,M,,*7A
$GPGGA,110127.00,3030.67029994,N,11424.06384564,E,1,12,3.1,62.363,M,-12.686,M,,*7F
$GPGGA,110128.00,3030.67029237,N,11424.06384833,E,1,12,3.1,62.361,M,-12.686,M,,*7F
$GPGGA,110129.00,3030.67027676,N,11424.06385184,E,1,12,3.1,62.370,M,-12.686,M,,*75
$GPGGA,110130.00,3030.67027619,N,11424.06384993,E,1,12,3.1,62.375,M,-12.686,M,,*7E
$GPGGA,110131.00,3030.67027444,N,11424.06385164,E,1,12,3.1,62.392,M,-12.686,M,,*7D
$GPGGA,110132.00,3030.67028042,N,11424.06385236,E,1,12,3.1,62.382,M,-12.686,M,,*76
$GPGGA,110133.00,3030.67027757,N,11424.06385636,E,1,12,3.1,62.379,M,-12.686,M,,*7B
$GPGGA,110134.00,3030.67028821,N,11424.06385409,E,1,12,3.1,62.369,M,-12.686,M,,*72
$GPGGA,110135.00,3030.67028225,N,11424.06385443,E,1,12,3.1,62.381,M,-12.686,M,,*75
$GPGGA,110136.00,3030.67028034,N,11424.06384798,E,1,12,3.1,62.402,M,-12.686,M,,*7C
$GPGGA,110137.00,3030.67027431,N,11424.06384604,E,1,12,3.1,62.412,M,-12.686,M,,*76
$GPGGA,110138.00,3030.67027891,N,11424.06384468,E,1,12,3.1,62.406,M,-12.686,M,,*72
$GPGGA,110139.00,3030.67027933,N,11424.06384708,E,1,12,3.1,62.372,M,-12.686,M,,*7B
$GPGGA,110140.00,3030.67027768,N,11424.06384237,E,1,12,3.1,62.394,M,-12.686,M,,*74
$GPGGA,110141.00,3030.67028150,N,11424.06384125,E,1,12,3.1,62.380,M,-12.686,M,,*72
$GPGGA,110142.00,3030.67027346,N,11424.06384322,E,1,12,3.1,62.383,M,-12.686,M,,*7D
$GPGGA,110143.00,3030.67026232,N,11424.06384661,E,1,12,3.1,62.368,M,-12.686,M,,*78
$GPGGA,110144.00,3030.67024428,N,11424.06385037,E,1,12,3.1,62.381,M,-12.686,M,,*73
$GPGGA,110145.00,3030.67024386,N,11424.06385452,E,1,12,3.1,62.374,M,-12.686,M,,*7C
$GPGGA,110146.00,3030.67024917,N,11424.06385627,E,1,12,3.1,62.352,M,-12.686,M,,*79
