$GPGGA,085222.00,3030.66780051,N,11424.05719153,E,1,16,0.9,56.043,M,-12.687,M,,*7A
$GPGGA,085223.00,3030.66779835,N,11424.05719088,E,1,16,0.9,56.039,M,-12.687,M,,*7D
$GPGGA,085224.00,3030.66779606,N,11424.05718799,E,1,16,0.9,56.033,M,-12.687,M,,*78
$GPGGA,085225.00,3030.66779520,N,11424.05718413,E,1,16,0.9,56.035,M,-12.687,M,,*79
$GPGGA,085226.00,3030.66779381,N,11424.05718457,E,1,16,0.9,56.023,M,-12.687,M,,*70
$GPGGA,085227.00,3030.66778928,N,11424.05718181,E,1,16,0.9,56.013,M,-12.687,M,,*74
$GPGGA,085228.00,3030.66778761,N,11424.05717543,E,1,16,0.9,56.009,M,-12.687,M,,*76
$GPGGA,085229.00,3030.66778030,N,11424.05717581,E,1,16,0.9,55.994,M,-12.687,M,,*74
$GPGGA,085230.00,3030.66777648,N,11424.05717663,E,1,16,0.9,55.983,M,-12.687,M,,*73
$GPGGA,085231.00,3030.66777417,N,11424.05717203,E,1,16,0.9,55.980,M,-12.687,M,,*7B
$GPGGA,085232.00,3030.66777445,N,11424.05716748,E,1,16,0.9,55.979,M,-12.687,M,,*72
$GPGGA,085233.00,3030.66777240,N,11424.05716550,E,1,16,0.9,55.976,M,-12.687,M,,*74
$GPGGA,085234.00,3030.66776737,N,11424.05716550,E,1,16,0.9,55.962,M,-12.687,M,,*72
$GPGGA,085235.00,3030.66776171,N,11424.05716522,E,1,16,0.9,55.948,M,-12.687,M,,*7A
$GPGGA,085236.00,3030.66775708,N,11424.05716728,E,1,16,0.9,55.930,M,-12.687,M,,*75
$GPGGA,085237.00,3030.66775506,N,11424.05716400,E,1,16,0.9,55.926,M,-12.687,M,,*76
$GPGGA,085238.00,3030.66774837,N,11424.05716874,E,1,16,0.9,55.905,M,-12.687,M,,*79
$GPGGA,085239.00,3030.66774414,N,11424.05716018,E,1,16,0.9,55.895,M,-12.687,M,,*7F
$GPGGA,085240.00,3030.66774176,N,11424.05715616,E,1,16,0.9,55.890,M,-12.687,M,,*7E
$GPGGA,085241.00,3030.66773550,N,11424.05715554,E,1,16,0.9,55.874,M,-12.687,M,,*77
$GPGGA,085242.00,3030.66773127,N,11424.05715886,E,1,16,0.9,55.861,M,-12.687,M,,*76
$GPGGA,085243.00,3030.66773073,N,11424.05715852,E,1,16,0.9,55.849,M,-12.687,M,,*74
$GPGGA,085244.00,3030.66772802,N,11424.05715786,E,1,16,0.9,55.840,M,-12.687,M,,*73
$GPGGA,085245.00,3030.66772270,N,11424.05715829,E,1,16,0.9,55.823,M,-12.687,M,,*72
$GPGGA,085246.00,3030.66771919,N,11424.05715507,E,1,16,0.9,55.807,M,-12.687,M,,*71
$GPGGA,085247.00,3030.66771437,N,11424.05715717,E,1,16,0.9,55.794,M,-12.687,M,,*77
$GPGGA,085248.00,3030.66770871,N,11424.05716013,E,1,16,0.9,55.772,M,-12.687,M,,*7F
$GPGGA,085249.00,3030.66770248,N,11424.05716088,E,1,16,0.9,55.749,M,-12.687,M,,*74
$GPGGA,085250.00,3030.66769936,N,11424.05716005,E,1,16,0.9,55.732,M,-12.687,M,,*7F
$GPGGA,085251.00,3030.66769203,N,11424.05716211,E,1,16,0.9,55.706,M,-12.687,M,,*73
$GPGGA,085252.00,3030.66768565,N,11424.05716806,E,1,16,0.9,55.682,M,-12.687,M,,*77
$GPGGA,085253.00,3030.66768024,N,11424.05717452,E,1,16,0.9,55.653,M,-12.687,M,,*76
$GPGGA,085254.00,3030.66767003,N,11424.05718101,E,1,16,0.9,55.621,M,-12.687,M,,*72
$GPGGA,085255.00,3030.66766912,N,11424.05718468,E,1,16,0.9,55.610,M,-12.687,M,,*73
$GPGGA,085256.00,3030.66767513,N,11424.05718385,E,1,16,0.9,55.631,M,-12.687,M,,*7B
$GPGGA,085257.00,3030.66768037,N,11424.05718315,E,1,16,0.9,55.642,M,-12.687,M,,*7B
$GPGGA,085258.00,3030.66768682,N,11424.05718173,E,1,16,0.9,55.664,M,-12.687,M,,*7A
$GPGGA,085259.00,3030.66769046,N,11424.05718437,E,1,16,0.9,55.677,M,-12.687,M,,*73
$GPGGA,085300.00,3030.66769384,N,11424.05718739,E,1,16,0.9,55.681,M,-12.687,M,,*77
$GPGGA,085301.00,3030.66769260,N,11424.05719045,E,1,16,0.9,55.673,M,-12.687,M,,*7D
$GPGGA,085302.00,3030.66769072,N,11424.05719133,E,1,16,0.9,55.671,M,-12.687,M,,*7D
$GPGGA,085303.00,3030.66769069,N,11424.05719322,E,1,16,0.9,55.672,M,-12.687,M,,*77
$GPGGA,085304.00,3030.66768791,N,11424.05719752,E,1,16,0.9,55.667,M,-12.687,M,,*76
$GPGGA,085305.00,3030.66768476,N,11424.05720440,E,1,16,0.9,55.656,M,-12.687,M,,*75
$GPGGA,085306.00,3030.66768163,N,11424.05720182,E,1,16,0.9,55.651,M,-12.687,M,,*7B
$GPGGA,085307.00,3030.66767656,N,11424.05720802,E,1,16,0.9,55.634,M,-12.687,M,,*76
$GPGGA,085308.00,3030.66767396,N,11424.05720380,E,1,16,0.9,55.631,M,-12.687,M,,*74
$GPGGA,085309.00,3030.66767194,N,11424.05720517,E,1,16,0.9,55.625,M,-12.687,M,,*78
$GPGGA,085310.00,3030.66766755,N,11424.05720946,E,1,16,0.9,55.615,M,-12.687,M,,*71
$GPGGA,085311.00,3030.66766398,N,11424.05721660,E,1,16,0.9,55.599,M,-12.687,M,,*78
$GPGGA,085312.00,3030.66765919,N,11424.05722295,E,1,16,0.9,55.588,M,-12.687,M,,*76
$GPGGA,085313.00,3030.66765498,N,11424.05722946,E,1,16,0.9,55.580,M,-12.687,M,,*7E
$GPGGA,085314.00,3030.66765139,N,11424.05724135,E,1,16,0.9,55.563,M,-12.687,M,,*70
$GPGGA,085315.00,3030.66764570,N,11424.05725160,E,1,16,0.9,55.552,M,-12.687,M,,*7A
$GPGGA,085316.00,3030.66764131,N,11424.05725457,E,1,16,0.9,55.549,M,-12.687,M,,*73
$GPGGA,085317.00,3030.66763572,N,11424.05726037,E,1,16,0.9,55.543,M,-12.687,M,,*7D
$GPGGA,085318.00,3030.66762868,N,11424.05726931,E,1,17,0.9,55.529,M,-12.687,M,,*77
$GPGGA,085319.00,3030.66762521,N,11424.05727632,E,1,17,0.9,55.527,M,-12.687,M,,*75
$GPGGA,085320.00,3030.66762119,N,11424.05727462,E,1,17,0.9,55.540,M,-12.687,M,,*76
$GPGGA,085321.00,3030.66761767,N,11424.05726687,E,1,17,0.9,55.553,M,-12.687,M,,*71
$GPGGA,085322.00,3030.66761475,N,11424.05726206,E,1,17,0.9,55.567,M,-12.687,M,,*78
$GPGGA,085323.00,3030.66761452,N,11424.05725074,E,1,17,0.9,55.587,M,-12.687,M,,*76
$GPGGA,085324.00,3030.66760903,N,11424.05724360,E,1,17,0.9,55.596,M,-12.687,M,,*7E
$GPGGA,085325.00,3030.66760478,N,11424.05724173,E,1,17,0.9,55.600,M,-12.687,M,,*72
$GPGGA,085326.00,3030.66759857,N,11424.05723966,E,1,17,0.9,55.606,M,-12.687,M,,*77
$GPGGA,085327.00,3030.66759656,N,11424.05723648,E,1,17,0.9,55.622,M,-12.687,M,,*7C
$GPGGA,085328.00,3030.66759188,N,11424.05723236,E,1,17,0.9,55.627,M,-12.687,M,,*7F
$GPGGA,085329.00,3030.66758606,N,11424.05723415,E,1,17,0.9,55.626,M,-12.687,M,,*78
$GPGGA,085330.00,3030.66758380,N,11424.05723680,E,1,17,0.9,55.635,M,-12.687,M,,*77
$GPGGA,085331.00,3030.66757746,N,11424.05723937,E,1,17,0.9,55.637,M,-12.687,M,,*76
$GPGGA,085332.00,3030.66757444,N,11424.05724503,E,1,18,0.8,55.637,M,-12.687,M,,*76
$GPGGA,085333.00,3030.66757112,N,11424.05724787,E,1,18,0.8,55.637,M,-12.687,M,,*7F
$GPGGA,085334.00,3030.66756660,N,11424.05724917,E,1,18,0.8,55.635,M,-12.687,M,,*7E
$GPGGA,085335.00,3030.66756216,N,11424.05725054,E,1,18,0.8,55.641,M,-12.687,M,,*76
$GPGGA,085336.00,3030.66755281,N,11424.05725793,E,1,18,0.8,55.630,M,-12.687,M,,*72
$GPGGA,085337.00,3030.66754901,N,11424.05726147,E,1,18,0.8,55.627,M,-12.687,M,,*7B
$GPGGA,085338.00,3030.66754183,N,11424.05726379,E,1,18,0.8,55.610,M,-12.687,M,,*7D
$GPGGA,085339.00,3030.66753574,N,11424.05726272,E,1,18,0.8,55.594,M,-12.687,M,,*72
$GPGGA,085340.00,3030.66753395,N,11424.05726286,E,1,18,0.8,55.583,M,-12.687,M,,*78
$GPGGA,085341.00,3030.66753093,N,11424.05726617,E,1,18,0.8,55.569,M,-12.687,M,,*74
$GPGGA,085342.00,3030.66752974,N,11424.05727048,E,1,18,0.8,55.567,M,-12.687,M,,*75
$GPGGA,085343.00,3030.66752928,N,11424.05727396,E,1,18,0.8,55.570,M,-12.687,M,,*7B
$GPGGA,085344.00,3030.66753100,N,11424.05727541,E,1,18,0.8,55.572,M,-12.687,M,,*71
$GPGGA,085345.00,3030.66752816,N,11424.05727705,E,1,18,0.8,55.556,M,-12.687,M,,*7B
$GPGGA,085346.00,3030.66752551,N,11424.05727600,E,1,18,0.8,55.549,M,-12.687,M,,*7C
$GPGGA,085347.00,3030.66752769,N,11424.05726734,E,1,18,0.8,55.556,M,-12.687,M,,*7D
$GPGGA,085348.00,3030.66752941,N,11424.05727183,E,1,18,0.8,55.545,M,-12.687,M,,*7F
$GPGGA,085349.00,3030.66753046,N,11424.05727102,E,1,18,0.8,55.541,M,-12.687,M,,*7C
$GPGGA,085350.00,3030.66752961,N,11424.05727151,E,1,18,0.8,55.532,M,-12.687,M,,*7B
$GPGGA,085351.00,3030.66752854,N,11424.05727469,E,1,18,0.8,55.518,M,-12.687,M,,*7B
$GPGGA,085352.00,3030.66752711,N,11424.05727050,E,1,18,0.8,55.517,M,-12.687,M,,*77
$GPGGA,085353.00,3030.66753093,N,11424.05727190,E,1,18,0.8,55.520,M,-12.687,M,,*73
$GPGGA,085354.00,3030.66753282,N,11424.05727086,E,1,18,0.8,55.519,M,-12.687,M,,*7A
$GPGGA,085355.00,3030.66753182,N,11424.05726852,E,1,18,0.8,55.505,M,-12.687,M,,*75
$GPGGA,085356.00,3030.66752984,N,11424.05726993,E,1,18,0.8,55.474,M,-12.687,M,,*72
$GPGGA,085357.00,3030.66752890,N,11424.05726540,E,1,18,0.8,55.458,M,-12.687,M,,*7B
$GPGGA,085358.00,3030.66752696,N,11424.05726288,E,1,18,0.8,55.432,M,-12.687,M,,*73
$GPGGA,085359.00,3030.66752376,N,11424.05726675,E,1,18,0.8,55.408,M,-12.687,M,,*76
$GPGGA,085400.00,3030.66752166,N,11424.05726411,E,1,18,0.8,55.393,M,-12.687,M,,*7B
$GPGGA,085401.00,3030.66752131,N,11424.05726207,E,1,18,0.8,55.374,M,-12.687,M,,*70
$GPGGA,085402.00,3030.66752187,N,11424.05725896,E,1,18,0.8,55.365,M,-12.687,M,,*7F
$GPGGA,085403.00,3030.66752367,N,11424.05725991,E,1,18,0.8,55.356,M,-12.687,M,,*74
$GPGGA,085404.00,3030.66752303,N,11424.05725842,E,1,18,0.8,55.346,M,-12.687,M,,*7F
$GPGGA,085405.00,3030.66752296,N,11424.05725945,E,1,18,0.8,55.347,M,-12.687,M,,*74
$GPGGA,085406.00,3030.66752003,N,11424.05725955,E,1,18,0.8,55.325,M,-12.687,M,,*7C
$GPGGA,085407.00,3030.66751967,N,11424.05725774,E,1,18,0.8,55.310,M,-12.687,M,,*7E
$GPGGA,085408.00,3030.66751765,N,11424.05726075,E,1,18,0.8,55.299,M,-12.687,M,,*78
$GPGGA,085409.00,3030.66751608,N,11424.05726021,E,1,18,0.8,55.280,M,-12.687,M,,*7A
$GPGGA,085410.00,3030.66751074,N,11424.05726378,E,1,18,0.8,55.263,M,-12.687,M,,*7D
$GPGGA,085411.00,3030.66750839,N,11424.05726747,E,1,18,0.8,55.248,M,-12.687,M,,*7D
$GPGGA,085412.00,3030.66750613,N,11424.05726339,E,1,18,0.8,55.244,M,-12.687,M,,*79
$GPGGA,085413.00,3030.66750567,N,11424.05726325,E,1,18,0.8,55.232,M,-12.687,M,,*74
$GPGGA,085414.00,3030.66750416,N,11424.05726748,E,1,18,0.8,55.210,M,-12.687,M,,*7B
$GPGGA,085415.00,3030.66750135,N,11424.05727078,E,1,18,0.8,55.189,M,-12.687,M,,*78
$GPGGA,085416.00,3030.66749329,N,11424.05728038,E,1,18,0.8,55.153,M,-12.687,M,,*70
$GPGGA,085417.00,3030.66748940,N,11424.05728986,E,1,18,0.8,55.129,M,-12.687,M,,*74
$GPGGA,085418.00,3030.66748675,N,11424.05730132,E,1,18,0.8,55.104,M,-12.687,M,,*73
$GPGGA,085419.00,3030.66748142,N,11424.05730782,E,1,18,0.8,55.076,M,-12.687,M,,*78
$GPGGA,085420.00,3030.66747670,N,11424.05731397,E,1,18,0.8,55.047,M,-12.687,M,,*78
$GPGGA,085421.00,3030.66747198,N,11424.05732164,E,1,18,0.8,55.032,M,-12.687,M,,*77
$GPGGA,085422.00,3030.66746672,N,11424.05733088,E,1,18,0.8,55.005,M,-12.687,M,,*70
$GPGGA,085423.00,3030.66746299,N,11424.05733928,E,1,18,0.8,54.993,M,-12.687,M,,*74
$GPGGA,085424.00,3030.66745742,N,11424.05734108,E,1,18,0.8,54.976,M,-12.687,M,,*75
$GPGGA,085425.00,3030.66745276,N,11424.05734934,E,1,18,0.8,54.954,M,-12.687,M,,*71
$GPGGA,085426.00,3030.66744759,N,11424.05735806,E,1,18,0.8,54.928,M,-12.687,M,,*71
$GPGGA,085427.00,3030.66744243,N,11424.05736299,E,1,18,0.8,54.910,M,-12.687,M,,*7A
$GPGGA,085428.00,3030.66744084,N,11424.05736609,E,1,18,0.8,54.902,M,-12.687,M,,*72
$GPGGA,085429.00,3030.66743886,N,11424.05737272,E,1,18,0.8,54.888,M,-12.687,M,,*74
$GPGGA,085430.00,3030.66743606,N,11424.05737449,E,1,18,0.8,54.890,M,-12.687,M,,*7D
$GPGGA,085431.00,3030.66743344,N,11424.05738020,E,1,18,0.8,54.880,M,-12.687,M,,*7A
$GPGGA,085432.00,3030.66743212,N,11424.05737476,E,1,18,0.8,54.887,M,-12.687,M,,*74
$GPGGA,085433.00,3030.66743310,N,11424.05737784,E,1,18,0.8,54.887,M,-12.687,M,,*78
$GPGGA,085434.00,3030.66744310,N,11424.05737637,E,1,18,0.8,54.924,M,-12.687,M,,*79
$GPGGA,085435.00,3030.66745522,N,11424.05737339,E,1,18,0.8,54.976,M,-12.687,M,,*72
$GPGGA,085436.00,3030.66746590,N,11424.05737373,E,1,18,0.8,55.027,M,-12.687,M,,*79
$GPGGA,085437.00,3030.66747574,N,11424.05737717,E,1,18,0.8,55.067,M,-12.687,M,,*71
$GPGGA,085438.00,3030.66748525,N,11424.05738070,E,1,18,0.8,55.107,M,-12.687,M,,*7B
$GPGGA,085439.00,3030.66749602,N,11424.05738194,E,1,18,0.8,55.135,M,-12.687,M,,*77
$GPGGA,085440.00,3030.66750491,N,11424.05738449,E,1,18,0.8,55.159,M,-12.687,M,,*76
$GPGGA,085441.00,3030.66751118,N,11424.05738816,E,1,18,0.8,55.182,M,-12.687,M,,*72
$GPGGA,085442.00,3030.66751664,N,11424.05739451,E,1,18,0.8,55.201,M,-12.687,M,,*7B
$GPGGA,085443.00,3030.66752466,N,11424.05739366,E,1,18,0.8,55.225,M,-12.687,M,,*7C
$GPGGA,085444.00,3030.66752933,N,11424.05739671,E,1,18,0.8,55.251,M,-12.687,M,,*76
$GPGGA,085445.00,3030.66753649,N,11424.05739908,E,1,18,0.8,55.271,M,-12.687,M,,*77
$GPGGA,085446.00,3030.66754139,N,11424.05739567,E,1,18,0.8,55.293,M,-12.687,M,,*7A
$GPGGA,085447.00,3030.66754649,N,11424.05739304,E,1,18,0.8,55.313,M,-12.687,M,,*71
$GPGGA,085448.00,3030.66755147,N,11424.05739479,E,1,18,0.8,55.328,M,-12.687,M,,*73
$GPGGA,085449.00,3030.66755499,N,11424.05739124,E,1,18,0.8,55.351,M,-12.687,M,,*77
$GPGGA,085450.00,3030.66755866,N,11424.05738773,E,1,18,0.8,55.370,M,-12.687,M,,*75
$GPGGA,085451.00,3030.66756104,N,11424.05738586,E,1,18,0.8,55.384,M,-12.687,M,,*79
$GPGGA,085452.00,3030.66756444,N,11424.05738154,E,1,18,0.8,55.405,M,-12.687,M,,*7E
$GPGGA,085453.00,3030.66756808,N,11424.05738136,E,1,18,0.8,55.420,M,-12.687,M,,*78
$GPGGA,085454.00,3030.66757217,N,11424.05737833,E,1,18,0.8,55.435,M,-12.687,M,,*7D
$GPGGA,085455.00,3030.66757382,N,11424.05737310,E,1,18,0.8,55.450,M,-12.687,M,,*78
$GPGGA,085456.00,3030.66757794,N,11424.05736838,E,1,18,0.8,55.468,M,-12.687,M,,*73
$GPGGA,085457.00,3030.66758113,N,11424.05736331,E,1,18,0.8,55.484,M,-12.687,M,,*74
$GPGGA,085458.00,3030.66758359,N,11424.05736028,E,1,18,0.8,55.497,M,-12.687,M,,*7E
$GPGGA,085459.00,3030.66758519,N,11424.05735784,E,1,18,0.8,55.507,M,-12.687,M,,*77
$GPGGA,085500.00,3030.66758959,N,11424.05735379,E,1,18,0.8,55.525,M,-12.687,M,,*74
$GPGGA,085501.00,3030.66759042,N,11424.05735165,E,1,18,0.8,55.538,M,-12.687,M,,*74
$GPGGA,085502.00,3030.66759357,N,11424.05734629,E,1,18,0.8,55.557,M,-12.687,M,,*77
$GPGGA,085503.00,3030.66759599,N,11424.05734442,E,1,18,0.8,55.565,M,-12.687,M,,*7C
$GPGGA,085504.00,3030.66759681,N,11424.05734042,E,1,18,0.8,55.572,M,-12.687,M,,*73
$GPGGA,085505.00,3030.66759783,N,11424.05734108,E,1,18,0.8,55.577,M,-12.687,M,,*7B
$GPGGA,085506.00,3030.66759958,N,11424.05733746,E,1,18,0.8,55.586,M,-12.687,M,,*75
$GPGGA,085507.00,3030.66760232,N,11424.05733201,E,1,18,0.8,55.600,M,-12.687,M,,*72
$GPGGA,085508.00,3030.66760319,N,11424.05732660,E,1,18,0.8,55.616,M,-12.687,M,,*70
$GPGGA,085509.00,3030.66760534,N,11424.05732820,E,1,18,0.8,55.624,M,-12.687,M,,*73
$GPGGA,085510.00,3030.66760594,N,11424.05732548,E,1,18,0.8,55.641,M,-12.687,M,,*71
$GPGGA,085511.00,3030.66760880,N,11424.05731443,E,1,18,0.8,55.657,M,-12.687,M,,*76
$GPGGA,085512.00,3030.66761230,N,11424.05730806,E,1,18,0.8,55.674,M,-12.687,M,,*78
$GPGGA,085513.00,3030.66761442,N,11424.05730541,E,1,18,0.8,55.688,M,-12.687,M,,*77
$GPGGA,085514.00,3030.66761374,N,11424.05729839,E,1,18,0.8,55.707,M,-12.687,M,,*7E
$GPGGA,085515.00,3030.66761516,N,11424.05729429,E,1,18,0.8,55.721,M,-12.687,M,,*74
$GPGGA,085516.00,3030.66761475,N,11424.05729059,E,1,17,0.8,55.743,M,-12.687,M,,*7B
$GPGGA,085517.00,3030.66761733,N,11424.05728809,E,1,17,0.8,55.771,M,-12.687,M,,*76
$GPGGA,085518.00,3030.66761977,N,11424.05728227,E,1,17,0.8,55.791,M,-12.687,M,,*7F
$GPGGA,085519.00,3030.66761941,N,11424.05727763,E,1,17,0.8,55.814,M,-12.687,M,,*73
$GPGGA,085520.00,3030.66762181,N,11424.05727515,E,1,17,0.8,55.840,M,-12.687,M,,*7C
$GPGGA,085521.00,3030.66762629,N,11424.05726885,E,1,17,0.8,55.862,M,-12.687,M,,*7D
$GPGGA,085522.00,3030.66762849,N,11424.05726757,E,1,17,0.8,55.878,M,-12.687,M,,*7D
$GPGGA,085523.00,3030.66763005,N,11424.05726083,E,1,17,0.8,55.903,M,-12.687,M,,*7E
$GPGGA,085524.00,3030.66763006,N,11424.05725639,E,1,17,0.8,55.927,M,-12.687,M,,*78
$GPGGA,085525.00,3030.66763096,N,11424.05724855,E,1,17,0.8,55.947,M,-12.687,M,,*73
$GPGGA,085526.00,3030.66762619,N,11424.05724867,E,1,17,0.8,55.967,M,-12.687,M,,*73
$GPGGA,085527.00,3030.66762690,N,11424.05724108,E,1,17,0.8,55.978,M,-12.687,M,,*7D
$GPGGA,085528.00,3030.66762734,N,11424.05723023,E,1,17,0.8,55.994,M,-12.687,M,,*70
$GPGGA,085529.00,3030.66762812,N,11424.05722097,E,1,17,0.8,56.011,M,-12.687,M,,*73
$GPGGA,085530.00,3030.66762763,N,11424.05721146,E,1,17,0.8,56.027,M,-12.687,M,,*79
$GPGGA,085531.00,3030.66762898,N,11424.05721497,E,1,17,0.8,56.022,M,-12.687,M,,*7F
$GPGGA,085532.00,3030.66762936,N,11424.05720663,E,1,17,0.8,56.037,M,-12.687,M,,*75
$GPGGA,085533.00,3030.66763012,N,11424.05719834,E,1,17,0.8,56.048,M,-12.687,M,,*74
$GPGGA,085534.00,3030.66763008,N,11424.05719514,E,1,17,0.8,56.045,M,-12.687,M,,*7A
$GPGGA,085535.00,3030.66762741,N,11424.05719413,E,1,17,0.8,56.031,M,-12.687,M,,*75
$GPGGA,085536.00,3030.66762571,N,11424.05718914,E,1,17,0.8,56.019,M,-12.687,M,,*76
$GPGGA,085537.00,3030.66762092,N,11424.05718465,E,1,17,0.8,56.022,M,-12.687,M,,*7C
$GPGGA,085538.00,3030.66761807,N,11424.05718084,E,1,17,0.8,56.022,M,-12.687,M,,*7F
$GPGGA,085539.00,3030.66761262,N,11424.05717671,E,1,17,0.8,56.007,M,-12.687,M,,*73
$GPGGA,085540.00,3030.66761203,N,11424.05716884,E,1,17,0.8,55.999,M,-12.687,M,,*72
$GPGGA,085541.00,3030.66760908,N,11424.05716207,E,1,17,0.8,55.995,M,-12.687,M,,*7F
$GPGGA,085542.00,3030.66760653,N,11424.05715624,E,1,17,0.8,55.983,M,-12.687,M,,*7C
$GPGGA,085543.00,3030.66760469,N,11424.05715138,E,1,17,0.8,55.964,M,-12.687,M,,*75
$GPGGA,085544.00,3030.66759908,N,11424.05715172,E,1,17,0.8,55.948,M,-12.687,M,,*72
$GPGGA,085545.00,3030.66759406,N,11424.05714485,E,1,17,0.8,55.923,M,-12.687,M,,*71
$GPGGA,085546.00,3030.66758896,N,11424.05713877,E,1,17,0.8,55.912,M,-12.687,M,,*72
$GPGGA,085547.00,3030.66758772,N,11424.05712664,E,1,17,0.8,55.902,M,-12.687,M,,*7A
$GPGGA,085548.00,3030.66758315,N,11424.05712080,E,1,16,0.9,55.876,M,-12.687,M,,*7E
$GPGGA,085549.00,3030.66758002,N,11424.05711630,E,1,17,0.8,55.864,M,-12.687,M,,*77
$GPGGA,085550.00,3030.66757792,N,11424.05710934,E,1,17,0.8,55.853,M,-12.687,M,,*70
$GPGGA,085551.00,3030.66757273,N,11424.05710486,E,1,17,0.8,55.835,M,-12.687,M,,*7F
$GPGGA,085552.00,3030.66757064,N,11424.05710036,E,1,17,0.8,55.824,M,-12.687,M,,*77
$GPGGA,085553.00,3030.66757111,N,11424.05709790,E,1,17,0.8,55.818,M,-12.687,M,,*79
$GPGGA,085554.00,3030.66756687,N,11424.05709681,E,1,17,0.8,55.794,M,-12.687,M,,*7D
$GPGGA,085555.00,3030.66756072,N,11424.05709553,E,1,17,0.8,55.773,M,-12.687,M,,*75
$GPGGA,085556.00,3030.66755556,N,11424.05709763,E,1,17,0.8,55.749,M,-12.687,M,,*7E
$GPGGA,085557.00,3030.66755050,N,11424.05710036,E,1,18,0.8,55.717,M,-12.687,M,,*77
$GPGGA,085558.00,3030.66754242,N,11424.05710841,E,1,17,0.8,55.688,M,-12.687,M,,*78
$GPGGA,085559.00,3030.66753571,N,11424.05710896,E,1,17,0.8,55.670,M,-12.687,M,,*74
$GPGGA,085600.00,3030.66752690,N,11424.05710658,E,1,17,0.8,55.633,M,-12.687,M,,*7D
$GPGGA,085601.00,3030.66752029,N,11424.05710361,E,1,17,0.8,55.600,M,-12.687,M,,*77
$GPGGA,085602.00,3030.66751144,N,11424.05710162,E,1,17,0.8,55.571,M,-12.687,M,,*79
$GPGGA,085603.00,3030.66750555,N,11424.05710071,E,1,17,0.8,55.534,M,-12.687,M,,*7F
$GPGGA,085604.00,3030.66749540,N,11424.05710039,E,1,17,0.8,55.484,M,-12.687,M,,*72
$GPGGA,085605.00,3030.66748630,N,11424.05709690,E,1,17,0.8,55.440,M,-12.687,M,,*73
$GPGGA,085606.00,3030.66748064,N,11424.05709464,E,1,16,0.8,55.415,M,-12.687,M,,*7F
$GPGGA,085607.00,3030.66747099,N,11424.05709525,E,1,16,0.8,55.379,M,-12.687,M,,*7A
$GPGGA,085608.00,3030.66746157,N,11424.05709570,E,1,16,0.8,55.331,M,-12.687,M,,*7B
$GPGGA,085609.00,3030.66745249,N,11424.05709958,E,1,16,0.8,55.300,M,-12.687,M,,*71
$GPGGA,085610.00,3030.66744211,N,11424.05710416,E,1,16,0.8,55.260,M,-12.687,M,,*7D
$GPGGA,085611.00,3030.66743049,N,11424.05710329,E,1,16,0.8,55.228,M,-12.687,M,,*73
$GPGGA,085612.00,3030.66741987,N,11424.05710852,E,1,16,0.8,55.192,M,-12.687,M,,*7C
$GPGGA,085613.00,3030.66741513,N,11424.05711240,E,1,16,0.8,55.166,M,-12.687,M,,*7F
$GPGGA,085614.00,3030.66740475,N,11424.05711363,E,1,16,0.8,55.129,M,-12.687,M,,*73
$GPGGA,085615.00,3030.66739215,N,11424.05712533,E,1,17,0.8,55.085,M,-12.687,M,,*7A
$GPGGA,085616.00,3030.66738457,N,11424.05713930,E,1,17,0.8,55.058,M,-12.687,M,,*76
$GPGGA,085617.00,3030.66737830,N,11424.05714200,E,1,17,0.8,55.038,M,-12.687,M,,*7C
$GPGGA,085618.00,3030.66736991,N,11424.05714295,E,1,17,0.8,55.014,M,-12.687,M,,*7A
$GPGGA,085619.00,3030.66736788,N,11424.05714304,E,1,17,0.8,54.997,M,-12.687,M,,*77
$GPGGA,085620.00,3030.66735867,N,11424.05715145,E,1,17,0.8,54.962,M,-12.687,M,,*7C
$GPGGA,085621.00,3030.66735176,N,11424.05716157,E,1,17,0.8,54.931,M,-12.687,M,,*72
$GPGGA,085622.00,3030.66734588,N,11424.05716964,E,1,17,0.8,54.912,M,-12.687,M,,*7C
$GPGGA,085623.00,3030.66734051,N,11424.05716415,E,1,17,0.8,54.904,M,-12.687,M,,*70
$GPGGA,085624.00,3030.66733913,N,11424.05715850,E,1,17,0.8,54.890,M,-12.687,M,,*7D
$GPGGA,085625.00,3030.66733086,N,11424.05716166,E,1,17,0.8,54.866,M,-12.687,M,,*7F
$GPGGA,085626.00,3030.66733440,N,11424.05716584,E,1,17,0.8,54.854,M,-12.687,M,,*7B
$GPGGA,085627.00,3030.66734661,N,11424.05717092,E,1,17,0.8,54.864,M,-12.687,M,,*7C
$GPGGA,085628.00,3030.66735666,N,11424.05718264,E,1,17,0.8,54.891,M,-12.687,M,,*7B
$GPGGA,085629.00,3030.66735390,N,11424.05718763,E,1,17,0.8,54.923,M,-12.687,M,,*7C
$GPGGA,085630.00,3030.66734244,N,11424.05719737,E,1,17,0.8,54.949,M,-12.687,M,,*71
$GPGGA,085631.00,3030.66733193,N,11424.05720060,E,1,17,0.8,54.971,M,-12.687,M,,*7A
$GPGGA,085632.00,3030.66733313,N,11424.05720422,E,1,17,0.8,55.003,M,-12.687,M,,*7C
$GPGGA,085633.00,3030.66733410,N,11424.05721180,E,1,17,0.8,55.030,M,-12.687,M,,*75
$GPGGA,085634.00,3030.66732688,N,11424.05720965,E,1,17,0.8,55.053,M,-12.687,M,,*77
$GPGGA,085635.00,3030.66731372,N,11424.05721079,E,1,17,0.8,55.064,M,-12.687,M,,*74
$GPGGA,085636.00,3030.66730840,N,11424.05721484,E,1,17,0.8,55.080,M,-12.687,M,,*70
$GPGGA,085637.00,3030.66730353,N,11424.05721630,E,1,17,0.8,55.097,M,-12.687,M,,*73
$GPGGA,085638.00,3030.66729550,N,11424.05722100,E,1,17,0.8,55.093,M,-12.687,M,,*72
$GPGGA,085639.00,3030.66728893,N,11424.05722408,E,1,17,0.8,55.106,M,-12.687,M,,*70
$GPGGA,085640.00,3030.66728892,N,11424.05721610,E,1,17,0.8,55.130,M,-12.687,M,,*72
$GPGGA,085641.00,3030.66728556,N,11424.05721826,E,1,17,0.8,55.135,M,-12.687,M,,*78
$GPGGA,085642.00,3030.66728118,N,11424.05722392,E,1,17,0.8,55.132,M,-12.687,M,,*75
$GPGGA,085643.00,3030.66728196,N,11424.05722058,E,1,17,0.8,55.150,M,-12.687,M,,*73
$GPGGA,085644.00,3030.66728271,N,11424.05722070,E,1,17,0.8,55.164,M,-12.687,M,,*73
$GPGGA,085645.00,3030.66727787,N,11424.05722041,E,1,18,0.7,55.171,M,-12.687,M,,*77
$GPGGA,085646.00,3030.66727240,N,11424.05722924,E,1,18,0.7,55.163,M,-12.687,M,,*73
$GPGGA,085647.00,3030.66726668,N,11424.05723342,E,1,18,0.7,55.164,M,-12.687,M,,*71
$GPGGA,085648.00,3030.66725803,N,11424.05724062,E,1,18,0.7,55.153,M,-12.687,M,,*7C
$GPGGA,085649.00,3030.66725047,N,11424.05724636,E,1,18,0.7,55.151,M,-12.687,M,,*70
$GPGGA,085650.00,3030.66723485,N,11424.05725762,E,1,18,0.7,55.128,M,-12.687,M,,*7B
$GPGGA,085651.00,3030.66722202,N,11424.05726779,E,1,18,0.7,55.113,M,-12.687,M,,*73
$GPGGA,085652.00,3030.66721348,N,11424.05727127,E,1,18,0.7,55.110,M,-12.687,M,,*73
$GPGGA,085653.00,3030.66721173,N,11424.05727549,E,1,18,0.7,55.104,M,-12.687,M,,*71
$GPGGA,085654.00,3030.66720020,N,11424.05727527,E,1,18,0.7,55.095,M,-12.687,M,,*71
$GPGGA,085655.00,3030.66718154,N,11424.05727693,E,1,18,0.7,55.085,M,-12.687,M,,*74
$GPGGA,085656.00,3030.66717070,N,11424.05728143,E,1,19,0.7,55.081,M,-12.687,M,,*7F
$GPGGA,085657.00,3030.66715757,N,11424.05728320,E,1,19,0.7,55.068,M,-12.687,M,,*7E
$GPGGA,085658.00,3030.66714636,N,11424.05728216,E,1,19,0.7,55.061,M,-12.687,M,,*7B
$GPGGA,085659.00,3030.66713894,N,11424.05728566,E,1,19,0.7,55.050,M,-12.687,M,,*79
$GPGGA,085700.00,3030.66712535,N,11424.05728611,E,1,19,0.7,55.040,M,-12.687,M,,*71
$GPGGA,085701.00,3030.66711298,N,11424.05729407,E,1,19,0.7,55.021,M,-12.687,M,,*70
$GPGGA,085702.00,3030.66710322,N,11424.05729227,E,1,18,0.8,55.018,M,-12.687,M,,*72
$GPGGA,085703.00,3030.66709660,N,11424.05728934,E,1,18,0.8,55.023,M,-12.687,M,,*78
$GPGGA,085704.00,3030.66709299,N,11424.05728607,E,1,18,0.8,55.021,M,-12.687,M,,*70
$GPGGA,085705.00,3030.66708594,N,11424.05728241,E,1,18,0.8,55.024,M,-12.687,M,,*79
$GPGGA,085706.00,3030.66707651,N,11424.05728141,E,1,18,0.8,55.018,M,-12.687,M,,*73
$GPGGA,085707.00,3030.66706688,N,11424.05728057,E,1,18,0.8,55.009,M,-12.687,M,,*71
$GPGGA,085708.00,3030.66705756,N,11424.05727633,E,1,18,0.8,55.011,M,-12.687,M,,*7D
$GPGGA,085709.00,3030.66704876,N,11424.05727329,E,1,18,0.8,55.004,M,-12.687,M,,*7A
$GPGGA,085710.00,3030.66704106,N,11424.05727096,E,1,18,0.8,54.995,M,-12.687,M,,*7B
$GPGGA,085711.00,3030.66703788,N,11424.05726898,E,1,18,0.8,54.998,M,-12.687,M,,*77
$GPGGA,085712.00,3030.66703363,N,11424.05726985,E,1,18,0.8,54.996,M,-12.687,M,,*76
$GPGGA,085713.00,3030.66703249,N,11424.05726776,E,1,18,0.8,55.002,M,-12.687,M,,*79
$GPGGA,085714.00,3030.66702627,N,11424.05726777,E,1,18,0.8,54.994,M,-12.687,M,,*75
$GPGGA,085715.00,3030.66701982,N,11424.05726951,E,1,18,0.8,54.994,M,-12.687,M,,*7D
$GPGGA,085716.00,3030.66701581,N,11424.05726886,E,1,17,0.9,54.991,M,-12.687,M,,*71
$GPGGA,085717.00,3030.66700943,N,11424.05726874,E,1,17,0.9,54.981,M,-12.687,M,,*7F
$GPGGA,085718.00,3030.66700398,N,11424.05726819,E,1,17,0.9,54.981,M,-12.687,M,,*77
$GPGGA,085719.00,3030.66700073,N,11424.05726721,E,1,17,0.9,54.978,M,-12.687,M,,*72
$GPGGA,085720.00,3030.66699430,N,11424.05726857,E,1,17,0.9,54.975,M,-12.687,M,,*79
$GPGGA,085721.00,3030.66699154,N,11424.05727062,E,1,17,0.9,54.979,M,-12.687,M,,*7C
$GPGGA,085722.00,3030.66698899,N,11424.05727146,E,1,17,0.9,54.989,M,-12.687,M,,*7E
$GPGGA,085723.00,3030.66698693,N,11424.05727124,E,1,17,0.9,54.989,M,-12.687,M,,*7F
$GPGGA,085724.00,3030.66698165,N,11424.05727138,E,1,17,0.9,54.981,M,-12.687,M,,*73
$GPGGA,085725.00,3030.66697932,N,11424.05727160,E,1,17,0.9,54.991,M,-12.687,M,,*7B
$GPGGA,085726.00,3030.66697560,N,11424.05727336,E,1,17,0.9,54.988,M,-12.687,M,,*7A
$GPGGA,085727.00,3030.66697074,N,11424.05727532,E,1,17,0.9,54.980,M,-12.687,M,,*71
$GPGGA,085728.00,3030.66696494,N,11424.05727757,E,1,16,0.9,54.967,M,-12.687,M,,*7C
$GPGGA,085729.00,3030.66696285,N,11424.05728029,E,1,16,0.9,54.965,M,-12.687,M,,*78
$GPGGA,085730.00,3030.66696028,N,11424.05728114,E,1,16,0.9,54.966,M,-12.687,M,,*79
$GPGGA,085731.00,3030.66695615,N,11424.05727838,E,1,16,0.9,54.955,M,-12.687,M,,*7B
$GPGGA,085732.00,3030.66695124,N,11424.05728112,E,1,16,0.9,54.939,M,-12.687,M,,*79
$GPGGA,085733.00,3030.66694821,N,11424.05727976,E,1,16,0.9,54.934,M,-12.687,M,,*7D
$GPGGA,085734.00,3030.66694486,N,11424.05728184,E,1,16,0.9,54.919,M,-12.687,M,,*7E
$GPGGA,085735.00,3030.66694004,N,11424.05728253,E,1,16,0.9,54.909,M,-12.687,M,,*79
$GPGGA,085736.00,3030.66693766,N,11424.05727919,E,1,16,0.9,54.903,M,-12.687,M,,*7E
$GPGGA,085737.00,3030.66693520,N,11424.05727786,E,1,16,0.9,54.892,M,-12.687,M,,*7E
$GPGGA,085738.00,3030.66693119,N,11424.05727707,E,1,16,0.9,54.876,M,-12.687,M,,*7C
$GPGGA,085739.00,3030.66692860,N,11424.05727665,E,1,16,0.9,54.867,M,-12.687,M,,*7E
$GPGGA,085740.00,3030.66692800,N,11424.05727088,E,1,16,0.9,54.861,M,-12.687,M,,*75
$GPGGA,085741.00,3030.66692512,N,11424.05726844,E,1,16,0.9,54.850,M,-12.687,M,,*71
$GPGGA,085742.00,3030.66692388,N,11424.05726530,E,1,16,0.9,54.829,M,-12.687,M,,*77
$GPGGA,085743.00,3030.66692257,N,11424.05726245,E,1,16,0.9,54.826,M,-12.687,M,,*7F
$GPGGA,085744.00,3030.66691926,N,11424.05726460,E,1,16,0.9,54.805,M,-12.687,M,,*76
$GPGGA,085745.00,3030.66691532,N,11424.05726264,E,1,16,0.9,54.779,M,-12.687,M,,*78
$GPGGA,085746.00,3030.66691300,N,11424.05726166,E,1,15,0.9,54.769,M,-12.687,M,,*7F
$GPGGA,085747.00,3030.66690987,N,11424.05725980,E,1,15,0.9,54.758,M,-12.687,M,,*7B
$GPGGA,085748.00,3030.66690738,N,11424.05725753,E,1,15,0.9,54.751,M,-12.687,M,,*77
$GPGGA,085749.00,3030.66690410,N,11424.05725727,E,1,15,0.9,54.730,M,-12.687,M,,*7B
$GPGGA,085750.00,3030.66690097,N,11424.05725660,E,1,15,0.9,54.717,M,-12.687,M,,*7F
$GPGGA,085751.00,3030.66689780,N,11424.05725364,E,1,15,0.9,54.714,M,-12.687,M,,*75
$GPGGA,085752.00,3030.66689659,N,11424.05725035,E,1,15,0.9,54.698,M,-12.687,M,,*71
$GPGGA,085753.00,3030.66689597,N,11424.05724949,E,1,15,0.9,54.681,M,-12.687,M,,*7A
$GPGGA,085754.00,3030.66689371,N,11424.05724413,E,1,15,0.9,54.658,M,-12.687,M,,*75
$GPGGA,085755.00,3030.66689045,N,11424.05723981,E,1,15,0.9,54.635,M,-12.687,M,,*7A
$GPGGA,085756.00,3030.66688930,N,11424.05723751,E,1,16,0.9,54.616,M,-12.687,M,,*72
$GPGGA,085757.00,3030.66688555,N,11424.05723456,E,1,16,0.9,54.591,M,-12.687,M,,*74
$GPGGA,085758.00,3030.66688277,N,11424.05723059,E,1,16,0.9,54.568,M,-12.687,M,,*71
$GPGGA,085759.00,3030.66687990,N,11424.05722758,E,1,16,0.9,54.536,M,-12.687,M,,*71
$GPGGA,085800.00,3030.66687593,N,11424.05722645,E,1,16,0.9,54.514,M,-12.687,M,,*70
$GPGGA,085801.00,3030.66687233,N,11424.05722095,E,1,16,0.9,54.496,M,-12.687,M,,*7C
$GPGGA,085802.00,3030.66686877,N,11424.05722124,E,1,16,0.9,54.476,M,-12.687,M,,*71
$GPGGA,085803.00,3030.66686667,N,11424.05721934,E,1,16,0.9,54.464,M,-12.687,M,,*76
$GPGGA,085804.00,3030.66686236,N,11424.05721602,E,1,16,0.9,54.440,M,-12.687,M,,*7D
$GPGGA,085805.00,3030.66685862,N,11424.05721825,E,1,16,0.9,54.416,M,-12.687,M,,*7C
$GPGGA,085806.00,3030.66685638,N,11424.05721649,E,1,16,0.9,54.406,M,-12.687,M,,*7B
$GPGGA,085807.00,3030.66685280,N,11424.05721219,E,1,16,0.9,54.392,M,-12.687,M,,*76
$GPGGA,085808.00,3030.66684868,N,11424.05721052,E,1,16,0.9,54.377,M,-12.687,M,,*72
$GPGGA,085809.00,3030.66684363,N,11424.05721258,E,1,17,0.8,54.362,M,-12.687,M,,*7F
$GPGGA,085810.00,3030.66684154,N,11424.05720964,E,1,18,0.7,54.355,M,-12.687,M,,*70
$GPGGA,085811.00,3030.66684128,N,11424.05721035,E,1,17,0.8,54.349,M,-12.687,M,,*7B
$GPGGA,085812.00,3030.66684074,N,11424.05721011,E,1,17,0.8,54.345,M,-12.687,M,,*7A
$GPGGA,085813.00,3030.66683740,N,11424.05720717,E,1,17,0.8,54.328,M,-12.687,M,,*77
$GPGGA,085814.00,3030.66683558,N,11424.05720717,E,1,17,0.8,54.325,M,-12.687,M,,*76
$GPGGA,085815.00,3030.66683330,N,11424.05721011,E,1,16,0.8,54.313,M,-12.687,M,,*7B
$GPGGA,085816.00,3030.66683248,N,11424.05720875,E,1,15,0.9,54.318,M,-12.687,M,,*74
$GPGGA,085817.00,3030.66683110,N,11424.05720817,E,1,15,0.9,54.319,M,-12.687,M,,*7E
$GPGGA,085818.00,3030.66682995,N,11424.05720456,E,1,15,0.9,54.320,M,-12.687,M,,*76
$GPGGA,085819.00,3030.66682739,N,11424.05720306,E,1,15,0.9,54.310,M,-12.687,M,,*7E
$GPGGA,085820.00,3030.66682530,N,11424.05720477,E,1,15,0.9,54.305,M,-12.687,M,,*7A
$GPGGA,085821.00,3030.66682224,N,11424.05720808,E,1,15,0.9,54.298,M,-12.687,M,,*78
$GPGGA,085822.00,3030.66682200,N,11424.05720764,E,1,15,0.9,54.299,M,-12.687,M,,*79
$GPGGA,085823.00,3030.66682061,N,11424.05720686,E,1,15,0.9,54.292,M,-12.687,M,,*7B
$GPGGA,085824.00,3030.66681908,N,11424.05720304,E,1,15,0.9,54.287,M,-12.687,M,,*72
$GPGGA,085825.00,3030.66681685,N,11424.05720139,E,1,15,0.9,54.280,M,-12.687,M,,*72
$GPGGA,085826.00,3030.66681521,N,11424.05720168,E,1,15,0.9,54.279,M,-12.687,M,,*7E
$GPGGA,085827.00,3030.66681518,N,11424.05719667,E,1,15,0.9,54.273,M,-12.687,M,,*7D
$GPGGA,085828.00,3030.66681455,N,11424.05719862,E,1,15,0.9,54.263,M,-12.687,M,,*70
$GPGGA,085829.00,3030.66681402,N,11424.05719759,E,1,15,0.9,54.264,M,-12.687,M,,*73
$GPGGA,085830.00,3030.66681141,N,11424.05719624,E,1,15,0.9,54.262,M,-12.687,M,,*74
$GPGGA,085831.00,3030.66681417,N,11424.05719826,E,1,15,0.9,54.278,M,-12.687,M,,*74
$GPGGA,085832.00,3030.66681586,N,11424.05719888,E,1,15,0.9,54.292,M,-12.687,M,,*7E
$GPGGA,085833.00,3030.66681814,N,11424.05719703,E,1,15,0.9,54.308,M,-12.687,M,,*77
$GPGGA,085834.00,3030.66681771,N,11424.05719919,E,1,15,0.9,54.317,M,-12.687,M,,*77
$GPGGA,085835.00,3030.66681830,N,11424.05719851,E,1,15,0.9,54.328,M,-12.687,M,,*7D
$GPGGA,085836.00,3030.66681897,N,11424.05719818,E,1,15,0.9,54.341,M,-12.687,M,,*71
$GPGGA,085837.00,3030.66682193,N,11424.05719449,E,1,15,0.9,54.357,M,-12.687,M,,*71
$GPGGA,085838.00,3030.66682039,N,11424.05719739,E,1,16,0.9,54.368,M,-12.687,M,,*74
$GPGGA,085839.00,3030.66681769,N,11424.05719707,E,1,16,0.9,54.374,M,-12.687,M,,*74
$GPGGA,085840.00,3030.66681699,N,11424.05719457,E,1,16,0.9,54.385,M,-12.687,M,,*7C
$GPGGA,085841.00,3030.66681566,N,11424.05719368,E,1,16,0.9,54.394,M,-12.687,M,,*75
$GPGGA,085842.00,3030.66681571,N,11424.05719555,E,1,16,0.9,54.400,M,-12.687,M,,*72
$GPGGA,085843.00,3030.66681718,N,11424.05719570,E,1,16,0.9,54.411,M,-12.687,M,,*79
$GPGGA,085844.00,3030.66681804,N,11424.05719409,E,1,16,0.9,54.414,M,-12.687,M,,*76
$GPGGA,085845.00,3030.66681709,N,11424.05719375,E,1,16,0.9,54.422,M,-12.687,M,,*7C
$GPGGA,085846.00,3030.66681865,N,11424.05719294,E,1,16,0.9,54.428,M,-12.687,M,,*7E
$GPGGA,085847.00,3030.66682061,N,11424.05719017,E,1,16,0.9,54.436,M,-12.687,M,,*76
$GPGGA,085848.00,3030.66682235,N,11424.05719172,E,1,16,0.9,54.447,M,-12.687,M,,*7E
$GPGGA,085849.00,3030.66682573,N,11424.05719035,E,1,16,0.9,54.459,M,-12.687,M,,*77
$GPGGA,085850.00,3030.66682500,N,11424.05719058,E,1,16,0.9,54.470,M,-12.687,M,,*7B
$GPGGA,085851.00,3030.66682463,N,11424.05719013,E,1,16,0.9,54.474,M,-12.687,M,,*75
$GPGGA,085852.00,3030.66682527,N,11424.05718976,E,1,16,0.9,54.492,M,-12.687,M,,*74
$GPGGA,085853.00,3030.66682330,N,11424.05719066,E,1,16,0.9,54.493,M,-12.687,M,,*7D
$GPGGA,085854.00,3030.66682040,N,11424.05718985,E,1,16,0.9,54.501,M,-12.687,M,,*71
$GPGGA,085855.00,3030.66681920,N,11424.05719011,E,1,16,0.9,54.501,M,-12.687,M,,*79
$GPGGA,085856.00,3030.66681581,N,11424.05719103,E,1,16,0.9,54.511,M,-12.687,M,,*7E
$GPGGA,085857.00,3030.66681652,N,11424.05719189,E,1,16,0.9,54.522,M,-12.687,M,,*70
$GPGGA,085858.00,3030.66681938,N,11424.05719452,E,1,16,0.9,54.525,M,-12.687,M,,*78
$GPGGA,085859.00,3030.66683669,N,11424.05720179,E,1,16,0.9,54.558,M,-12.687,M,,*7C
$GPGGA,085900.00,3030.66685568,N,11424.05720509,E,1,16,0.9,54.589,M,-12.687,M,,*7A
$GPGGA,085901.00,3030.66686401,N,11424.05720432,E,1,16,0.9,54.604,M,-12.687,M,,*79
$GPGGA,085902.00,3030.66685874,N,11424.05720231,E,1,16,0.9,54.615,M,-12.687,M,,*72
$GPGGA,085903.00,3030.66685495,N,11424.05720082,E,1,16,0.9,54.626,M,-12.687,M,,*7A
$GPGGA,085904.00,3030.66684920,N,11424.05720204,E,1,16,0.9,54.627,M,-12.687,M,,*72
$GPGGA,085905.00,3030.66684362,N,11424.05720150,E,1,16,0.9,54.634,M,-12.687,M,,*7F
$GPGGA,085906.00,3030.66683924,N,11424.05720281,E,1,16,0.9,54.645,M,-12.687,M,,*7A
$GPGGA,085907.00,3030.66683367,N,11424.05720322,E,1,16,0.9,54.643,M,-12.687,M,,*78
$GPGGA,085908.00,3030.66682699,N,11424.05720604,E,1,16,0.9,54.646,M,-12.687,M,,*76
$GPGGA,085909.00,3030.66682341,N,11424.05720829,E,1,16,0.9,54.654,M,-12.687,M,,*75
$GPGGA,085910.00,3030.66681620,N,11424.05720901,E,1,16,0.9,54.672,M,-12.687,M,,*73
$GPGGA,085911.00,3030.66681235,N,11424.05720733,E,1,15,0.9,54.684,M,-12.687,M,,*77
$GPGGA,085912.00,3030.66680505,N,11424.05721547,E,1,15,0.9,54.694,M,-12.687,M,,*70
$GPGGA,085913.00,3030.66680343,N,11424.05721687,E,1,15,0.9,54.708,M,-12.687,M,,*7E
$GPGGA,085914.00,3030.66679750,N,11424.05721685,E,1,15,0.9,54.718,M,-12.687,M,,*7A
$GPGGA,085915.00,3030.66679041,N,11424.05721992,E,1,15,0.9,54.725,M,-12.687,M,,*7B
$GPGGA,085916.00,3030.66678423,N,11424.05722489,E,1,15,0.9,54.731,M,-12.687,M,,*78
$GPGGA,085917.00,3030.66678148,N,11424.05722689,E,1,15,0.9,54.754,M,-12.687,M,,*70
$GPGGA,085918.00,3030.66677719,N,11424.05722928,E,1,15,0.9,54.768,M,-12.687,M,,*79
$GPGGA,085919.00,3030.66677433,N,11424.05723111,E,1,15,0.9,54.794,M,-12.687,M,,*73
$GPGGA,085920.00,3030.66677177,N,11424.05722992,E,1,15,0.9,54.817,M,-12.687,M,,*7A
$GPGGA,085921.00,3030.66676577,N,11424.05722814,E,1,15,0.9,54.841,M,-12.687,M,,*72
$GPGGA,085922.00,3030.66676496,N,11424.05723257,E,1,15,0.9,54.864,M,-12.687,M,,*74
$GPGGA,085923.00,3030.66675980,N,11424.05723345,E,1,15,0.9,54.898,M,-12.687,M,,*7D
$GPGGA,085924.00,3030.66675444,N,11424.05723746,E,1,15,0.9,54.903,M,-12.687,M,,*7B
$GPGGA,085925.00,3030.66674898,N,11424.05724312,E,1,15,0.9,54.934,M,-12.687,M,,*70
$GPGGA,085926.00,3030.66674314,N,11424.05724962,E,1,15,0.9,54.952,M,-12.687,M,,*71
$GPGGA,085927.00,3030.66673842,N,11424.05725545,E,1,15,0.9,54.966,M,-12.687,M,,*70
$GPGGA,085928.00,3030.66673365,N,11424.05725897,E,1,15,0.9,54.980,M,-12.687,M,,*7B
$GPGGA,085929.00,3030.66673330,N,11424.05726306,E,1,15,0.9,54.989,M,-12.687,M,,*73
$GPGGA,085930.00,3030.66672674,N,11424.05726895,E,1,15,0.9,55.017,M,-12.687,M,,*71
$GPGGA,085931.00,3030.66672201,N,11424.05727272,E,1,15,0.9,55.039,M,-12.687,M,,*78
$GPGGA,085932.00,3030.66672396,N,11424.05727561,E,1,15,0.9,55.048,M,-12.687,M,,*77
$GPGGA,085933.00,3030.66672221,N,11424.05727689,E,1,15,0.9,55.071,M,-12.687,M,,*74
$GPGGA,085934.00,3030.66671663,N,11424.05728164,E,1,15,0.9,55.099,M,-12.687,M,,*7F
$GPGGA,085935.00,3030.66670927,N,11424.05728732,E,1,15,0.9,55.134,M,-12.687,M,,*73
$GPGGA,085936.00,3030.66670124,N,11424.05729395,E,1,15,0.9,55.193,M,-12.687,M,,*7E
$GPGGA,085937.00,3030.66669390,N,11424.05730326,E,1,15,0.9,55.239,M,-12.687,M,,*79
$GPGGA,085938.00,3030.66668651,N,11424.05730811,E,1,15,0.9,55.271,M,-12.687,M,,*7C
$GPGGA,085939.00,3030.66668360,N,11424.05731385,E,1,15,0.9,55.308,M,-12.687,M,,*72
$GPGGA,085940.00,3030.66667892,N,11424.05731602,E,1,15,0.9,55.329,M,-12.687,M,,*7C
$GPGGA,085941.00,3030.66667704,N,11424.05731859,E,1,15,0.9,55.354,M,-12.687,M,,*77
$GPGGA,085942.00,3030.66667832,N,11424.05732133,E,1,15,0.9,55.353,M,-12.687,M,,*7F
$GPGGA,085943.00,3030.66667572,N,11424.05732710,E,1,15,0.9,55.384,M,-12.687,M,,*7A
$GPGGA,085944.00,3030.66667147,N,11424.05733446,E,1,16,0.9,55.413,M,-12.687,M,,*74
$GPGGA,085945.00,3030.66666669,N,11424.05733884,E,1,17,0.8,55.433,M,-12.687,M,,*7F
$GPGGA,085946.00,3030.66666238,N,11424.05734101,E,1,17,0.8,55.449,M,-12.687,M,,*72
$GPGGA,085947.00,3030.66666389,N,11424.05734328,E,1,17,0.8,55.452,M,-12.687,M,,*7B
$GPGGA,085948.00,3030.66666192,N,11424.05734636,E,1,16,0.9,55.436,M,-12.687,M,,*74
$GPGGA,085949.00,3030.66666024,N,11424.05734742,E,1,16,0.9,55.428,M,-12.687,M,,*74
$GPGGA,085950.00,3030.66665847,N,11424.05734845,E,1,15,0.9,55.432,M,-12.687,M,,*72
$GPGGA,085951.00,3030.66666063,N,11424.05735081,E,1,15,0.9,55.435,M,-12.687,M,,*78
$GPGGA,085952.00,3030.66667242,N,11424.05735963,E,1,15,0.9,55.449,M,-12.687,M,,*75
$GPGGA,085953.00,3030.66667744,N,11424.05737010,E,1,15,0.9,55.474,M,-12.687,M,,*76
$GPGGA,085954.00,3030.66668084,N,11424.05737762,E,1,15,0.9,55.503,M,-12.687,M,,*76
$GPGGA,085955.00,3030.66668513,N,11424.05738318,E,1,15,0.9,55.518,M,-12.687,M,,*70
$GPGGA,085956.00,3030.66668795,N,11424.05739308,E,1,15,0.9,55.541,M,-12.687,M,,*73
$GPGGA,085957.00,3030.66669317,N,11424.05739975,E,1,16,0.8,55.552,M,-12.687,M,,*7D
$GPGGA,085958.00,3030.66669766,N,11424.05740910,E,1,16,0.8,55.542,M,-12.687,M,,*7C
$GPGGA,085959.00,3030.66670279,N,11424.05741866,E,1,16,0.8,55.539,M,-12.687,M,,*73
$GPGGA,090000.00,3030.66670558,N,11424.05742804,E,1,16,0.8,55.523,M,-12.687,M,,*7A
$GPGGA,090001.00,3030.66670847,N,11424.05743541,E,1,16,0.8,55.512,M,-12.687,M,,*77
$GPGGA,090002.00,3030.66671389,N,11424.05744529,E,1,16,0.8,55.491,M,-12.687,M,,*7F
$GPGGA,090003.00,3030.66671718,N,11424.05744805,E,1,16,0.8,55.487,M,-12.687,M,,*76
$GPGGA,090004.00,3030.66671880,N,11424.05745486,E,1,16,0.8,55.474,M,-12.687,M,,*75
$GPGGA,090005.00,3030.66672118,N,11424.05746674,E,1,16,0.8,55.451,M,-12.687,M,,*74
$GPGGA,090006.00,3030.66672130,N,11424.05748044,E,1,16,0.8,55.421,M,-12.687,M,,*71
$GPGGA,090007.00,3030.66672443,N,11424.05749129,E,1,16,0.8,55.403,M,-12.687,M,,*7A
$GPGGA,090008.00,3030.66672710,N,11424.05750760,E,1,16,0.8,55.377,M,-12.687,M,,*77
$GPGGA,090009.00,3030.66672860,N,11424.05752211,E,1,16,0.8,55.357,M,-12.687,M,,*7D
$GPGGA,090010.00,3030.66673130,N,11424.05753617,E,1,16,0.8,55.337,M,-12.687,M,,*7D
$GPGGA,090011.00,3030.66673545,N,11424.05754937,E,1,16,0.8,55.313,M,-12.687,M,,*76
$GPGGA,090012.00,3030.66674082,N,11424.05756868,E,1,16,0.8,55.272,M,-12.687,M,,*73
$GPGGA,090013.00,3030.66674355,N,11424.05757908,E,1,16,0.8,55.246,M,-12.687,M,,*7A
$GPGGA,090014.00,3030.66674620,N,11424.05758199,E,1,16,0.8,55.232,M,-12.687,M,,*76
$GPGGA,090015.00,3030.66676888,N,11424.05756132,E,1,16,0.8,55.300,M,-12.687,M,,*76
$GPGGA,090016.00,3030.66679189,N,11424.05753087,E,1,16,0.8,55.386,M,-12.687,M,,*76
$GPGGA,090017.00,3030.66681221,N,11424.05750670,E,1,16,0.8,55.455,M,-12.687,M,,*75
$GPGGA,090018.00,3030.66683025,N,11424.05747340,E,1,16,0.8,55.532,M,-12.687,M,,*7E
$GPGGA,090019.00,3030.66684587,N,11424.05743310,E,1,16,0.8,55.610,M,-12.687,M,,*77
$GPGGA,090020.00,3030.66685850,N,11424.05740451,E,1,16,0.8,55.663,M,-12.687,M,,*7E
$GPGGA,090021.00,3030.66687293,N,11424.05739663,E,1,16,0.8,55.684,M,-12.687,M,,*7C
$GPGGA,090022.00,3030.66688641,N,11424.05737719,E,1,16,0.8,55.721,M,-12.687,M,,*77
$GPGGA,090023.00,3030.66689722,N,11424.05735822,E,1,16,0.8,55.760,M,-12.687,M,,*73
$GPGGA,090024.00,3030.66690740,N,11424.05733227,E,1,16,0.8,55.801,M,-12.687,M,,*79
$GPGGA,090025.00,3030.66691442,N,11424.05730761,E,1,16,0.8,55.839,M,-12.687,M,,*77
$GPGGA,090026.00,3030.66692413,N,11424.05729781,E,1,16,0.8,55.858,M,-12.687,M,,*72
$GPGGA,090027.00,3030.66693110,N,11424.05728922,E,1,16,0.8,55.876,M,-12.687,M,,*7E
$GPGGA,090028.00,3030.66693511,N,11424.05727341,E,1,16,0.8,55.900,M,-12.687,M,,*74
$GPGGA,090029.00,3030.66694017,N,11424.05726142,E,1,16,0.8,55.918,M,-12.687,M,,*78
$GPGGA,090030.00,3030.66694737,N,11424.05725236,E,1,16,0.8,55.934,M,-12.687,M,,*78
$GPGGA,090031.00,3030.66695483,N,11424.05724866,E,1,16,0.8,55.946,M,-12.687,M,,*7F
$GPGGA,090032.00,3030.66696266,N,11424.05723999,E,1,16,0.8,55.953,M,-12.687,M,,*70
$GPGGA,090033.00,3030.66696428,N,11424.05723278,E,1,16,0.8,55.961,M,-12.687,M,,*78
$GPGGA,090034.00,3030.66696761,N,11424.05722563,E,1,16,0.8,55.966,M,-12.687,M,,*7A
$GPGGA,090035.00,3030.66697015,N,11424.05721840,E,1,16,0.8,55.965,M,-12.687,M,,*72
$GPGGA,090036.00,3030.66697704,N,11424.05722008,E,1,16,0.8,55.964,M,-12.687,M,,*70
$GPGGA,090037.00,3030.66698006,N,11424.05722118,E,1,17,0.8,55.964,M,-12.687,M,,*7A
$GPGGA,090038.00,3030.66698255,N,11424.05721893,E,1,17,0.8,55.964,M,-12.687,M,,*78
$GPGGA,090039.00,3030.66698319,N,11424.05722208,E,1,17,0.8,55.958,M,-12.687,M,,*74
$GPGGA,090040.00,3030.66698392,N,11424.05722410,E,1,17,0.8,55.959,M,-12.687,M,,*77
$GPGGA,090041.00,3030.66698510,N,11424.05722362,E,1,17,0.8,55.953,M,-12.687,M,,*72
$GPGGA,090042.00,3030.66698650,N,11424.05723069,E,1,18,0.8,55.943,M,-12.687,M,,*71
$GPGGA,090043.00,3030.66698714,N,11424.05723158,E,1,18,0.8,55.948,M,-12.687,M,,*79
$GPGGA,090044.00,3030.66698889,N,11424.05723374,E,1,18,0.8,55.946,M,-12.687,M,,*77
$GPGGA,090045.00,3030.66699200,N,11424.05723716,E,1,18,0.8,55.941,M,-12.687,M,,*7B
$GPGGA,090046.00,3030.66699639,N,11424.05724271,E,1,18,0.8,55.928,M,-12.687,M,,*7A
$GPGGA,090047.00,3030.66699997,N,11424.05725080,E,1,18,0.8,55.921,M,-12.687,M,,*74
$GPGGA,090048.00,3030.66700080,N,11424.05725870,E,1,18,0.8,55.912,M,-12.687,M,,*72
$GPGGA,090049.00,3030.66700440,N,11424.05727771,E,1,18,0.8,55.899,M,-12.687,M,,*75
$GPGGA,090050.00,3030.66700874,N,11424.05728775,E,1,18,0.8,55.888,M,-12.687,M,,*7D
$GPGGA,090051.00,3030.66701121,N,11424.05729899,E,1,18,0.8,55.879,M,-12.687,M,,*76
$GPGGA,090052.00,3030.66701491,N,11424.05731779,E,1,18,0.8,55.864,M,-12.687,M,,*7F
$GPGGA,090053.00,3030.66701658,N,11424.05732732,E,1,18,0.8,55.859,M,-12.687,M,,*7B
$GPGGA,090054.00,3030.66701849,N,11424.05733747,E,1,18,0.8,55.851,M,-12.687,M,,*79
$GPGGA,090055.00,3030.66701928,N,11424.05735570,E,1,18,0.8,55.834,M,-12.687,M,,*7D
$GPGGA,090056.00,3030.66702144,N,11424.05736708,E,1,18,0.8,55.820,M,-12.687,M,,*74
$GPGGA,090057.00,3030.66702304,N,11424.05738162,E,1,18,0.8,55.804,M,-12.687,M,,*71
$GPGGA,090058.00,3030.66702510,N,11424.05738980,E,1,18,0.8,55.798,M,-12.687,M,,*73
$GPGGA,090059.00,3030.66702449,N,11424.05739621,E,1,18,0.8,55.790,M,-12.687,M,,*72
$GPGGA,090100.00,3030.66702366,N,11424.05740517,E,1,18,0.8,55.782,M,-12.687,M,,*7E
$GPGGA,090101.00,3030.66702520,N,11424.05741353,E,1,17,0.8,55.773,M,-12.687,M,,*7D
$GPGGA,090102.00,3030.66702901,N,11424.05742647,E,1,17,0.8,55.764,M,-12.687,M,,*74
$GPGGA,090103.00,3030.66702923,N,11424.05743396,E,1,17,0.8,55.756,M,-12.687,M,,*7C
$GPGGA,090104.00,3030.66702944,N,11424.05743999,E,1,17,0.8,55.755,M,-12.687,M,,*7C
$GPGGA,090105.00,3030.66703224,N,11424.05744288,E,1,17,0.8,55.752,M,-12.687,M,,*7A
$GPGGA,090106.00,3030.66703268,N,11424.05744875,E,1,17,0.8,55.745,M,-12.687,M,,*7F
$GPGGA,090107.00,3030.66703489,N,11424.05745899,E,1,17,0.8,55.748,M,-12.687,M,,*79
$GPGGA,090108.00,3030.66703542,N,11424.05746558,E,1,17,0.8,55.761,M,-12.687,M,,*78
$GPGGA,090109.00,3030.66703687,N,11424.05747460,E,1,17,0.8,55.775,M,-12.687,M,,*7D
$GPGGA,090110.00,3030.66703881,N,11424.05748027,E,1,17,0.8,55.788,M,-12.687,M,,*77
$GPGGA,090111.00,3030.66704159,N,11424.05748704,E,1,17,0.8,55.804,M,-12.687,M,,*70
$GPGGA,090112.00,3030.66704631,N,11424.05749905,E,1,16,0.8,55.805,M,-12.687,M,,*74
$GPGGA,090113.00,3030.66704991,N,11424.05750226,E,1,16,0.8,55.822,M,-12.687,M,,*77
$GPGGA,090114.00,3030.66704969,N,11424.05751611,E,1,16,0.8,55.817,M,-12.687,M,,*70
$GPGGA,090115.00,3030.66704991,N,11424.05753055,E,1,16,0.8,55.824,M,-12.687,M,,*72
$GPGGA,090116.00,3030.66705049,N,11424.05753154,E,1,16,0.8,55.834,M,-12.687,M,,*7D
$GPGGA,090117.00,3030.66705083,N,11424.05753407,E,1,16,0.8,55.840,M,-12.687,M,,*7A
$GPGGA,090118.00,3030.66705166,N,11424.05753131,E,1,16,0.8,55.866,M,-12.687,M,,*7B
$GPGGA,090119.00,3030.66705405,N,11424.05752409,E,1,16,0.8,55.879,M,-12.687,M,,*7B
$GPGGA,090120.00,3030.66705666,N,11424.05752143,E,1,17,0.8,55.887,M,-12.687,M,,*7D
$GPGGA,090121.00,3030.66705644,N,11424.05752734,E,1,17,0.8,55.887,M,-12.687,M,,*7A
$GPGGA,090122.00,3030.66705976,N,11424.05752627,E,1,17,0.8,55.896,M,-12.687,M,,*74
$GPGGA,090123.00,3030.66706406,N,11424.05752615,E,1,17,0.8,55.898,M,-12.687,M,,*73
$GPGGA,090124.00,3030.66706835,N,11424.05752994,E,1,17,0.8,55.893,M,-12.687,M,,*75
$GPGGA,090125.00,3030.66706991,N,11424.05753398,E,1,17,0.8,55.895,M,-12.687,M,,*7A
$GPGGA,090126.00,3030.66707335,N,11424.05753926,E,1,17,0.8,55.891,M,-12.687,M,,*77
$GPGGA,090127.00,3030.66707549,N,11424.05753943,E,1,17,0.8,55.891,M,-12.687,M,,*78
$GPGGA,090128.00,3030.66707731,N,11424.05755131,E,1,17,0.8,55.878,M,-12.687,M,,*76
$GPGGA,090129.00,3030.66707935,N,11424.05755131,E,1,17,0.8,55.878,M,-12.687,M,,*7D
$GPGGA,090130.00,3030.66708213,N,11424.05755389,E,1,17,0.8,55.873,M,-12.687,M,,*7F
$GPGGA,090131.00,3030.66708240,N,11424.05755905,E,1,17,0.8,55.862,M,-12.687,M,,*76
$GPGGA,090132.00,3030.66708414,N,11424.05756153,E,1,17,0.8,55.864,M,-12.687,M,,*7C
$GPGGA,090133.00,3030.66708468,N,11424.05756007,E,1,17,0.8,55.871,M,-12.687,M,,*72
$GPGGA,090134.00,3030.66708600,N,11424.05755242,E,1,17,0.8,55.884,M,-12.687,M,,*73
$GPGGA,090135.00,3030.66708533,N,11424.05753929,E,1,17,0.8,55.900,M,-12.687,M,,*7C
$GPGGA,090136.00,3030.66708420,N,11424.05752597,E,1,17,0.8,55.914,M,-12.687,M,,*71
$GPGGA,090137.00,3030.66708532,N,11424.05750843,E,1,17,0.8,55.926,M,-12.687,M,,*75
$GPGGA,090138.00,3030.66708594,N,11424.05749637,E,1,17,0.8,55.927,M,-12.687,M,,*72
$GPGGA,090139.00,3030.66708543,N,11424.05748154,E,1,18,0.8,55.929,M,-12.687,M,,*7B
$GPGGA,090140.00,3030.66708442,N,11424.05746271,E,1,18,0.8,55.933,M,-12.687,M,,*74
$GPGGA,090141.00,3030.66708199,N,11424.05744663,E,1,18,0.8,55.940,M,-12.687,M,,*77
$GPGGA,090142.00,3030.66708179,N,11424.05743127,E,1,17,0.8,55.953,M,-12.687,M,,*77
$GPGGA,090143.00,3030.66708025,N,11424.05741409,E,1,17,0.8,55.964,M,-12.687,M,,*71
$GPGGA,090144.00,3030.66708014,N,11424.05739585,E,1,17,0.8,55.978,M,-12.687,M,,*73
$GPGGA,090145.00,3030.66708068,N,11424.05737235,E,1,17,0.8,56.000,M,-12.687,M,,*7E
$GPGGA,090146.00,3030.66707957,N,11424.05735238,E,1,17,0.8,56.014,M,-12.687,M,,*7D
$GPGGA,090147.00,3030.66707885,N,11424.05733340,E,1,16,0.8,56.024,M,-12.687,M,,*78
$GPGGA,090148.00,3030.66707919,N,11424.05731419,E,1,16,0.8,56.036,M,-12.687,M,,*79
$GPGGA,090149.00,3030.66707963,N,11424.05729298,E,1,16,0.8,56.044,M,-12.687,M,,*76
$GPGGA,090150.00,3030.66708058,N,11424.05727107,E,1,16,0.8,56.056,M,-12.687,M,,*78
$GPGGA,090151.00,3030.66708292,N,11424.05725110,E,1,16,0.8,56.068,M,-12.687,M,,*74
$GPGGA,090152.00,3030.66708394,N,11424.05723205,E,1,16,0.8,56.076,M,-12.687,M,,*7E
$GPGGA,090153.00,3030.66708308,N,11424.05721585,E,1,16,0.8,56.078,M,-12.687,M,,*79
$GPGGA,090154.00,3030.66708163,N,11424.05719720,E,1,16,0.8,56.090,M,-12.687,M,,*71
$GPGGA,090155.00,3030.66708248,N,11424.05717630,E,1,16,0.8,56.099,M,-12.687,M,,*7D
$GPGGA,090156.00,3030.66708093,N,11424.05715517,E,1,16,0.8,56.104,M,-12.687,M,,*7B
$GPGGA,090157.00,3030.66708317,N,11424.05713950,E,1,16,0.8,56.095,M,-12.687,M,,*75
$GPGGA,090158.00,3030.66709112,N,11424.05712470,E,1,16,0.8,56.103,M,-12.687,M,,*7C
$GPGGA,090159.00,3030.66709568,N,11424.05710839,E,1,16,0.8,56.115,M,-12.687,M,,*70
$GPGGA,090200.00,3030.66709303,N,11424.05709012,E,1,16,0.8,56.130,M,-12.687,M,,*7A
$GPGGA,090201.00,3030.66709017,N,11424.05707261,E,1,16,0.8,56.142,M,-12.687,M,,*70
$GPGGA,090202.00,3030.66708790,N,11424.05705973,E,1,16,0.8,56.151,M,-12.687,M,,*72
$GPGGA,090203.00,3030.66708725,N,11424.05704305,E,1,16,0.8,56.170,M,-12.687,M,,*74
$GPGGA,090204.00,3030.66708656,N,11424.05703062,E,1,16,0.8,56.188,M,-12.687,M,,*74
$GPGGA,090205.00,3030.66708883,N,11424.05701729,E,1,16,0.8,56.212,M,-12.687,M,,*79
$GPGGA,090206.00,3030.66708868,N,11424.05700317,E,1,16,0.8,56.223,M,-12.687,M,,*75
$GPGGA,090207.00,3030.66708936,N,11424.05698898,E,1,16,0.8,56.241,M,-12.687,M,,*76
$GPGGA,090208.00,3030.66708997,N,11424.05697421,E,1,16,0.8,56.260,M,-12.687,M,,*70
$GPGGA,090209.00,3030.66708984,N,11424.05696296,E,1,16,0.8,56.269,M,-12.687,M,,*71
$GPGGA,090210.00,3030.66708857,N,11424.05695275,E,1,16,0.8,56.279,M,-12.687,M,,*79
$GPGGA,090211.00,3030.66708827,N,11424.05693903,E,1,16,0.8,56.293,M,-12.687,M,,*77
$GPGGA,090212.00,3030.66709214,N,11424.05692966,E,1,16,0.8,56.311,M,-12.687,M,,*76
$GPGGA,090213.00,3030.66709169,N,11424.05692166,E,1,16,0.8,56.320,M,-12.687,M,,*74
$GPGGA,090214.00,3030.66708967,N,11424.05691366,E,1,16,0.8,56.326,M,-12.687,M,,*73
$GPGGA,090215.00,3030.66708707,N,11424.05690304,E,1,16,0.8,56.327,M,-12.687,M,,*7E
$GPGGA,090216.00,3030.66708477,N,11424.05689171,E,1,16,0.8,56.333,M,-12.687,M,,*74
$GPGGA,090217.00,3030.66707916,N,11424.05688324,E,1,16,0.8,56.342,M,-12.687,M,,*75
$GPGGA,090218.00,3030.66707737,N,11424.05687272,E,1,16,0.8,56.347,M,-12.687,M,,*7F
$GPGGA,090219.00,3030.66707702,N,11424.05686370,E,1,16,0.8,56.349,M,-12.687,M,,*74
$GPGGA,090220.00,3030.66707325,N,11424.05685481,E,1,16,0.8,56.358,M,-12.687,M,,*75
$GPGGA,090221.00,3030.66707233,N,11424.05684498,E,1,16,0.8,56.378,M,-12.687,M,,*79
$GPGGA,090222.00,3030.66707132,N,11424.05683723,E,1,16,0.8,56.390,M,-12.687,M,,*7A
$GPGGA,090223.00,3030.66706891,N,11424.05682805,E,1,16,0.8,56.389,M,-12.687,M,,*78
$GPGGA,090224.00,3030.66706631,N,11424.05681781,E,1,16,0.8,56.402,M,-12.687,M,,*7F
$GPGGA,090225.00,3030.66706419,N,11424.05680876,E,1,17,0.8,56.416,M,-12.687,M,,*74
$GPGGA,090226.00,3030.66706391,N,11424.05679800,E,1,17,0.8,56.433,M,-12.687,M,,*70
$GPGGA,090227.00,3030.66706273,N,11424.05678963,E,1,17,0.8,56.449,M,-12.687,M,,*74
$GPGGA,090228.00,3030.66706227,N,11424.05678031,E,1,17,0.8,56.462,M,-12.687,M,,*7D
$GPGGA,090229.00,3030.66705828,N,11424.05676973,E,1,17,0.8,56.473,M,-12.687,M,,*7B
$GPGGA,090230.00,3030.66705590,N,11424.05676171,E,1,17,0.8,56.482,M,-12.687,M,,*79
$GPGGA,090231.00,3030.66705515,N,11424.05675228,E,1,17,0.8,56.484,M,-12.687,M,,*7F
$GPGGA,090232.00,3030.66705234,N,11424.05674477,E,1,17,0.8,56.490,M,-12.687,M,,*70
$GPGGA,090233.00,3030.66704714,N,11424.05673647,E,1,17,0.8,56.500,M,-12.687,M,,*79
$GPGGA,090234.00,3030.66704168,N,11424.05672735,E,1,17,0.8,56.501,M,-12.687,M,,*77
$GPGGA,090235.00,3030.66703793,N,11424.05671841,E,1,17,0.8,56.509,M,-12.687,M,,*74
$GPGGA,090236.00,3030.66703176,N,11424.05671223,E,1,17,0.8,56.522,M,-12.687,M,,*7D
$GPGGA,090237.00,3030.66702638,N,11424.05670511,E,1,17,0.8,56.539,M,-12.687,M,,*7D
$GPGGA,090238.00,3030.66702392,N,11424.05669726,E,1,17,0.8,56.553,M,-12.687,M,,*75
$GPGGA,090239.00,3030.66702093,N,11424.05668948,E,1,17,0.8,56.560,M,-12.687,M,,*71
$GPGGA,090240.00,3030.66701583,N,11424.05668407,E,1,17,0.8,56.559,M,-12.687,M,,*74
$GPGGA,090241.00,3030.66701196,N,11424.05667580,E,1,17,0.8,56.554,M,-12.687,M,,*79
$GPGGA,090242.00,3030.66701026,N,11424.05667000,E,1,17,0.8,56.548,M,-12.687,M,,*70
$GPGGA,090243.00,3030.66700895,N,11424.05666133,E,1,17,0.8,56.536,M,-12.687,M,,*79
$GPGGA,090244.00,3030.66700518,N,11424.05665653,E,1,17,0.8,56.526,M,-12.687,M,,*75
$GPGGA,090245.00,3030.66700498,N,11424.05665267,E,1,17,0.8,56.519,M,-12.687,M,,*72
$GPGGA,090246.00,3030.66700582,N,11424.05664665,E,1,17,0.8,56.518,M,-12.687,M,,*7D
$GPGGA,090247.00,3030.66700450,N,11424.05664438,E,1,17,0.8,56.516,M,-12.687,M,,*76
$GPGGA,090248.00,3030.66700281,N,11424.05664022,E,1,17,0.8,56.517,M,-12.687,M,,*7D
$GPGGA,090249.00,3030.66699768,N,11424.05663563,E,1,17,0.8,56.515,M,-12.687,M,,*7A
$GPGGA,090250.00,3030.66699689,N,11424.05662918,E,1,17,0.8,56.520,M,-12.687,M,,*7B
$GPGGA,090251.00,3030.66699957,N,11424.05662554,E,1,17,0.8,56.537,M,-12.687,M,,*74
$GPGGA,090252.00,3030.66700332,N,11424.05662189,E,1,17,0.8,56.533,M,-12.687,M,,*7F
$GPGGA,090253.00,3030.66700102,N,11424.05662063,E,1,17,0.8,56.516,M,-12.687,M,,*7D
$GPGGA,090254.00,3030.66700248,N,11424.05661812,E,1,17,0.8,56.508,M,-12.687,M,,*75
$GPGGA,090255.00,3030.66700482,N,11424.05661549,E,1,17,0.8,56.507,M,-12.687,M,,*78
$GPGGA,090256.00,3030.66700317,N,11424.05661642,E,1,16,0.8,56.491,M,-12.687,M,,*77
$GPGGA,090257.00,3030.66700294,N,11424.05661607,E,1,16,0.8,56.477,M,-12.687,M,,*75
$GPGGA,090258.00,3030.66700511,N,11424.05661477,E,1,16,0.8,56.469,M,-12.687,M,,*7A
$GPGGA,090259.00,3030.66700560,N,11424.05661439,E,1,17,0.8,56.464,M,-12.687,M,,*7B
$GPGGA,090300.00,3030.66700724,N,11424.05661498,E,1,17,0.8,56.469,M,-12.687,M,,*72
$GPGGA,090301.00,3030.66700990,N,11424.05661434,E,1,17,0.8,56.459,M,-12.687,M,,*77
$GPGGA,090302.00,3030.66701338,N,11424.05661659,E,1,17,0.8,56.439,M,-12.687,M,,*72
$GPGGA,090303.00,3030.66701417,N,11424.05661756,E,1,17,0.8,56.428,M,-12.687,M,,*77
$GPGGA,090304.00,3030.66701610,N,11424.05661809,E,1,17,0.8,56.421,M,-12.687,M,,*79
$GPGGA,090305.00,3030.66701815,N,11424.05661831,E,1,17,0.8,56.406,M,-12.687,M,,*7D
$GPGGA,090306.00,3030.66701957,N,11424.05662054,E,1,17,0.8,56.396,M,-12.687,M,,*7F
$GPGGA,090307.00,3030.66701997,N,11424.05662024,E,1,17,0.8,56.384,M,-12.687,M,,*76
$GPGGA,090308.00,3030.66702185,N,11424.05662144,E,1,17,0.8,56.390,M,-12.687,M,,*73
$GPGGA,090309.00,3030.66701972,N,11424.05662366,E,1,17,0.8,56.384,M,-12.687,M,,*76
$GPGGA,090310.00,3030.66701724,N,11424.05662636,E,1,17,0.8,56.401,M,-12.687,M,,*79
$GPGGA,090311.00,3030.66701585,N,11424.05662799,E,1,17,0.8,56.410,M,-12.687,M,,*75
$GPGGA,090312.00,3030.66701896,N,11424.05663047,E,1,17,0.8,56.424,M,-12.687,M,,*7B
$GPGGA,090313.00,3030.66701794,N,11424.05663558,E,1,17,0.8,56.426,M,-12.687,M,,*7E
$GPGGA,090314.00,3030.66701655,N,11424.05663682,E,1,17,0.8,56.430,M,-12.687,M,,*76
$GPGGA,090315.00,3030.66701479,N,11424.05663882,E,1,17,0.8,56.432,M,-12.687,M,,*77
$GPGGA,090316.00,3030.66701132,N,11424.05664067,E,1,17,0.8,56.432,M,-12.687,M,,*7A
$GPGGA,090317.00,3030.66700979,N,11424.05664407,E,1,17,0.8,56.414,M,-12.687,M,,*7B
$GPGGA,090318.00,3030.66701004,N,11424.05664835,E,1,17,0.8,56.391,M,-12.687,M,,*71
$GPGGA,090319.00,3030.66701080,N,11424.05664930,E,1,17,0.8,56.395,M,-12.687,M,,*7C
$GPGGA,090320.00,3030.66701124,N,11424.05665180,E,1,17,0.8,56.388,M,-12.687,M,,*77
$GPGGA,090321.00,3030.66701600,N,11424.05665384,E,1,17,0.8,56.384,M,-12.687,M,,*7D
$GPGGA,090322.00,3030.66701792,N,11424.05665660,E,1,17,0.8,56.384,M,-12.687,M,,*7B
$GPGGA,090323.00,3030.66701679,N,11424.05666011,E,1,17,0.8,56.384,M,-12.687,M,,*7D
$GPGGA,090324.00,3030.66701476,N,11424.05666205,E,1,17,0.8,56.383,M,-12.687,M,,*77
$GPGGA,090325.00,3030.66701320,N,11424.05666613,E,1,17,0.8,56.385,M,-12.687,M,,*77
$GPGGA,090326.00,3030.66701480,N,11424.05666798,E,1,17,0.8,56.388,M,-12.687,M,,*76
$GPGGA,090327.00,3030.66701849,N,11424.05666963,E,1,17,0.8,56.387,M,-12.687,M,,*7B
$GPGGA,090328.00,3030.66702302,N,11424.05667129,E,1,17,0.8,56.377,M,-12.687,M,,*7B
$GPGGA,090329.00,3030.66702525,N,11424.05667358,E,1,17,0.8,56.369,M,-12.687,M,,*72
$GPGGA,090330.00,3030.66702939,N,11424.05667376,E,1,17,0.8,56.349,M,-12.687,M,,*75
$GPGGA,090331.00,3030.66703479,N,11424.05667514,E,1,17,0.8,56.339,M,-12.687,M,,*79
$GPGGA,090332.00,3030.66703853,N,11424.05667493,E,1,17,0.8,56.324,M,-12.687,M,,*7C
$GPGGA,090333.00,3030.66704078,N,11424.05667731,E,1,17,0.8,56.315,M,-12.687,M,,*72
$GPGGA,090334.00,3030.66704956,N,11424.05668122,E,1,17,0.8,56.353,M,-12.687,M,,*79
$GPGGA,090335.00,3030.66706033,N,11424.05668565,E,1,17,0.8,56.398,M,-12.687,M,,*70
$GPGGA,090336.00,3030.66706927,N,11424.05669075,E,1,17,0.8,56.442,M,-12.687,M,,*7A
$GPGGA,090337.00,3030.66707838,N,11424.05669409,E,1,16,0.9,56.482,M,-12.687,M,,*76
$GPGGA,090338.00,3030.66708293,N,11424.05670044,E,1,16,0.9,56.519,M,-12.687,M,,*7B
$GPGGA,090339.00,3030.66708707,N,11424.05670541,E,1,16,0.9,56.553,M,-12.687,M,,*7C
$GPGGA,090340.00,3030.66709122,N,11424.05670858,E,1,16,0.9,56.598,M,-12.687,M,,*70
$GPGGA,090341.00,3030.66709425,N,11424.05671290,E,1,16,0.9,56.623,M,-12.687,M,,*7F
$GPGGA,090342.00,3030.66709825,N,11424.05671738,E,1,16,0.9,56.650,M,-12.687,M,,*73
$GPGGA,090343.00,3030.66710422,N,11424.05672144,E,1,16,0.9,56.679,M,-12.687,M,,*74
$GPGGA,090344.00,3030.66711145,N,11424.05672415,E,1,16,0.9,56.691,M,-12.687,M,,*71
$GPGGA,090345.00,3030.66711565,N,11424.05672818,E,1,16,0.9,56.700,M,-12.687,M,,*7E
$GPGGA,090346.00,3030.66711900,N,11424.05673152,E,1,16,0.9,56.704,M,-12.687,M,,*70
$GPGGA,090347.00,3030.66712527,N,11424.05673395,E,1,16,0.9,56.712,M,-12.687,M,,*75
$GPGGA,090348.00,3030.66712810,N,11424.05673589,E,1,16,0.9,56.715,M,-12.687,M,,*7F
$GPGGA,090349.00,3030.66713233,N,11424.05674026,E,1,16,0.9,56.717,M,-12.687,M,,*71
$GPGGA,090350.00,3030.66713645,N,11424.05674205,E,1,16,0.9,56.716,M,-12.687,M,,*7E
$GPGGA,090351.00,3030.66713947,N,11424.05674924,E,1,16,0.9,56.718,M,-12.687,M,,*74
$GPGGA,090352.00,3030.66714447,N,11424.05675306,E,1,16,0.9,56.714,M,-12.687,M,,*7A
$GPGGA,090353.00,3030.66714639,N,11424.05675386,E,1,16,0.9,56.717,M,-12.687,M,,*7B
$GPGGA,090354.00,3030.66714974,N,11424.05675749,E,1,15,0.9,56.714,M,-12.687,M,,*7D
$GPGGA,090355.00,3030.66715046,N,11424.05676052,E,1,15,0.9,56.708,M,-12.687,M,,*76
$GPGGA,090356.00,3030.66715303,N,11424.05676551,E,1,15,0.9,56.704,M,-12.687,M,,*7D
$GPGGA,090357.00,3030.66715644,N,11424.05676728,E,1,15,0.9,56.684,M,-12.687,M,,*7F
$GPGGA,090358.00,3030.66715815,N,11424.05677148,E,1,15,0.9,56.657,M,-12.687,M,,*75
$GPGGA,090359.00,3030.66715894,N,11424.05677589,E,1,15,0.9,56.632,M,-12.687,M,,*77
$GPGGA,090400.00,3030.66716080,N,11424.05677921,E,1,15,0.9,56.613,M,-12.687,M,,*7F
$GPGGA,090401.00,3030.66716414,N,11424.05678583,E,1,15,0.9,56.584,M,-12.687,M,,*71
$GPGGA,090402.00,3030.66716694,N,11424.05679605,E,1,15,0.9,56.551,M,-12.687,M,,*7C
$GPGGA,090403.00,3030.66716529,N,11424.05679945,E,1,15,0.9,56.535,M,-12.687,M,,*71
$GPGGA,090404.00,3030.66716644,N,11424.05679892,E,1,15,0.9,56.523,M,-12.687,M,,*72
$GPGGA,090405.00,3030.66716554,N,11424.05679837,E,1,15,0.9,56.508,M,-12.687,M,,*77
$GPGGA,090406.00,3030.66716564,N,11424.05679555,E,1,15,0.9,56.504,M,-12.687,M,,*72
$GPGGA,090407.00,3030.66716078,N,11424.05679302,E,1,15,0.9,56.492,M,-12.687,M,,*71
$GPGGA,090408.00,3030.66716209,N,11424.05679379,E,1,15,0.9,56.464,M,-12.687,M,,*7F
$GPGGA,090409.00,3030.66716158,N,11424.05679885,E,1,15,0.9,56.437,M,-12.687,M,,*77
$GPGGA,090410.00,3030.66716043,N,11424.05680261,E,1,16,0.9,56.419,M,-12.687,M,,*7D
$GPGGA,090411.00,3030.66715986,N,11424.05680716,E,1,16,0.9,56.393,M,-12.687,M,,*7F
$GPGGA,090412.00,3030.66716104,N,11424.05681108,E,1,16,0.9,56.372,M,-12.687,M,,*7A
$GPGGA,090413.00,3030.66716041,N,11424.05681456,E,1,16,0.9,56.347,M,-12.687,M,,*73
$GPGGA,090414.00,3030.66715880,N,11424.05681833,E,1,16,0.9,56.319,M,-12.687,M,,*76
$GPGGA,090415.00,3030.66715627,N,11424.05682243,E,1,16,0.9,56.285,M,-12.687,M,,*7E
$GPGGA,090416.00,3030.66715458,N,11424.05682555,E,1,16,0.9,56.250,M,-12.687,M,,*7F
