$GPGGA,100512.00,3030.68593587,N,11424.07020979,E,2,03,2.1,66.203,M,-12.686,M,2.0,0000*58
$GPGGA,100513.00,3030.68598329,N,11424.07020004,E,2,03,2.1,66.237,M,-12.686,M,1.0,0000*57
$GPGGA,100514.00,3030.68592808,N,11424.07021864,E,2,03,2.1,66.172,M,-12.686,M,1.0,0000*5F
$GPGGA,100515.00,3030.68598544,N,11424.07019007,E,2,03,2.1,66.307,M,-12.686,M,1.0,0000*57
$GPGGA,100516.00,3030.68597203,N,11424.07019064,E,2,03,2.1,66.301,M,-12.686,M,1.0,0000*5C
$GPGGA,100517.00,3030.68595824,N,11424.07020441,E,2,03,2.1,66.236,M,-12.686,M,1.0,0000*5C
$GPGGA,100518.00,3030.68599911,N,11424.07019433,E,2,03,2.1,66.275,M,-12.686,M,1.0,0000*50
$GPGGA,100519.00,3030.68598315,N,11424.07020226,E,2,03,2.1,66.269,M,-12.686,M,1.0,0000*5B
$GPGGA,100520.00,3030.68600159,N,11424.07019230,E,2,03,2.1,66.328,M,-12.686,M,1.0,0000*50
$GPGGA,100521.00,3030.68600523,N,11424.07019445,E,2,03,2.1,66.314,M,-12.686,M,2.0,0000*50
$GPGGA,100522.00,3030.68601918,N,11424.07019245,E,2,03,2.1,66.321,M,-12.686,M,3.0,0000*57
$GPGGA,100523.00,3030.68604760,N,11424.07017191,E,2,03,2.1,66.405,M,-12.686,M,2.0,0000*56
$GPGGA,100524.00,3030.68600840,N,11424.07018315,E,2,03,2.1,66.356,M,-12.686,M,1.0,0000*5B
$GPGGA,100525.00,3030.68603994,N,11424.07017613,E,2,03,2.1,66.396,M,-12.686,M,1.0,0000*51
$GPGGA,100526.00,3030.68603154,N,11424.07017260,E,2,03,2.1,66.419,M,-12.686,M,2.0,0000*55
$GPGGA,100527.00,3030.68605899,N,11424.07016267,E,2,02,2.1,66.473,M,-12.686,M,1.0,0000*52
$GPGGA,100528.00,3030.68603131,N,11424.07017327,E,2,03,2.1,66.410,M,-12.686,M,1.0,0000*50
$GPGGA,100529.00,3030.68603122,N,11424.07017467,E,2,03,2.1,66.410,M,-12.686,M,1.0,0000*50
$GPGGA,100530.00,3030.68606918,N,11424.07016145,E,2,03,2.1,66.496,M,-12.686,M,1.0,0000*56
$GPGGA,100531.00,3030.68605996,N,11424.07016336,E,2,03,2.1,66.465,M,-12.686,M,1.0,0000*58
$GPGGA,100532.00,3030.68605421,N,11424.07016366,E,2,03,2.1,66.472,M,-12.686,M,2.0,0000*5A
$GPGGA,100533.00,3030.68608133,N,11424.07015640,E,2,03,2.1,66.520,M,-12.686,M,1.0,0000*57
$GPGGA,100534.00,3030.68610793,N,11424.07014875,E,2,03,2.1,66.545,M,-12.686,M,1.0,0000*5F
$GPGGA,100535.00,3030.68609748,N,11424.07015140,E,2,03,2.1,66.506,M,-12.686,M,1.0,0000*59
$GPGGA,100536.00,3030.68607777,N,11424.07015979,E,2,03,2.1,66.496,M,-12.686,M,1.0,0000*52
$GPGGA,100537.00,3030.68607415,N,11424.07015423,E,2,03,2.1,66.516,M,-12.686,M,1.0,0000*5F
$GPGGA,100538.00,3030.68606324,N,11424.07016196,E,2,03,2.1,66.482,M,-12.686,M,1.0,0000*50
$GPGGA,100539.00,3030.68608095,N,11424.07015223,E,2,03,2.1,66.526,M,-12.686,M,1.0,0000*57
$GPGGA,100540.00,3030.68607740,N,11424.07015519,E,2,03,2.1,66.499,M,-12.686,M,1.0,0000*52
$GPGGA,100541.00,3030.68608336,N,11424.07015729,E,2,03,2.1,66.511,M,-12.686,M,2.0,0000*5A
$GPGGA,100542.00,3030.68608390,N,11424.07015489,E,2,03,2.1,66.513,M,-12.686,M,3.0,0000*5F
$GPGGA,100543.00,3030.68611452,N,11424.07015079,E,2,03,2.1,66.538,M,-12.686,M,2.0,0000*5C
$GPGGA,100544.00,3030.68606145,N,11424.07016375,E,2,03,2.1,66.489,M,-12.686,M,1.0,0000*5A
$GPGGA,100545.00,3030.68608023,N,11424.07016412,E,2,03,2.1,66.488,M,-12.686,M,1.0,0000*53
$GPGGA,100546.00,3030.68609347,N,11424.07015294,E,2,03,2.0,66.551,M,-12.686,M,1.0,0000*5F
$GPGGA,100547.00,3030.68608238,N,11424.07015141,E,2,03,2.1,66.528,M,-12.686,M,1.0,0000*52
$GPGGA,100548.00,3030.68611109,N,11424.07014812,E,2,03,2.0,66.551,M,-12.686,M,1.0,0000*55
$GPGGA,100549.00,3030.68609529,N,11424.07015462,E,2,03,2.0,66.515,M,-12.686,M,1.0,0000*51
$GPGGA,100550.00,3030.68609783,N,11424.07014788,E,2,03,2.1,66.547,M,-12.686,M,1.0,0000*5B
$GPGGA,100551.00,3030.68613420,N,11424.07014175,E,2,03,2.0,66.589,M,-12.686,M,1.0,0000*5C
$GPGGA,100552.00,3030.68611613,N,11424.07014060,E,2,03,2.0,66.550,M,-12.686,M,1.0,0000*5E
$GPGGA,100553.00,3030.68613484,N,11424.07013875,E,2,03,2.0,66.598,M,-12.686,M,1.0,0000*5E
$GPGGA,100554.00,3030.68615009,N,11424.07013165,E,2,03,2.1,66.602,M,-12.686,M,1.0,0000*57
$GPGGA,100555.00,3030.68611485,N,11424.07013948,E,2,03,2.0,66.604,M,-12.686,M,1.0,0000*52
$GPGGA,100556.00,3030.68609141,N,11424.07014973,E,2,03,2.1,66.544,M,-12.686,M,1.0,0000*5C
$GPGGA,100557.00,3030.68607301,N,11424.07015544,E,2,03,2.0,66.502,M,-12.686,M,1.0,0000*5F
$GPGGA,100558.00,3030.68611697,N,11424.07014420,E,2,03,2.0,66.572,M,-12.686,M,2.0,0000*5B
$GPGGA,100559.00,3030.68610907,N,11424.07014488,E,2,03,2.1,66.592,M,-12.686,M,1.0,0000*53
$GPGGA,100600.00,3030.68610629,N,11424.07014758,E,2,03,2.0,66.555,M,-12.686,M,1.0,0000*5B
$GPGGA,100601.00,3030.68611977,N,11424.07013586,E,2,03,2.0,66.614,M,-12.686,M,1.0,0000*5F
$GPGGA,100602.00,3030.68614519,N,11424.07013120,E,2,03,2.0,66.640,M,-12.686,M,1.0,0000*54
$GPGGA,100603.00,3030.68614245,N,11424.07013480,E,2,03,2.0,66.637,M,-12.686,M,1.0,0000*54
$GPGGA,100604.00,3030.68609421,N,11424.07015066,E,2,03,2.0,66.550,M,-12.686,M,1.0,0000*53
$GPGGA,100605.00,3030.68610462,N,11424.07015042,E,2,02,2.0,66.583,M,-12.686,M,1.0,0000*54
$GPGGA,100606.00,3030.68614607,N,11424.07012384,E,2,03,2.0,66.673,M,-12.686,M,1.0,0000*51
$GPGGA,100607.00,3030.68612381,N,11424.07014371,E,2,03,2.0,66.586,M,-12.686,M,2.0,0000*5B
$GPGGA,100608.00,3030.68610478,N,11424.07014438,E,2,03,2.0,66.580,M,-12.686,M,2.0,0000*5B
$GPGGA,100609.00,3030.68618574,N,11424.07011927,E,2,03,2.0,66.706,M,-12.686,M,1.0,0000*56
$GPGGA,100610.00,3030.68616534,N,11424.07012957,E,2,03,2.0,66.675,M,-12.686,M,1.0,0000*55
$GPGGA,100611.00,3030.68614494,N,11424.07012684,E,2,03,2.0,66.682,M,-12.686,M,2.0,0000*57
$GPGGA,100612.00,3030.68616413,N,11424.07012342,E,2,03,2.0,66.709,M,-12.686,M,1.0,0000*57
$GPGGA,100613.00,3030.68612141,N,11424.07014142,E,2,03,2.0,66.611,M,-12.686,M,1.0,0000*5C
$GPGGA,100614.00,3030.68614009,N,11424.07014428,E,2,03,2.0,66.611,M,-12.686,M,1.0,0000*59
$GPGGA,100615.00,3030.68612466,N,11424.07013785,E,2,03,2.0,66.659,M,-12.686,M,1.0,0000*5C
$GPGGA,100616.00,3030.68613409,N,11424.07013781,E,2,03,2.0,66.644,M,-12.686,M,2.0,0000*5C
$GPGGA,100617.00,3030.68609607,N,11424.07015604,E,2,03,2.0,66.553,M,-12.686,M,2.0,0000*55
$GPGGA,100618.00,3030.68614523,N,11424.07012922,E,2,03,2.0,66.689,M,-12.686,M,1.0,0000*58
$GPGGA,100619.00,3030.68613894,N,11424.07013997,E,2,03,2.0,66.641,M,-12.686,M,1.0,0000*54
$GPGGA,100620.00,3030.68614924,N,11424.07013103,E,2,03,2.0,66.703,M,-12.686,M,1.0,0000*51
$GPGGA,100621.00,3030.68614417,N,11424.07013824,E,2,03,2.0,66.656,M,-12.686,M,1.0,0000*50
$GPGGA,100622.00,3030.68614783,N,11424.07013404,E,2,03,2.0,66.665,M,-12.686,M,1.0,0000*53
$GPGGA,100623.00,3030.68614462,N,11424.07013363,E,2,03,2.0,66.678,M,-12.686,M,1.0,0000*54
$GPGGA,100624.00,3030.68618557,N,11424.07012110,E,2,03,2.0,66.731,M,-12.686,M,1.0,0000*53
$GPGGA,100625.00,3030.68613323,N,11424.07013928,E,2,03,2.0,66.652,M,-12.686,M,1.0,0000*5A
$GPGGA,100626.00,3030.68614831,N,11424.07013278,E,2,03,2.0,66.685,M,-12.686,M,1.0,0000*52
$GPGGA,100627.00,3030.68613576,N,11424.07014507,E,2,03,2.0,66.614,M,-12.686,M,2.0,0000*59
$GPGGA,100628.00,3030.68611857,N,11424.07014376,E,2,03,2.0,66.618,M,-12.686,M,2.0,0000*56
$GPGGA,100629.00,3030.68615270,N,11424.07013768,E,2,03,2.0,66.649,M,-12.686,M,1.0,0000*57
$GPGGA,100630.00,3030.68614055,N,11424.07013454,E,2,03,2.0,66.677,M,-12.686,M,1.0,0000*5A
$GPGGA,100631.00,3030.68618492,N,11424.07012165,E,2,03,2.0,66.737,M,-12.686,M,1.0,0000*5B
$GPGGA,100632.00,3030.68617773,N,11424.07011812,E,2,03,2.0,66.728,M,-12.686,M,2.0,0000*5C
$GPGGA,100633.00,3030.68617142,N,11424.07012004,E,2,03,2.0,66.725,M,-12.686,M,1.0,0000*5B
$GPGGA,100634.00,3030.68620843,N,11424.07010515,E,2,03,2.0,66.791,M,-12.686,M,1.0,0000*58
$GPGGA,100635.00,3030.68615179,N,11424.07013041,E,2,03,2.0,66.654,M,-12.686,M,1.0,0000*50
$GPGGA,100636.00,3030.68618485,N,11424.07011021,E,2,03,2.0,66.752,M,-12.686,M,1.0,0000*5B
$GPGGA,100637.00,3030.68618050,N,11424.07010914,E,2,03,2.0,66.762,M,-12.686,M,1.0,0000*5B
$GPGGA,100638.00,3030.68619332,N,11424.07011005,E,2,03,2.0,66.777,M,-12.686,M,1.0,0000*5E
$GPGGA,100639.00,3030.68614911,N,11424.07012565,E,2,03,2.0,66.697,M,-12.686,M,1.0,0000*56
$GPGGA,100640.00,3030.68616003,N,11424.07012070,E,2,03,2.0,66.695,M,-12.686,M,1.0,0000*53
$GPGGA,100641.00,3030.68617789,N,11424.07011178,E,2,03,2.0,66.762,M,-12.686,M,1.0,0000*55
$GPGGA,100642.00,3030.68615178,N,11424.07012649,E,2,03,2.0,66.687,M,-12.686,M,1.0,0000*50
$GPGGA,100643.00,3030.68620305,N,11424.07010986,E,2,03,2.0,66.769,M,-12.686,M,1.0,0000*50
$GPGGA,100644.00,3030.68616791,N,11424.07011280,E,2,03,2.0,66.748,M,-12.686,M,1.0,0000*54
$GPGGA,100645.00,3030.68617127,N,11424.07011076,E,2,03,2.0,66.751,M,-12.686,M,2.0,0000*5F
$GPGGA,100646.00,3030.68615377,N,11424.07012524,E,2,03,2.0,66.692,M,-12.686,M,2.0,0000*56
$GPGGA,100647.00,3030.68613028,N,11424.07012501,E,2,03,2.0,66.682,M,-12.686,M,1.0,0000*5D
$GPGGA,100648.00,3030.68615446,N,11424.07011843,E,2,03,2.0,66.710,M,-12.686,M,1.0,0000*5A
$GPGGA,100649.00,3030.68613524,N,11424.07012751,E,2,03,2.0,66.684,M,-12.686,M,1.0,0000*5B
$GPGGA,100650.00,3030.68612888,N,11424.07013350,E,2,03,2.0,66.672,M,-12.686,M,2.0,0000*57
$GPGGA,100651.00,3030.68609728,N,11424.07013773,E,2,03,2.0,66.617,M,-12.686,M,1.0,0000*5C
$GPGGA,100652.00,3030.68612940,N,11424.07012858,E,2,04,2.0,66.674,M,-12.686,M,1.0,0000*50
$GPGGA,100653.00,3030.68611106,N,11424.07013656,E,2,04,2.0,66.662,M,-12.686,M,1.0,0000*5E
$GPGGA,100654.00,3030.68610704,N,11424.07013872,E,2,04,2.0,66.664,M,-12.686,M,1.0,0000*52
$GPGGA,100655.00,3030.68609415,N,11424.07013766,E,2,04,2.0,66.649,M,-12.686,M,1.0,0000*5D
$GPGGA,100656.00,3030.68611991,N,11424.07014018,E,2,04,2.0,66.661,M,-12.686,M,1.0,0000*55
$GPGGA,100657.00,3030.68614025,N,11424.07012995,E,2,04,2.0,66.695,M,-12.686,M,1.0,0000*56
$GPGGA,100658.00,3030.68613191,N,11424.07012961,E,2,04,2.0,66.709,M,-12.686,M,1.0,0000*5F
$GPGGA,100659.00,3030.68614854,N,11424.07013190,E,2,04,2.0,66.707,M,-12.686,M,1.0,0000*50
$GPGGA,100700.00,3030.68614650,N,11424.07012681,E,2,04,3.2,66.707,M,-12.686,M,1.0,0000*52
$GPGGA,100701.00,3030.68612393,N,11424.07013060,E,2,04,3.2,66.694,M,-12.686,M,1.0,0000*5C
$GPGGA,100702.00,3030.68611139,N,11424.07013343,E,2,04,3.2,66.686,M,-12.686,M,2.0,0000*5C
$GPGGA,100703.00,3030.68615831,N,11424.07012484,E,2,04,3.2,66.739,M,-12.686,M,1.0,0000*53
$GPGGA,100704.00,3030.68616484,N,11424.07011839,E,2,04,3.2,66.756,M,-12.686,M,1.0,0000*55
$GPGGA,100705.00,3030.68613647,N,11424.07012577,E,2,04,3.2,66.720,M,-12.686,M,2.0,0000*5A
$GPGGA,100706.00,3030.68613872,N,11424.07012626,E,2,04,3.2,66.701,M,-12.686,M,2.0,0000*55
$GPGGA,100707.00,3030.68613727,N,11424.07012395,E,2,04,3.2,66.714,M,-12.686,M,2.0,0000*52
$GPGGA,100708.00,3030.68613031,N,11424.07013113,E,2,04,3.2,66.723,M,-12.686,M,1.0,0000*57
$GPGGA,100709.00,3030.68617642,N,11424.07011939,E,2,04,3.2,66.757,M,-12.686,M,1.0,0000*51
$GPGGA,100710.00,3030.68615661,N,11424.07011949,E,2,04,3.2,66.741,M,-12.686,M,1.0,0000*5A
$GPGGA,100711.00,3030.68616275,N,11424.07012281,E,2,04,3.2,66.748,M,-12.686,M,2.0,0000*5F
$GPGGA,100712.00,3030.68614161,N,11424.07012537,E,2,04,3.2,66.733,M,-12.686,M,1.0,0000*5D
$GPGGA,100713.00,3030.68615346,N,11424.07012575,E,2,04,3.2,66.748,M,-12.686,M,1.0,0000*50
$GPGGA,100714.00,3030.68615535,N,11424.07011856,E,2,04,3.2,66.767,M,-12.686,M,1.0,0000*57
$GPGGA,100715.00,3030.68616563,N,11424.07011811,E,2,04,3.2,66.778,M,-12.686,M,1.0,0000*5B
$GPGGA,100716.00,3030.68617713,N,11424.07011800,E,2,04,3.2,66.796,M,-12.686,M,1.0,0000*5C
$GPGGA,100717.00,3030.68618321,N,11424.07011364,E,2,04,3.2,66.795,M,-12.686,M,2.0,0000*5E
$GPGGA,100718.00,3030.68617271,N,11424.07011515,E,2,04,3.2,66.796,M,-12.686,M,1.0,0000*5A
$GPGGA,100719.00,3030.68620398,N,11424.07010529,E,2,04,3.2,66.839,M,-12.686,M,1.0,0000*5D
$GPGGA,100720.00,3030.68620002,N,11424.07010554,E,2,04,3.3,66.845,M,-12.686,M,1.0,0000*57
$GPGGA,100721.00,3030.68619250,N,11424.07011092,E,2,04,3.3,66.814,M,-12.686,M,1.0,0000*53
$GPGGA,100722.00,3030.68619975,N,11424.07010515,E,2,04,3.3,66.837,M,-12.686,M,2.0,0000*55
$GPGGA,100723.00,3030.68618773,N,11424.07011117,E,2,04,3.3,66.813,M,-12.686,M,1.0,0000*5F
$GPGGA,100724.00,3030.68617495,N,11424.07011329,E,2,04,3.3,66.802,M,-12.686,M,1.0,0000*53
$GPGGA,100725.00,3030.68619278,N,11424.07010563,E,2,04,3.3,66.819,M,-12.686,M,1.0,0000*5A
$GPGGA,100726.00,3030.68618878,N,11424.07011397,E,2,04,3.3,66.809,M,-12.686,M,1.0,0000*5F
$GPGGA,100727.00,3030.68619289,N,11424.07011247,E,2,04,3.3,66.794,M,-12.686,M,1.0,0000*5C
$GPGGA,100728.00,3030.68620396,N,11424.07010490,E,2,04,3.3,66.810,M,-12.686,M,1.0,0000*58
$GPGGA,100729.00,3030.68618044,N,11424.07011504,E,2,04,3.3,66.778,M,-12.686,M,1.0,0000*52
$GPGGA,100730.00,3030.68615432,N,11424.07011823,E,2,04,3.3,66.757,M,-12.686,M,1.0,0000*57
$GPGGA,100731.00,3030.68616337,N,11424.07012349,E,2,04,3.3,66.735,M,-12.686,M,2.0,0000*54
$GPGGA,100732.00,3030.68613081,N,11424.07013021,E,2,04,3.3,66.692,M,-12.686,M,1.0,0000*5F
$GPGGA,100733.00,3030.68613865,N,11424.07012458,E,2,04,3.3,66.703,M,-12.686,M,2.0,0000*5D
$GPGGA,100734.00,3030.68613920,N,11424.07012712,E,2,04,3.3,66.720,M,-12.686,M,1.0,0000*55
$GPGGA,100735.00,3030.68617911,N,11424.07011593,E,2,04,3.3,66.761,M,-12.686,M,2.0,0000*5C
$GPGGA,100736.00,3030.68614487,N,11424.07012314,E,2,04,3.3,66.731,M,-12.686,M,1.0,0000*52
$GPGGA,100737.00,3030.68615029,N,11424.07011561,E,2,04,3.3,66.744,M,-12.686,M,1.0,0000*57
$GPGGA,100738.00,3030.68614162,N,11424.07011979,E,2,04,3.3,66.720,M,-12.686,M,1.0,0000*50
$GPGGA,100739.00,3030.68615300,N,11424.07012294,E,2,04,3.3,66.738,M,-12.686,M,1.0,0000*54
$GPGGA,100740.00,3030.68613967,N,11424.07012042,E,2,04,3.3,66.710,M,-12.686,M,1.0,0000*54
$GPGGA,100741.00,3030.68617942,N,11424.07010857,E,2,04,3.3,66.773,M,-12.686,M,2.0,0000*5E
$GPGGA,100742.00,3030.68618090,N,11424.07010864,E,2,04,3.3,66.760,M,-12.686,M,2.0,0000*56
$GPGGA,100743.00,3030.68615373,N,11424.07011662,E,2,04,3.3,66.731,M,-12.686,M,3.0,0000*58
$GPGGA,100744.00,3030.68616811,N,11424.07011119,E,2,04,3.3,66.751,M,-12.686,M,2.0,0000*5F
$GPGGA,100745.00,3030.68618339,N,11424.07010806,E,2,04,3.3,66.780,M,-12.686,M,2.0,0000*5B
$GPGGA,100746.00,3030.68617428,N,11424.07010463,E,2,04,3.3,66.779,M,-12.686,M,1.0,0000*5A
$GPGGA,100747.00,3030.68618327,N,11424.07011135,E,2,04,3.3,66.767,M,-12.686,M,1.0,0000*54
$GPGGA,100748.00,3030.68620374,N,11424.07009875,E,2,04,3.3,66.817,M,-12.686,M,1.0,0000*5A
$GPGGA,100749.00,3030.68621910,N,11424.07009508,E,2,04,3.3,66.814,M,-12.686,M,1.0,0000*56
$GPGGA,100750.00,3030.68621147,N,11424.07009643,E,2,04,3.3,66.825,M,-12.686,M,1.0,0000*5A
$GPGGA,100751.00,3030.68622152,N,11424.07009754,E,2,04,3.3,66.828,M,-12.686,M,1.0,0000*56
$GPGGA,100752.00,3030.68619722,N,11424.07010529,E,2,04,3.3,66.794,M,-12.686,M,1.0,0000*54
$GPGGA,100753.00,3030.68620991,N,11424.07009933,E,2,04,3.3,66.805,M,-12.686,M,1.0,0000*51
$GPGGA,100754.00,3030.68618251,N,11424.07010458,E,2,04,3.3,66.784,M,-12.686,M,1.0,0000*54
$GPGGA,100755.00,3030.68618620,N,11424.07010408,E,2,04,3.3,66.776,M,-12.686,M,1.0,0000*5F
$GPGGA,100756.00,3030.68620974,N,11424.07009944,E,2,04,3.3,66.817,M,-12.686,M,1.0,0000*5C
$GPGGA,100757.00,3030.68622255,N,11424.07009637,E,2,04,3.3,66.845,M,-12.686,M,1.0,0000*5B
$GPGGA,100758.00,3030.68621259,N,11424.07010065,E,2,04,3.3,66.829,M,-12.686,M,1.0,0000*58
$GPGGA,100759.00,3030.68619318,N,11424.07011102,E,2,04,3.2,66.776,M,-12.686,M,1.0,0000*53
$GPGGA,100800.00,3030.68618103,N,11424.07010791,E,2,04,3.2,66.785,M,-12.686,M,1.0,0000*58
$GPGGA,100801.00,3030.68617204,N,11424.07010768,E,2,04,3.2,66.754,M,-12.686,M,2.0,0000*5B
$GPGGA,100802.00,3030.68617979,N,11424.07010680,E,2,04,3.2,66.770,M,-12.686,M,1.0,0000*5B
$GPGGA,100803.00,3030.68618179,N,11424.07010411,E,2,04,3.2,66.792,M,-12.686,M,1.0,0000*5B
$GPGGA,100804.00,3030.68617699,N,11424.07010562,E,2,04,3.2,66.783,M,-12.686,M,1.0,0000*5F
$GPGGA,100805.00,3030.68616287,N,11424.07011221,E,2,04,3.2,66.746,M,-12.686,M,1.0,0000*5C
$GPGGA,100806.00,3030.68617077,N,11424.07011458,E,2,04,3.2,66.747,M,-12.686,M,2.0,0000*59
$GPGGA,100807.00,3030.68617681,N,11424.07011188,E,2,04,3.2,66.769,M,-12.686,M,2.0,0000*53
$GPGGA,100808.00,3030.68618929,N,11424.07010869,E,2,04,3.2,66.766,M,-12.686,M,2.0,0000*56
$GPGGA,100809.00,3030.68620542,N,11424.07010486,E,2,04,3.2,66.813,M,-12.686,M,2.0,0000*5D
$GPGGA,100810.00,3030.68618992,N,11424.07010671,E,2,04,3.2,66.767,M,-12.686,M,1.0,0000*5A
$GPGGA,100811.00,3030.68621317,N,11424.07010195,E,2,04,3.2,66.808,M,-12.686,M,2.0,0000*5E
$GPGGA,100812.00,3030.68620701,N,11424.07010004,E,2,04,3.2,66.800,M,-12.686,M,2.0,0000*5E
$GPGGA,100813.00,3030.68618049,N,11424.07011527,E,2,04,3.2,66.755,M,-12.686,M,2.0,0000*55
$GPGGA,100814.00,3030.68621039,N,11424.07010655,E,2,04,3.2,66.790,M,-12.686,M,1.0,0000*52
$GPGGA,100815.00,3030.68619715,N,11424.07010905,E,2,04,3.2,66.771,M,-12.686,M,1.0,0000*54
$GPGGA,100816.00,3030.68621140,N,11424.07010723,E,2,04,3.2,66.787,M,-12.686,M,2.0,0000*5A
$GPGGA,100817.00,3030.68620176,N,11424.07010742,E,2,04,3.2,66.771,M,-12.686,M,2.0,0000*51
$GPGGA,100818.00,3030.68620741,N,11424.07010714,E,2,04,3.2,66.789,M,-12.686,M,2.0,0000*58
$GPGGA,100819.00,3030.68620832,N,11424.07010947,E,2,04,3.2,66.769,M,-12.686,M,2.0,0000*54
$GPGGA,100820.00,3030.68619502,N,11424.07011199,E,2,04,3.2,66.775,M,-12.686,M,1.0,0000*5E
$GPGGA,100821.00,3030.68619854,N,11424.07010718,E,2,04,3.2,66.794,M,-12.686,M,2.0,0000*53
$GPGGA,100822.00,3030.68618902,N,11424.07010953,E,2,04,3.2,66.780,M,-12.686,M,2.0,0000*57
$GPGGA,100823.00,3030.68619481,N,11424.07011100,E,2,04,3.2,66.786,M,-12.686,M,1.0,0000*5B
$GPGGA,100824.00,3030.68619304,N,11424.07010977,E,2,04,3.2,66.772,M,-12.686,M,1.0,0000*54
$GPGGA,100825.00,3030.68619739,N,11424.07011063,E,2,04,3.2,66.791,M,-12.686,M,1.0,0000*5F
$GPGGA,100826.00,3030.68618386,N,11424.07011178,E,2,04,3.2,66.772,M,-12.686,M,2.0,0000*58
$GPGGA,100827.00,3030.68621867,N,11424.07009969,E,2,04,3.2,66.820,M,-12.686,M,2.0,0000*5E
$GPGGA,100828.00,3030.68622310,N,11424.07010359,E,2,04,3.2,66.820,M,-12.686,M,1.0,0000*5B
$GPGGA,100829.00,3030.68621190,N,11424.07010457,E,2,04,3.2,66.800,M,-12.686,M,1.0,0000*58
$GPGGA,100830.00,3030.68620191,N,11424.07010601,E,2,04,3.2,66.794,M,-12.686,M,1.0,0000*53
$GPGGA,100831.00,3030.68621590,N,11424.07010733,E,2,04,3.2,66.816,M,-12.686,M,2.0,0000*50
$GPGGA,100832.00,3030.68617741,N,11424.07010894,E,2,04,3.2,66.774,M,-12.686,M,2.0,0000*51
$GPGGA,100833.00,3030.68623019,N,11424.07009786,E,2,04,3.2,66.833,M,-12.686,M,1.0,0000*56
$GPGGA,100834.00,3030.68620267,N,11424.07009533,E,2,04,3.2,66.813,M,-12.686,M,1.0,0000*57
$GPGGA,100835.00,3030.68624607,N,11424.07008802,E,2,04,3.2,66.850,M,-12.686,M,1.0,0000*59
$GPGGA,100836.00,3030.68625155,N,11424.07008470,E,2,04,3.2,66.852,M,-12.686,M,2.0,0000*53
$GPGGA,100837.00,3030.68624639,N,11424.07008610,E,2,04,3.2,66.844,M,-12.686,M,1.0,0000*5E
$GPGGA,100838.00,3030.68622953,N,11424.07008874,E,2,04,3.2,66.823,M,-12.686,M,2.0,0000*5A
$GPGGA,100839.00,3030.68623146,N,11424.07009055,E,2,04,3.2,66.808,M,-12.686,M,2.0,0000*55
$GPGGA,100840.00,3030.68625330,N,11424.07007620,E,2,04,3.0,66.858,M,-12.686,M,1.0,0000*50
$GPGGA,100841.00,3030.68623878,N,11424.07008209,E,2,04,3.0,66.836,M,-12.686,M,2.0,0000*5B
$GPGGA,100842.00,3030.68623681,N,11424.07008447,E,2,04,3.0,66.838,M,-12.686,M,2.0,0000*52
$GPGGA,100843.00,3030.68623983,N,11424.07007742,E,2,04,3.0,66.843,M,-12.686,M,1.0,0000*58
$GPGGA,100844.00,3030.68624526,N,11424.07008166,E,2,04,3.0,66.848,M,-12.686,M,1.0,0000*5F
$GPGGA,100845.00,3030.68625895,N,11424.07006883,E,2,04,3.0,66.875,M,-12.686,M,1.0,0000*58
$GPGGA,100846.00,3030.68627139,N,11424.07007236,E,2,04,3.0,66.869,M,-12.686,M,1.0,0000*5E
$GPGGA,100847.00,3030.68627222,N,11424.07006762,E,2,04,3.0,66.891,M,-12.686,M,1.0,0000*54
$GPGGA,100848.00,3030.68628435,N,11424.07006436,E,2,04,3.0,66.896,M,-12.686,M,2.0,0000*52
$GPGGA,100849.00,3030.68629232,N,11424.07005994,E,2,04,3.0,66.927,M,-12.686,M,2.0,0000*5E
$GPGGA,100850.00,3030.68628286,N,11424.07006478,E,2,04,3.0,66.908,M,-12.686,M,1.0,0000*5A
$GPGGA,100851.00,3030.68630846,N,11424.07005456,E,2,04,3.0,66.931,M,-12.686,M,1.0,0000*51
$GPGGA,100852.00,3030.68629625,N,11424.07006175,E,2,04,3.0,66.912,M,-12.686,M,1.0,0000*57
$GPGGA,100853.00,3030.68630313,N,11424.07005898,E,2,04,3.0,66.923,M,-12.686,M,1.0,0000*55
$GPGGA,100854.00,3030.68631541,N,11424.07005742,E,2,04,3.0,66.932,M,-12.686,M,1.0,0000*5A
$GPGGA,100855.00,3030.68629946,N,11424.07005918,E,2,04,3.0,66.916,M,-12.686,M,1.0,0000*5E
$GPGGA,100856.00,3030.68628061,N,11424.07006586,E,2,04,3.0,66.890,M,-12.686,M,1.0,0000*57
$GPGGA,100857.00,3030.68628612,N,11424.07006536,E,2,04,3.0,66.903,M,-12.686,M,2.0,0000*57
$GPGGA,100858.00,3030.68630821,N,11424.07005651,E,2,04,3.0,66.941,M,-12.686,M,2.0,0000*58
$GPGGA,100859.00,3030.68628922,N,11424.07005934,E,2,04,3.0,66.924,M,-12.686,M,1.0,0000*5E
$GPGGA,100900.00,3030.68627564,N,11424.07006259,E,2,04,3.0,66.921,M,-12.686,M,1.0,0000*54
$GPGGA,100901.00,3030.68628731,N,11424.07006275,E,2,04,3.0,66.914,M,-12.686,M,1.0,0000*50
$GPGGA,100902.00,3030.68633442,N,11424.07005394,E,2,04,3.0,66.980,M,-12.686,M,2.0,0000*5D
$GPGGA,100903.00,3030.68632285,N,11424.07005320,E,2,04,3.0,66.981,M,-12.686,M,1.0,0000*5D
$GPGGA,100904.00,3030.68629933,N,11424.07006360,E,2,04,3.0,66.941,M,-12.686,M,1.0,0000*5D
$GPGGA,100905.00,3030.68630731,N,11424.07006040,E,2,04,3.0,66.944,M,-12.686,M,1.0,0000*5C
$GPGGA,100906.00,3030.68631604,N,11424.07005867,E,2,04,3.0,66.959,M,-12.686,M,1.0,0000*5B
$GPGGA,100907.00,3030.68629300,N,11424.07006707,E,2,04,3.0,66.901,M,-12.686,M,2.0,0000*56
$GPGGA,100908.00,3030.68629993,N,11424.07006574,E,2,04,3.0,66.916,M,-12.686,M,2.0,0000*59
$GPGGA,100909.00,3030.68629853,N,11424.07006243,E,2,04,3.0,66.937,M,-12.686,M,1.0,0000*56
$GPGGA,100910.00,3030.68629486,N,11424.07006335,E,2,04,3.0,66.933,M,-12.686,M,1.0,0000*5E
$GPGGA,100911.00,3030.68631004,N,11424.07006101,E,2,04,3.0,66.947,M,-12.686,M,2.0,0000*5D
$GPGGA,100912.00,3030.68630159,N,11424.07006350,E,2,04,3.0,66.951,M,-12.686,M,1.0,0000*54
$GPGGA,100913.00,3030.68630730,N,11424.07006443,E,2,04,3.0,66.955,M,-12.686,M,1.0,0000*5D
$GPGGA,100914.00,3030.68626408,N,11424.07007475,E,2,04,3.0,66.900,M,-12.686,M,1.0,0000*51
$GPGGA,100915.00,3030.68627131,N,11424.07007423,E,2,04,3.0,66.888,M,-12.686,M,1.0,0000*5C
$GPGGA,100916.00,3030.68629047,N,11424.07006438,E,2,04,3.0,66.927,M,-12.686,M,1.0,0000*5E
$GPGGA,100917.00,3030.68627641,N,11424.07006501,E,2,04,3.0,66.928,M,-12.686,M,2.0,0000*56
$GPGGA,100918.00,3030.68627433,N,11424.07006895,E,2,04,3.0,66.922,M,-12.686,M,1.0,0000*57
$GPGGA,100919.00,3030.68628295,N,11424.07007041,E,2,04,3.0,66.898,M,-12.686,M,1.0,0000*53
$GPGGA,100920.00,3030.68628420,N,11424.07007036,E,2,04,3.0,66.902,M,-12.686,M,1.0,0000*53
$GPGGA,100921.00,3030.68629758,N,11424.07006605,E,2,04,3.0,66.943,M,-12.686,M,2.0,0000*5E
$GPGGA,100922.00,3030.68632075,N,11424.07005655,E,2,04,3.0,66.973,M,-12.686,M,2.0,0000*5A
$GPGGA,100923.00,3030.68629436,N,11424.07007198,E,2,04,3.0,66.927,M,-12.686,M,1.0,0000*54
$GPGGA,100924.00,3030.68629057,N,11424.07006169,E,2,04,3.0,66.937,M,-12.686,M,1.0,0000*5E
$GPGGA,100925.00,3030.68627820,N,11424.07006401,E,2,04,3.0,66.931,M,-12.686,M,1.0,0000*54
$GPGGA,100926.00,3030.68630653,N,11424.07006447,E,2,04,3.0,66.951,M,-12.686,M,1.0,0000*5F
$GPGGA,100927.00,3030.68631336,N,11424.07006385,E,2,04,3.0,66.962,M,-12.686,M,1.0,0000*50
$GPGGA,100928.00,3030.68629512,N,11424.07006441,E,2,04,3.0,66.931,M,-12.686,M,1.0,0000*5F
$GPGGA,100929.00,3030.68632333,N,11424.07006221,E,2,04,3.0,66.959,M,-12.686,M,1.0,0000*5F
$GPGGA,100930.00,3030.68627818,N,11424.07007287,E,2,04,3.0,66.905,M,-12.686,M,1.0,0000*55
$GPGGA,100931.00,3030.68627165,N,11424.07007126,E,2,04,3.0,66.902,M,-12.686,M,1.0,0000*58
$GPGGA,100932.00,3030.68628687,N,11424.07007518,E,2,04,3.0,66.911,M,-12.686,M,1.0,0000*54
$GPGGA,100933.00,3030.68627744,N,11424.07007649,E,2,04,3.0,66.898,M,-12.686,M,1.0,0000*53
$GPGGA,100934.00,3030.68627801,N,11424.07007549,E,2,04,3.0,66.909,M,-12.686,M,1.0,0000*50
$GPGGA,100935.00,3030.68626943,N,11424.07007918,E,2,04,3.0,66.887,M,-12.686,M,1.0,0000*58
$GPGGA,100936.00,3030.68625783,N,11424.07008725,E,2,04,3.0,66.866,M,-12.686,M,1.0,0000*5A
$GPGGA,100937.00,3030.68627747,N,11424.07007907,E,2,04,3.0,66.890,M,-12.686,M,1.0,0000*59
$GPGGA,100938.00,3030.68626638,N,11424.07008070,E,2,04,3.0,66.887,M,-12.686,M,1.0,0000*5E
$GPGGA,100939.00,3030.68630502,N,11424.07007531,E,2,04,3.0,66.938,M,-12.686,M,2.0,0000*5B
$GPGGA,100940.00,3030.68627970,N,11424.07008061,E,2,04,3.0,66.888,M,-12.686,M,1.0,0000*5C
$GPGGA,100941.00,3030.68624810,N,11424.07008991,E,2,04,3.0,66.823,M,-12.686,M,1.0,0000*5E
$GPGGA,100942.00,3030.68625688,N,11424.07009097,E,2,04,3.0,66.840,M,-12.686,M,1.0,0000*58
$GPGGA,100943.00,3030.68627867,N,11424.07008260,E,2,04,3.0,66.882,M,-12.686,M,2.0,0000*52
$GPGGA,100944.00,3030.68629146,N,11424.07008026,E,2,04,3.0,66.918,M,-12.686,M,3.0,0000*52
$GPGGA,100945.00,3030.68628977,N,11424.07008097,E,2,04,3.0,66.900,M,-12.686,M,2.0,0000*5A
$GPGGA,100946.00,3030.68626985,N,11424.07008745,E,2,04,3.0,66.873,M,-12.686,M,2.0,0000*57
$GPGGA,100947.00,3030.68631053,N,11424.07007187,E,2,04,3.0,66.945,M,-12.686,M,1.0,0000*52
$GPGGA,100948.00,3030.68629937,N,11424.07007791,E,2,04,3.0,66.932,M,-12.686,M,1.0,0000*5E
$GPGGA,100949.00,3030.68630398,N,11424.07007890,E,2,04,3.0,66.919,M,-12.686,M,1.0,0000*5F
$GPGGA,100950.00,3030.68628967,N,11424.07008141,E,2,04,3.0,66.920,M,-12.686,M,1.0,0000*54
$GPGGA,100951.00,3030.68630512,N,11424.07008451,E,2,04,3.0,66.890,M,-12.686,M,1.0,0000*5C
$GPGGA,100952.00,3030.68630167,N,11424.07007876,E,2,04,3.0,66.924,M,-12.686,M,2.0,0000*52
$GPGGA,100953.00,3030.68629276,N,11424.07007813,E,2,04,3.0,66.904,M,-12.686,M,1.0,0000*5A
$GPGGA,100954.00,3030.68629957,N,11424.07007886,E,2,04,3.0,66.908,M,-12.686,M,1.0,0000*55
$GPGGA,100955.00,3030.68627732,N,11424.07008007,E,2,04,3.0,66.884,M,-12.686,M,1.0,0000*5C
$GPGGA,100956.00,3030.68629719,N,11424.07007855,E,2,04,3.0,66.916,M,-12.686,M,1.0,0000*52
$GPGGA,100957.00,3030.68630949,N,11424.07007874,E,2,04,3.0,66.919,M,-12.686,M,1.0,0000*5C
$GPGGA,100958.00,3030.68632569,N,11424.07007208,E,2,04,3.0,66.959,M,-12.686,M,2.0,0000*59
$GPGGA,100959.00,3030.68628473,N,11424.07008296,E,2,04,3.0,66.925,M,-12.686,M,1.0,0000*59
$GPGGA,101000.00,3030.68629450,N,11424.07008085,E,2,04,3.0,66.927,M,-12.686,M,1.0,0000*5F
$GPGGA,101001.00,3030.68630610,N,11424.07007836,E,2,04,2.9,66.922,M,-12.686,M,2.0,0000*51
$GPGGA,101002.00,3030.68631547,N,11424.07007558,E,2,04,2.9,66.935,M,-12.686,M,1.0,0000*52
$GPGGA,101003.00,3030.68635911,N,11424.07005985,E,2,04,2.9,67.007,M,-12.686,M,1.0,0000*5F
$GPGGA,101004.00,3030.68634686,N,11424.07006614,E,2,04,2.9,66.981,M,-12.686,M,2.0,0000*59
$GPGGA,101005.00,3030.68633347,N,11424.07006886,E,2,04,2.9,66.957,M,-12.686,M,1.0,0000*5A
$GPGGA,101006.00,3030.68630886,N,11424.07007544,E,2,04,2.9,66.946,M,-12.686,M,1.0,0000*5E
$GPGGA,101007.00,3030.68634295,N,11424.07006541,E,2,04,2.9,66.989,M,-12.686,M,1.0,0000*54
$GPGGA,101008.00,3030.68633782,N,11424.07006446,E,2,04,2.9,66.987,M,-12.686,M,1.0,0000*57
$GPGGA,101009.00,3030.68630176,N,11424.07007615,E,2,04,2.9,66.944,M,-12.686,M,1.0,0000*52
$GPGGA,101010.00,3030.68632181,N,11424.07007267,E,2,04,2.9,66.972,M,-12.686,M,1.0,0000*54
$GPGGA,101011.00,3030.68632390,N,11424.07007371,E,2,04,2.9,66.963,M,-12.686,M,1.0,0000*51
$GPGGA,101012.00,3030.68631294,N,11424.07007730,E,2,04,2.9,66.948,M,-12.686,M,1.0,0000*5C
$GPGGA,101013.00,3030.68631746,N,11424.07008320,E,2,04,2.9,66.951,M,-12.686,M,1.0,0000*55
$GPGGA,101014.00,3030.68632817,N,11424.07007173,E,2,04,2.9,66.978,M,-12.686,M,1.0,0000*5A
$GPGGA,101015.00,3030.68633028,N,11424.07007678,E,2,04,2.9,66.957,M,-12.686,M,1.0,0000*5F
$GPGGA,101016.00,3030.68633363,N,11424.07007551,E,2,04,2.9,66.984,M,-12.686,M,2.0,0000*55
$GPGGA,101017.00,3030.68634116,N,11424.07007601,E,2,04,2.9,66.981,M,-12.686,M,2.0,0000*50
$GPGGA,101018.00,3030.68632882,N,11424.07007894,E,2,04,2.9,66.946,M,-12.686,M,2.0,0000*54
$GPGGA,101019.00,3030.68633942,N,11424.07007962,E,2,04,2.9,66.935,M,-12.686,M,1.0,0000*56
$GPGGA,101020.00,3030.68634077,N,11424.07007643,E,2,04,2.9,66.932,M,-12.686,M,1.0,0000*5F
$GPGGA,101021.00,3030.68631985,N,11424.07008230,E,2,04,2.9,66.942,M,-12.686,M,2.0,0000*54
$GPGGA,101022.00,3030.68628938,N,11424.07009452,E,2,04,2.9,66.885,M,-12.686,M,1.0,0000*53
$GPGGA,101023.00,3030.68630973,N,11424.07008989,E,2,04,2.9,66.928,M,-12.686,M,1.0,0000*58
$GPGGA,101024.00,3030.68630697,N,11424.07008958,E,2,04,2.9,66.929,M,-12.686,M,2.0,0000*54
$GPGGA,101025.00,3030.68631345,N,11424.07009246,E,2,04,2.9,66.921,M,-12.686,M,1.0,0000*50
$GPGGA,101026.00,3030.68629729,N,11424.07009341,E,2,04,2.9,66.899,M,-12.686,M,2.0,0000*53
$GPGGA,101027.00,3030.68631580,N,11424.07008674,E,2,04,2.9,66.944,M,-12.686,M,1.0,0000*5A
$GPGGA,101028.00,3030.68630474,N,11424.07009144,E,2,04,2.3,66.923,M,-12.686,M,1.0,0000*50
$GPGGA,101029.00,3030.68629249,N,11424.07009855,E,2,03,2.3,66.896,M,-12.686,M,2.0,0000*53
$GPGGA,101030.00,3030.68629734,N,11424.07009653,E,2,03,2.9,66.912,M,-12.686,M,2.0,0000*5B
$GPGGA,101031.00,3030.68630941,N,11424.07008902,E,2,04,2.3,66.935,M,-12.686,M,1.0,0000*5F
$GPGGA,101032.00,3030.68630212,N,11424.07009557,E,2,04,2.3,66.930,M,-12.686,M,1.0,0000*59
$GPGGA,101033.00,3030.68630602,N,11424.07009527,E,2,04,2.3,66.943,M,-12.686,M,1.0,0000*5E
$GPGGA,101034.00,3030.68631947,N,11424.07009282,E,2,04,2.3,66.963,M,-12.686,M,1.0,0000*5C
$GPGGA,101035.00,3030.68629877,N,11424.07010352,E,2,04,2.3,66.914,M,-12.686,M,1.0,0000*52
$GPGGA,101036.00,3030.68633896,N,11424.07007944,E,2,04,2.3,67.033,M,-12.686,M,1.0,0000*53
$GPGGA,101037.00,3030.68632291,N,11424.07009531,E,2,04,2.3,66.957,M,-12.686,M,1.0,0000*54
$GPGGA,101038.00,3030.68631726,N,11424.07009615,E,2,04,2.3,66.970,M,-12.686,M,1.0,0000*51
$GPGGA,101039.00,3030.68626803,N,11424.07010839,E,2,04,2.3,66.872,M,-12.686,M,1.0,0000*55
$GPGGA,101040.00,3030.68631469,N,11424.07008900,E,2,03,2.3,66.983,M,-12.686,M,1.0,0000*57
$GPGGA,101041.00,3030.68637293,N,11424.07007862,E,2,03,2.3,67.065,M,-12.686,M,1.0,0000*59
$GPGGA,101042.00,3030.68637024,N,11424.07007944,E,2,03,2.3,67.057,M,-12.686,M,1.0,0000*50
$GPGGA,101043.00,3030.68634782,N,11424.07008401,E,2,04,2.3,67.048,M,-12.686,M,1.0,0000*53
$GPGGA,101044.00,3030.68632569,N,11424.07009857,E,2,04,2.3,66.978,M,-12.686,M,1.0,0000*50
$GPGGA,101045.00,3030.68632005,N,11424.07009468,E,2,04,2.3,66.995,M,-12.686,M,1.0,0000*5D
$GPGGA,101046.00,3030.68632687,N,11424.07009588,E,2,04,2.3,66.999,M,-12.686,M,1.0,0000*51
$GPGGA,101047.00,3030.68632821,N,11424.07009811,E,2,04,2.3,66.999,M,-12.686,M,1.0,0000*5F
$GPGGA,101048.00,3030.68634142,N,11424.07009107,E,2,04,2.3,67.028,M,-12.686,M,1.0,0000*56
$GPGGA,101049.00,3030.68632185,N,11424.07010094,E,2,03,2.3,66.994,M,-12.686,M,1.0,0000*51
$GPGGA,101050.00,3030.68631350,N,11424.07010511,E,2,03,2.5,66.983,M,-12.686,M,1.0,0000*58
$GPGGA,101051.00,3030.68630761,N,11424.07010442,E,2,03,2.5,66.986,M,-12.686,M,2.0,0000*5F
$GPGGA,101052.00,3030.68630460,N,11424.07010691,E,2,03,2.5,66.965,M,-12.686,M,1.0,0000*5C
$GPGGA,101053.00,3030.68627947,N,11424.07011578,E,2,03,2.5,66.924,M,-12.686,M,1.0,0000*53
$GPGGA,101054.00,3030.68628751,N,11424.07011584,E,2,03,2.5,66.924,M,-12.686,M,1.0,0000*51
$GPGGA,101055.00,3030.68631501,N,11424.07010454,E,2,03,2.5,66.987,M,-12.686,M,1.0,0000*5B
$GPGGA,101056.00,3030.68633710,N,11424.07009547,E,2,03,2.5,67.049,M,-12.686,M,1.0,0000*59
$GPGGA,101057.00,3030.68628364,N,11424.07011717,E,2,03,2.5,66.928,M,-12.686,M,1.0,0000*54
$GPGGA,101058.00,3030.68631071,N,11424.07010568,E,2,03,2.5,66.983,M,-12.686,M,1.0,0000*5E
$GPGGA,101059.00,3030.68629318,N,11424.07010888,E,2,03,2.5,66.950,M,-12.686,M,1.0,0000*57
$GPGGA,101100.00,3030.68631245,N,11424.07010618,E,2,03,2.5,66.981,M,-12.686,M,1.0,0000*51
$GPGGA,101101.00,3030.68634427,N,11424.07008727,E,2,03,2.5,67.054,M,-12.686,M,2.0,0000*50
$GPGGA,101102.00,3030.68641375,N,11424.07006641,E,2,03,2.5,67.204,M,-12.686,M,2.0,0000*59
$GPGGA,101103.00,3030.68641634,N,11424.07005829,E,2,03,2.5,67.233,M,-12.686,M,1.0,0000*5C
$GPGGA,101104.00,3030.68643234,N,11424.07005811,E,2,03,2.5,67.239,M,-12.686,M,1.0,0000*5C
$GPGGA,101105.00,3030.68641243,N,11424.07006231,E,2,03,2.5,67.184,M,-12.686,M,1.0,0000*51
$GPGGA,101106.00,3030.68640761,N,11424.07006208,E,2,03,2.5,67.219,M,-12.686,M,1.0,0000*5B
$GPGGA,101107.00,3030.68639515,N,11424.07006663,E,2,03,2.5,67.163,M,-12.686,M,1.0,0000*52
$GPGGA,101108.00,3030.68644110,N,11424.07004418,E,2,03,2.5,67.267,M,-12.686,M,2.0,0000*5E
$GPGGA,101109.00,3030.68643536,N,11424.07004758,E,2,03,2.5,67.282,M,-12.686,M,1.0,0000*57
$GPGGA,101110.00,3030.68642324,N,11424.07005030,E,2,03,2.5,67.248,M,-12.686,M,1.0,0000*55
$GPGGA,101111.00,3030.68643278,N,11424.07005338,E,2,03,2.5,67.262,M,-12.686,M,1.0,0000*5E
$GPGGA,101112.00,3030.68648845,N,11424.07002473,E,2,03,2.5,67.403,M,-12.686,M,2.0,0000*5F
$GPGGA,101113.00,3030.68647852,N,11424.07003188,E,2,03,2.5,67.367,M,-12.686,M,1.0,0000*51
$GPGGA,101114.00,3030.68647010,N,11424.07003272,E,2,03,2.5,67.363,M,-12.686,M,1.0,0000*5A
$GPGGA,101115.00,3030.68649117,N,11424.07002483,E,2,03,2.5,67.383,M,-12.686,M,1.0,0000*54
$GPGGA,101116.00,3030.68649026,N,11424.07002533,E,2,03,2.5,67.397,M,-12.686,M,2.0,0000*58
$GPGGA,101117.00,3030.68645408,N,11424.07004175,E,2,03,2.5,67.301,M,-12.686,M,3.0,0000*53
$GPGGA,101118.00,3030.68647752,N,11424.07003222,E,2,03,2.5,67.376,M,-12.686,M,4.0,0000*53
$GPGGA,101119.00,3030.68646323,N,11424.07003883,E,2,03,2.5,67.339,M,-12.686,M,4.0,0000*5B
$GPGGA,101120.00,3030.68647558,N,11424.07002731,E,2,03,2.5,67.373,M,-12.686,M,5.0,0000*52
$GPGGA,101121.00,3030.68650864,N,11424.07001250,E,2,03,2.5,67.462,M,-12.686,M,6.0,0000*52
$GPGGA,101122.00,3030.68649514,N,11424.07001868,E,2,03,2.5,67.413,M,-12.686,M,7.0,0000*55
$GPGGA,101123.00,3030.68652530,N,11424.07000432,E,2,03,3.2,67.496,M,-12.686,M,7.0,0000*51
$GPGGA,101124.00,3030.68649269,N,11424.07002194,E,2,03,3.2,67.405,M,-12.686,M,7.0,0000*56
$GPGGA,101125.00,3030.68649176,N,11424.07001964,E,2,03,3.2,67.411,M,-12.686,M,8.0,0000*54
$GPGGA,101126.00,3030.68654715,N,11424.06999906,E,2,03,3.2,67.528,M,-12.686,M,9.0,0000*5F
$GPGGA,101127.00,3030.68652149,N,11424.07000577,E,2,03,3.2,67.469,M,-12.686,M,10.0,0000*69
$GPGGA,101128.00,3030.68651791,N,11424.07001323,E,2,03,3.2,67.458,M,-12.686,M,11.0,0000*63
$GPGGA,101129.00,3030.68648545,N,11424.07001566,E,2,03,3.2,67.426,M,-12.686,M,10.0,0000*6E
$GPGGA,101130.00,3030.68655102,N,11424.06999266,E,2,03,3.2,67.563,M,-12.686,M,9.0,0000*5B
$GPGGA,101131.00,3030.68652628,N,11424.07001502,E,2,03,3.2,67.471,M,-12.686,M,10.0,0000*64
$GPGGA,101132.00,3030.68651750,N,11424.07001254,E,2,03,3.2,67.469,M,-12.686,M,11.0,0000*66
$GPGGA,101133.00,3030.68655615,N,11424.06999484,E,2,03,3.2,67.536,M,-12.686,M,10.0,0000*6B
$GPGGA,101134.00,3030.68652553,N,11424.07000671,E,2,03,3.2,67.485,M,-12.686,M,9.0,0000*5B
$GPGGA,101135.00,3030.68652112,N,11424.07000970,E,2,03,3.2,67.457,M,-12.686,M,8.0,0000*5B
$GPGGA,101136.00,3030.68654589,N,11424.07000464,E,2,03,3.2,67.491,M,-12.686,M,8.0,0000*5A
$GPGGA,101137.00,3030.68653590,N,11424.07000243,E,2,03,3.2,67.492,M,-12.686,M,7.0,0000*5B
$GPGGA,101138.00,3030.68657065,N,11424.06999043,E,2,03,3.2,67.564,M,-12.686,M,6.0,0000*5C
$GPGGA,101139.00,3030.68650943,N,11424.07001748,E,2,03,3.2,67.416,M,-12.686,M,5.0,0000*55
$GPGGA,101140.00,3030.68651799,N,11424.07000775,E,2,03,3.2,67.466,M,-12.686,M,4.0,0000*5A
$GPGGA,101141.00,3030.68655230,N,11424.06999635,E,2,03,3.2,67.518,M,-12.686,M,4.0,0000*5C
$GPGGA,101142.00,3030.68652607,N,11424.06999985,E,2,03,3.2,67.487,M,-12.686,M,5.0,0000*5A
$GPGGA,101143.00,3030.68650215,N,11424.07001574,E,2,03,3.2,67.429,M,-12.686,M,6.0,0000*52
$GPGGA,101144.00,3030.68649921,N,11424.07001998,E,2,03,3.2,67.405,M,-12.686,M,6.0,0000*51
$GPGGA,101145.00,3030.68655566,N,11424.06999742,E,2,03,3.2,67.528,M,-12.686,M,6.0,0000*5C
$GPGGA,101146.00,3030.68653411,N,11424.07000384,E,2,03,3.2,67.485,M,-12.686,M,7.0,0000*59
$GPGGA,101147.00,3030.68653021,N,11424.07000113,E,2,03,3.2,67.459,M,-12.686,M,7.0,0000*52
$GPGGA,101148.00,3030.68658340,N,11424.06997339,E,2,03,3.2,67.591,M,-12.686,M,6.0,0000*5A
$GPGGA,101149.00,3030.68653386,N,11424.06999884,E,2,03,3.2,67.495,M,-12.686,M,7.0,0000*5D
$GPGGA,101150.00,3030.68659269,N,11424.06997633,E,2,03,3.2,67.607,M,-12.686,M,7.0,0000*5A
$GPGGA,101151.00,3030.68656111,N,11424.06999812,E,2,03,3.2,67.469,M,-12.686,M,6.0,0000*50
$GPGGA,101152.00,3030.68652922,N,11424.07000873,E,2,03,3.2,67.410,M,-12.686,M,6.0,0000*5E
$GPGGA,101153.00,3030.68658096,N,11424.06998553,E,2,03,3.2,67.530,M,-12.686,M,5.0,0000*55
$GPGGA,101154.00,3030.68662912,N,11424.06995488,E,2,03,3.2,67.697,M,-12.686,M,4.0,0000*5B
$GPGGA,101155.00,3030.68664380,N,11424.06995768,E,2,03,3.2,67.677,M,-12.686,M,3.0,0000*59
$GPGGA,101156.00,3030.68663933,N,11424.06995993,E,2,03,3.2,67.665,M,-12.686,M,3.0,0000*56
$GPGGA,101157.00,3030.68663030,N,11424.06995870,E,2,03,3.2,67.613,M,-12.686,M,2.0,0000*51
$GPGGA,101158.00,3030.68666052,N,11424.06993782,E,2,03,3.2,67.783,M,-12.686,M,2.0,0000*53
$GPGGA,101159.00,3030.68664763,N,11424.06994457,E,2,03,3.2,67.730,M,-12.686,M,2.0,0000*51
$GPGGA,101200.00,3030.68668031,N,11424.06992955,E,2,03,3.2,67.796,M,-12.686,M,1.0,0000*54
$GPGGA,101201.00,3030.68665899,N,11424.06994098,E,2,03,3.2,67.750,M,-12.686,M,1.0,0000*56
$GPGGA,101202.00,3030.68662744,N,11424.06995167,E,2,03,3.2,67.688,M,-12.686,M,1.0,0000*59
$GPGGA,101203.00,3030.68663570,N,11424.06994630,E,2,03,2.9,67.708,M,-12.686,M,1.0,0000*5B
$GPGGA,101204.00,3030.68658806,N,11424.06996377,E,2,03,2.9,67.589,M,-12.686,M,1.0,0000*57
$GPGGA,101205.00,3030.68661727,N,11424.06995249,E,2,03,2.9,67.693,M,-12.686,M,1.0,0000*57
$GPGGA,101206.00,3030.68665806,N,11424.06993488,E,2,03,2.9,67.780,M,-12.686,M,1.0,0000*52
$GPGGA,101207.00,3030.68665155,N,11424.06994249,E,2,03,2.7,67.734,M,-12.686,M,1.0,0000*51
$GPGGA,101208.00,3030.68667538,N,11424.06992764,E,2,03,2.7,67.808,M,-12.686,M,1.0,0000*5F
$GPGGA,101209.00,3030.68666286,N,11424.06993716,E,2,03,2.7,67.772,M,-12.686,M,1.0,0000*5B
$GPGGA,101210.00,3030.68668990,N,11424.06992469,E,2,03,2.7,67.833,M,-12.686,M,1.0,0000*51
$GPGGA,101211.00,3030.68666105,N,11424.06993556,E,2,03,2.7,67.777,M,-12.686,M,1.0,0000*59
$GPGGA,101212.00,3030.68664549,N,11424.06994264,E,2,03,2.8,67.743,M,-12.686,M,2.0,0000*5E
$GPGGA,101213.00,3030.68668252,N,11424.06993319,E,2,03,2.7,67.781,M,-12.686,M,2.0,0000*53
$GPGGA,101214.00,3030.68667390,N,11424.06993535,E,2,03,2.7,67.762,M,-12.686,M,1.0,0000*52
$GPGGA,101215.00,3030.68666913,N,11424.06993968,E,2,03,2.7,67.759,M,-12.686,M,1.0,0000*5F
$GPGGA,101216.00,3030.68670032,N,11424.06993015,E,2,03,2.7,67.812,M,-12.686,M,1.0,0000*52
$GPGGA,101217.00,3030.68666806,N,11424.06993977,E,2,03,2.7,67.736,M,-12.686,M,1.0,0000*5F
$GPGGA,101218.00,3030.68668251,N,11424.06993098,E,2,03,2.7,67.805,M,-12.686,M,1.0,0000*51
$GPGGA,101219.00,3030.68671168,N,11424.06992290,E,2,03,2.7,67.875,M,-12.686,M,2.0,0000*5E
$GPGGA,101220.00,3030.68673607,N,11424.06991038,E,2,03,2.7,67.905,M,-12.686,M,1.0,0000*5E
$GPGGA,101221.00,3030.68673724,N,11424.06990239,E,2,03,2.7,67.944,M,-12.686,M,1.0,0000*58
$GPGGA,101222.00,3030.68669557,N,11424.06991933,E,2,03,2.7,67.851,M,-12.686,M,2.0,0000*50
$GPGGA,101223.00,3030.68671365,N,11424.06991291,E,2,03,2.7,67.911,M,-12.686,M,2.0,0000*59
$GPGGA,101224.00,3030.68670510,N,11424.06991530,E,2,04,2.7,67.884,M,-12.686,M,1.0,0000*5E
$GPGGA,101225.00,3030.68668333,N,11424.06992388,E,2,03,2.7,67.850,M,-12.686,M,1.0,0000*59
$GPGGA,101226.00,3030.68672311,N,11424.06990539,E,2,03,2.7,67.933,M,-12.686,M,1.0,0000*5B
$GPGGA,101227.00,3030.68670000,N,11424.06992053,E,2,03,2.7,67.859,M,-12.686,M,1.0,0000*5D
$GPGGA,101228.00,3030.68673605,N,11424.06990361,E,2,04,2.7,67.957,M,-12.686,M,2.0,0000*59
$GPGGA,101229.00,3030.68672296,N,11424.06990718,E,2,04,2.7,67.929,M,-12.686,M,1.0,0000*57
$GPGGA,101230.00,3030.68671344,N,11424.06991052,E,2,04,2.7,67.926,M,-12.686,M,1.0,0000*55
$GPGGA,101231.00,3030.68673244,N,11424.06991206,E,2,04,2.7,67.927,M,-12.686,M,1.0,0000*55
$GPGGA,101232.00,3030.68675122,N,11424.06990000,E,2,04,2.7,67.970,M,-12.686,M,1.0,0000*54
$GPGGA,101233.00,3030.68674081,N,11424.06990545,E,2,04,2.7,67.945,M,-12.686,M,1.0,0000*5E
$GPGGA,101234.00,3030.68672177,N,11424.06990997,E,2,04,2.7,67.920,M,-12.686,M,1.0,0000*57
$GPGGA,101235.00,3030.68674799,N,11424.06989831,E,2,04,2.7,67.977,M,-12.686,M,1.0,0000*51
$GPGGA,101236.00,3030.68675792,N,11424.06989143,E,2,03,2.7,68.013,M,-12.686,M,1.0,0000*57
$GPGGA,101237.00,3030.68674816,N,11424.06989875,E,2,04,2.7,67.990,M,-12.686,M,2.0,0000*51
$GPGGA,101238.00,3030.68673168,N,11424.06990012,E,2,04,2.7,67.971,M,-12.686,M,1.0,0000*54
$GPGGA,101239.00,3030.68675521,N,11424.06989527,E,2,04,2.7,68.011,M,-12.686,M,1.0,0000*51
$GPGGA,101240.00,3030.68672906,N,11424.06990225,E,2,04,2.7,67.960,M,-12.686,M,1.0,0000*5C
$GPGGA,101241.00,3030.68673502,N,11424.06989830,E,2,04,2.7,67.993,M,-12.686,M,1.0,0000*5E
$GPGGA,101242.00,3030.68674664,N,11424.06989592,E,2,04,2.7,68.013,M,-12.686,M,1.0,0000*52
$GPGGA,101243.00,3030.68675696,N,11424.06989551,E,2,04,2.7,68.025,M,-12.686,M,1.0,0000*55
$GPGGA,101244.00,3030.68675349,N,11424.06989656,E,2,04,2.7,68.012,M,-12.686,M,2.0,0000*56
$GPGGA,101245.00,3030.68674350,N,11424.06989986,E,2,04,2.7,68.008,M,-12.686,M,2.0,0000*57
$GPGGA,101246.00,3030.68675002,N,11424.06989508,E,2,04,2.7,68.004,M,-12.686,M,2.0,0000*57
$GPGGA,101247.00,3030.68674118,N,11424.06989955,E,2,04,2.7,67.991,M,-12.686,M,1.0,0000*50
$GPGGA,101248.00,3030.68676805,N,11424.06989227,E,2,04,2.7,68.056,M,-12.686,M,1.0,0000*5B
$GPGGA,101249.00,3030.68677023,N,11424.06989001,E,2,04,2.7,68.044,M,-12.686,M,1.0,0000*52
$GPGGA,101250.00,3030.68675840,N,11424.06989812,E,2,04,2.7,68.028,M,-12.686,M,1.0,0000*55
$GPGGA,101251.00,3030.68675447,N,11424.06989657,E,2,04,2.7,68.011,M,-12.686,M,1.0,0000*5A
$GPGGA,101252.00,3030.68676756,N,11424.06989077,E,2,04,2.7,68.039,M,-12.686,M,1.0,0000*57
$GPGGA,101253.00,3030.68677511,N,11424.06989087,E,2,04,2.7,68.063,M,-12.686,M,1.0,0000*56
$GPGGA,101254.00,3030.68675594,N,11424.06989819,E,2,04,2.7,68.034,M,-12.686,M,1.0,0000*53
$GPGGA,101255.00,3030.68676956,N,11424.06989030,E,2,04,2.7,68.053,M,-12.686,M,1.0,0000*51
$GPGGA,101256.00,3030.68676282,N,11424.06989144,E,2,04,2.7,68.070,M,-12.686,M,1.0,0000*53
$GPGGA,101257.00,3030.68677752,N,11424.06989381,E,2,04,2.7,68.079,M,-12.686,M,1.0,0000*59
$GPGGA,101258.00,3030.68676875,N,11424.06989748,E,2,04,2.7,68.048,M,-12.686,M,2.0,0000*5D
$GPGGA,101259.00,3030.68676794,N,11424.06989364,E,2,04,2.7,68.055,M,-12.686,M,2.0,0000*5A
$GPGGA,101300.00,3030.68676268,N,11424.06989697,E,2,03,2.7,68.054,M,-12.686,M,1.0,0000*5D
$GPGGA,101301.00,3030.68672382,N,11424.06991567,E,2,03,2.7,67.970,M,-12.686,M,1.0,0000*58
$GPGGA,101302.00,3030.68677449,N,11424.06988829,E,2,03,2.7,68.121,M,-12.686,M,1.0,0000*52
$GPGGA,101303.00,3030.68677824,N,11424.06988842,E,2,03,2.7,68.104,M,-12.686,M,1.0,0000*5E
$GPGGA,101304.00,3030.68676663,N,11424.06989433,E,2,04,2.7,68.086,M,-12.686,M,2.0,0000*51
$GPGGA,101305.00,3030.68678333,N,11424.06989467,E,2,04,2.7,68.080,M,-12.686,M,1.0,0000*5A
$GPGGA,101306.00,3030.68678600,N,11424.06989438,E,2,04,2.7,68.112,M,-12.686,M,1.0,0000*5C
$GPGGA,101307.00,3030.68675836,N,11424.06990325,E,2,04,2.7,68.065,M,-12.686,M,1.0,0000*59
$GPGGA,101308.00,3030.68678644,N,11424.06989119,E,2,04,2.7,68.115,M,-12.686,M,1.0,0000*53
$GPGGA,101309.00,3030.68678722,N,11424.06988901,E,2,04,2.7,68.136,M,-12.686,M,1.0,0000*52
$GPGGA,101310.00,3030.68678183,N,11424.06988910,E,2,04,2.7,68.119,M,-12.686,M,1.0,0000*5A
$GPGGA,101311.00,3030.68676393,N,11424.06989698,E,2,04,2.7,68.101,M,-12.686,M,1.0,0000*51
$GPGGA,101312.00,3030.68676828,N,11424.06989445,E,2,04,2.6,68.115,M,-12.686,M,1.0,0000*5F
$GPGGA,101313.00,3030.68677875,N,11424.06989489,E,2,04,2.6,68.124,M,-12.686,M,2.0,0000*56
$GPGGA,101314.00,3030.68679072,N,11424.06989328,E,2,04,2.6,68.138,M,-12.686,M,1.0,0000*52
$GPGGA,101315.00,3030.68676448,N,11424.06989831,E,2,04,1.9,68.124,M,-12.686,M,1.0,0000*53
$GPGGA,101316.00,3030.68675653,N,11424.06990480,E,2,04,1.9,68.111,M,-12.686,M,1.0,0000*53
$GPGGA,101317.00,3030.68677013,N,11424.06990192,E,2,03,1.9,68.094,M,-12.686,M,1.0,0000*5F
$GPGGA,101318.00,3030.68677171,N,11424.06989908,E,2,03,1.9,68.123,M,-12.686,M,1.0,0000*5B
$GPGGA,101319.00,3030.68678365,N,11424.06988943,E,2,03,1.9,68.163,M,-12.686,M,1.0,0000*58
$GPGGA,101320.00,3030.68681340,N,11424.06988110,E,2,04,1.9,68.223,M,-12.686,M,1.0,0000*5D
$GPGGA,101321.00,3030.68682039,N,11424.06988070,E,2,04,1.9,68.240,M,-12.686,M,1.0,0000*50
$GPGGA,101322.00,3030.68680692,N,11424.06988876,E,2,04,1.9,68.191,M,-12.686,M,1.0,0000*57
$GPGGA,101323.00,3030.68681340,N,11424.06988802,E,2,04,1.9,68.207,M,-12.686,M,1.0,0000*52
$GPGGA,101324.00,3030.68682197,N,11424.06987975,E,2,04,1.9,68.218,M,-12.686,M,1.0,0000*5E
$GPGGA,101325.00,3030.68681949,N,11424.06987908,E,2,04,1.9,68.232,M,-12.686,M,1.0,0000*55
$GPGGA,101326.00,3030.68678413,N,11424.06988577,E,2,04,1.8,68.180,M,-12.686,M,1.0,0000*52
$GPGGA,101327.00,3030.68680557,N,11424.06988518,E,2,04,1.8,68.199,M,-12.686,M,1.0,0000*54
$GPGGA,101328.00,3030.68681660,N,11424.06988627,E,2,04,2.0,68.214,M,-12.686,M,1.0,0000*5F
$GPGGA,101329.00,3030.68679141,N,11424.06988704,E,2,04,2.0,68.207,M,-12.686,M,2.0,0000*5C
$GPGGA,101330.00,3030.68681515,N,11424.06988302,E,2,04,2.0,68.232,M,-12.686,M,1.0,0000*51
$GPGGA,101331.00,3030.68681250,N,11424.06987734,E,2,04,2.0,68.236,M,-12.686,M,2.0,0000*5F
$GPGGA,101332.00,3030.68678305,N,11424.06989125,E,2,04,2.0,68.208,M,-12.686,M,1.0,0000*5D
$GPGGA,101333.00,3030.68678391,N,11424.06988565,E,2,04,2.0,68.199,M,-12.686,M,1.0,0000*5B
$GPGGA,101334.00,3030.68678622,N,11424.06988628,E,2,04,2.0,68.195,M,-12.686,M,2.0,0000*54
$GPGGA,101335.00,3030.68677172,N,11424.06989598,E,2,04,2.0,68.166,M,-12.686,M,1.0,0000*5E
$GPGGA,101336.00,3030.68676754,N,11424.06989228,E,2,04,2.0,68.171,M,-12.686,M,1.0,0000*54
$GPGGA,101337.00,3030.68679246,N,11424.06989170,E,2,04,2.0,68.198,M,-12.686,M,1.0,0000*55
$GPGGA,101338.00,3030.68675657,N,11424.06989900,E,2,04,2.0,68.139,M,-12.686,M,1.0,0000*56
$GPGGA,101339.00,3030.68675675,N,11424.06989609,E,2,04,2.0,68.164,M,-12.686,M,1.0,0000*59
$GPGGA,101340.00,3030.68675536,N,11424.06989843,E,2,04,2.0,68.155,M,-12.686,M,1.0,0000*51
$GPGGA,101341.00,3030.68671912,N,11424.06991296,E,2,04,1.8,68.087,M,-12.686,M,2.0,0000*53
$GPGGA,101342.00,3030.68672804,N,11424.06990824,E,2,04,1.8,68.122,M,-12.686,M,1.0,0000*5A
$GPGGA,101343.00,3030.68673070,N,11424.06990841,E,2,04,1.8,68.134,M,-12.686,M,1.0,0000*55
$GPGGA,101344.00,3030.68673775,N,11424.06991186,E,2,04,1.8,68.128,M,-12.686,M,1.0,0000*5E
$GPGGA,101345.00,3030.68674094,N,11424.06990796,E,2,04,1.8,68.155,M,-12.686,M,2.0,0000*5F
$GPGGA,101346.00,3030.68672883,N,11424.06991111,E,2,04,1.8,68.140,M,-12.686,M,3.0,0000*59
$GPGGA,101347.00,3030.68673215,N,11424.06990988,E,2,04,1.8,68.146,M,-12.686,M,2.0,0000*52
$GPGGA,101348.00,3030.68671902,N,11424.06991638,E,2,04,1.8,68.101,M,-12.686,M,2.0,0000*54
$GPGGA,101349.00,3030.68673270,N,11424.06991339,E,2,04,1.8,68.138,M,-12.686,M,2.0,0000*57
$GPGGA,101350.00,3030.68671607,N,11424.06991943,E,2,04,1.8,68.085,M,-12.686,M,2.0,0000*59
$GPGGA,101351.00,3030.68671787,N,11424.06992342,E,2,04,1.8,68.095,M,-12.686,M,1.0,0000*5B
$GPGGA,101352.00,3030.68670489,N,11424.06992378,E,2,04,1.8,68.090,M,-12.686,M,1.0,0000*58
$GPGGA,101353.00,3030.68673845,N,11424.06991228,E,2,04,1.8,68.147,M,-12.686,M,1.0,0000*5A
$GPGGA,101354.00,3030.68672026,N,11424.06992014,E,2,04,1.8,68.114,M,-12.686,M,2.0,0000*5A
$GPGGA,101355.00,3030.68672225,N,11424.06991662,E,2,04,1.8,68.127,M,-12.686,M,2.0,0000*5E
$GPGGA,101356.00,3030.68673629,N,11424.06991483,E,2,04,1.8,68.156,M,-12.686,M,2.0,0000*5F
$GPGGA,101357.00,3030.68673460,N,11424.06991273,E,2,04,1.8,68.165,M,-12.686,M,2.0,0000*58
$GPGGA,101358.00,3030.68672629,N,11424.06991488,E,2,04,1.8,68.149,M,-12.686,M,2.0,0000*55
$GPGGA,101359.00,3030.68672324,N,11424.06991808,E,2,04,1.8,68.149,M,-12.686,M,1.0,0000*5B
$GPGGA,101400.00,3030.68672685,N,11424.06991524,E,2,04,1.8,68.175,M,-12.686,M,1.0,0000*52
$GPGGA,101401.00,3030.68674136,N,11424.06991350,E,2,04,1.8,68.214,M,-12.686,M,1.0,0000*5B
$GPGGA,101402.00,3030.68672363,N,11424.06991502,E,2,04,1.8,68.188,M,-12.686,M,2.0,0000*58
$GPGGA,101403.00,3030.68672365,N,11424.06990885,E,2,04,1.8,68.214,M,-12.686,M,2.0,0000*5A
$GPGGA,101404.00,3030.68670595,N,11424.06992181,E,2,04,1.8,68.151,M,-12.686,M,2.0,0000*5B
$GPGGA,101405.00,3030.68670146,N,11424.06992085,E,2,04,1.8,68.150,M,-12.686,M,1.0,0000*57
$GPGGA,101406.00,3030.68670980,N,11424.06992440,E,2,04,1.8,68.159,M,-12.686,M,1.0,0000*52
$GPGGA,101407.00,3030.68671337,N,11424.06992175,E,2,04,1.8,68.164,M,-12.686,M,1.0,0000*59
$GPGGA,101408.00,3030.68670234,N,11424.06992120,E,2,04,1.8,68.155,M,-12.686,M,2.0,0000*54
$GPGGA,101409.00,3030.68670133,N,11424.06992293,E,2,04,1.8,68.166,M,-12.686,M,1.0,0000*59
$GPGGA,101410.00,3030.68670301,N,11424.06992499,E,2,04,1.8,68.167,M,-12.686,M,1.0,0000*5F
$GPGGA,101411.00,3030.68669370,N,11424.06992784,E,2,04,1.8,68.141,M,-12.686,M,2.0,0000*58
$GPGGA,101412.00,3030.68666595,N,11424.06993616,E,2,04,1.8,68.112,M,-12.686,M,2.0,0000*54
$GPGGA,101413.00,3030.68668001,N,11424.06992881,E,2,04,1.8,68.153,M,-12.686,M,2.0,0000*57
$GPGGA,101414.00,3030.68669998,N,11424.06992789,E,2,04,1.8,68.180,M,-12.686,M,1.0,0000*52
$GPGGA,101415.00,3030.68669642,N,11424.06992879,E,2,04,1.8,68.168,M,-12.686,M,1.0,0000*5D
$GPGGA,101416.00,3030.68669506,N,11424.06992880,E,2,04,1.8,68.176,M,-12.686,M,1.0,0000*54
$GPGGA,101417.00,3030.68669053,N,11424.06992680,E,2,04,1.8,68.180,M,-12.686,M,1.0,0000*57
$GPGGA,101418.00,3030.68668152,N,11424.06993071,E,2,04,1.8,68.157,M,-12.686,M,2.0,0000*59
$GPGGA,101419.00,3030.68669811,N,11424.06992497,E,2,03,1.8,68.209,M,-12.686,M,2.0,0000*55
$GPGGA,101420.00,3030.68673118,N,11424.06991053,E,2,04,1.8,68.304,M,-12.686,M,1.0,0000*53
$GPGGA,101421.00,3030.68672101,N,11424.06991704,E,2,04,1.8,68.268,M,-12.686,M,1.0,0000*55
$GPGGA,101422.00,3030.68671859,N,11424.06991477,E,2,04,1.8,68.247,M,-12.686,M,2.0,0000*58
$GPGGA,101423.00,3030.68671997,N,11424.06991619,E,2,04,1.8,68.272,M,-12.686,M,2.0,0000*56
$GPGGA,101424.00,3030.68669999,N,11424.06992074,E,2,04,1.8,68.249,M,-12.686,M,1.0,0000*53
$GPGGA,101425.00,3030.68674511,N,11424.06990998,E,2,04,1.8,68.321,M,-12.686,M,1.0,0000*54
$GPGGA,101426.00,3030.68671456,N,11424.06991848,E,2,04,1.8,68.278,M,-12.686,M,1.0,0000*50
$GPGGA,101427.00,3030.68672833,N,11424.06991169,E,2,03,1.8,68.305,M,-12.686,M,2.0,0000*58
$GPGGA,101428.00,3030.68672602,N,11424.06991195,E,2,03,1.8,68.314,M,-12.686,M,1.0,0000*5B
$GPGGA,101429.00,3030.68674807,N,11424.06990646,E,2,03,1.8,68.371,M,-12.686,M,2.0,0000*5F
$GPGGA,101430.00,3030.68675066,N,11424.06990996,E,2,04,1.5,68.345,M,-12.686,M,2.0,0000*56
$GPGGA,101431.00,3030.68673412,N,11424.06991620,E,2,04,1.5,68.331,M,-12.686,M,2.0,0000*56
$GPGGA,101432.00,3030.68675769,N,11424.06991002,E,2,04,2.2,68.381,M,-12.686,M,2.0,0000*55
$GPGGA,101433.00,3030.68674365,N,11424.06990856,E,2,04,2.2,68.367,M,-12.686,M,1.0,0000*5E
$GPGGA,101434.00,3030.68674182,N,11424.06991133,E,2,04,2.2,68.369,M,-12.686,M,1.0,0000*57
$GPGGA,101435.00,3030.68674287,N,11424.06990854,E,2,04,2.2,68.388,M,-12.686,M,1.0,0000*56
$GPGGA,101436.00,3030.68674830,N,11424.06991009,E,2,04,2.2,68.392,M,-12.686,M,1.0,0000*59
$GPGGA,101437.00,3030.68674976,N,11424.06990909,E,2,04,2.2,68.400,M,-12.686,M,1.0,0000*5F
$GPGGA,101438.00,3030.68673788,N,11424.06991415,E,2,04,2.2,68.384,M,-12.686,M,1.0,0000*52
$GPGGA,101439.00,3030.68675178,N,11424.06991266,E,2,04,2.2,68.408,M,-12.686,M,2.0,0000*5E
$GPGGA,101440.00,3030.68675303,N,11424.06991289,E,2,04,2.2,68.397,M,-12.686,M,2.0,0000*5E
$GPGGA,101441.00,3030.68674273,N,11424.06991318,E,2,04,2.2,68.420,M,-12.686,M,2.0,0000*5A
$GPGGA,101442.00,3030.68675631,N,11424.06991267,E,2,04,2.2,68.418,M,-12.686,M,2.0,0000*58
$GPGGA,101443.00,3030.68674608,N,11424.06991621,E,2,04,2.2,68.393,M,-12.686,M,2.0,0000*50
$GPGGA,101444.00,3030.68672398,N,11424.06992120,E,2,04,2.2,68.373,M,-12.686,M,2.0,0000*56
$GPGGA,101445.00,3030.68674937,N,11424.06991993,E,2,04,2.2,68.380,M,-12.686,M,2.0,0000*51
$GPGGA,101446.00,3030.68673480,N,11424.06992685,E,2,04,2.2,68.369,M,-12.686,M,2.0,0000*58
$GPGGA,101447.00,3030.68672800,N,11424.06992823,E,2,04,2.2,68.367,M,-12.686,M,2.0,0000*50
$GPGGA,101448.00,3030.68671905,N,11424.06993059,E,2,04,2.2,68.336,M,-12.686,M,2.0,0000*58
$GPGGA,101449.00,3030.68672262,N,11424.06993007,E,2,04,2.2,68.352,M,-12.686,M,2.0,0000*59
$GPGGA,101450.00,3030.68670999,N,11424.06993241,E,2,04,2.2,68.352,M,-12.686,M,2.0,0000*5C
$GPGGA,101451.00,3030.68672886,N,11424.06992825,E,2,04,2.2,68.376,M,-12.686,M,1.0,0000*5C
$GPGGA,101452.00,3030.68671988,N,11424.06993166,E,2,04,2.2,68.368,M,-12.686,M,1.0,0000*53
$GPGGA,101453.00,3030.68671750,N,11424.06993175,E,2,04,2.2,68.373,M,-12.686,M,1.0,0000*51
$GPGGA,101454.00,3030.68672486,N,11424.06992544,E,2,04,2.2,68.383,M,-12.686,M,2.0,0000*56
$GPGGA,101455.00,3030.68673281,N,11424.06992889,E,2,04,2.2,68.389,M,-12.686,M,2.0,0000*51
$GPGGA,101456.00,3030.68672984,N,11424.06993147,E,2,04,2.2,68.388,M,-12.686,M,1.0,0000*55
$GPGGA,101457.00,3030.68673020,N,11424.06992808,E,2,04,2.2,68.397,M,-12.686,M,2.0,0000*5C
$GPGGA,101458.00,3030.68672201,N,11424.06993344,E,2,04,2.2,68.392,M,-12.686,M,1.0,0000*57
$GPGGA,101459.00,3030.68672967,N,11424.06992745,E,2,03,2.2,68.413,M,-12.686,M,1.0,0000*50
$GPGGA,101500.00,3030.68675700,N,11424.06991837,E,2,04,2.2,68.464,M,-12.686,M,1.0,0000*5B
$GPGGA,101501.00,3030.68675204,N,11424.06992246,E,2,04,2.2,68.473,M,-12.686,M,1.0,0000*52
$GPGGA,101502.00,3030.68675600,N,11424.06992004,E,2,04,2.2,68.473,M,-12.686,M,1.0,0000*55
$GPGGA,101503.00,3030.68675169,N,11424.06992615,E,2,04,2.2,68.474,M,-12.686,M,1.0,0000*5D
$GPGGA,101504.00,3030.68675054,N,11424.06992678,E,2,04,2.2,68.462,M,-12.686,M,2.0,0000*5A
$GPGGA,101505.00,3030.68675835,N,11424.06992784,E,2,04,2.2,68.472,M,-12.686,M,1.0,0000*54
$GPGGA,101506.00,3030.68674158,N,11424.06992669,E,2,03,2.2,68.456,M,-12.686,M,1.0,0000*57
$GPGGA,101507.00,3030.68671932,N,11424.06994240,E,2,03,2.2,68.361,M,-12.686,M,1.0,0000*5D
$GPGGA,101508.00,3030.68670358,N,11424.06994717,E,2,03,2.2,68.339,M,-12.686,M,1.0,0000*5F
$GPGGA,101509.00,3030.68674922,N,11424.06993362,E,2,03,2.2,68.434,M,-12.686,M,2.0,0000*55
$GPGGA,101510.00,3030.68671320,N,11424.06994546,E,2,03,2.2,68.366,M,-12.686,M,3.0,0000*56
$GPGGA,101511.00,3030.68667606,N,11424.06995859,E,2,03,2.2,68.276,M,-12.686,M,3.0,0000*53
$GPGGA,101512.00,3030.68667362,N,11424.06995807,E,2,03,2.2,68.292,M,-12.686,M,2.0,0000*57
$GPGGA,101513.00,3030.68667010,N,11424.06995908,E,2,04,2.2,68.286,M,-12.686,M,2.0,0000*5C
$GPGGA,101514.00,3030.68665942,N,11424.06996471,E,2,03,2.2,68.261,M,-12.686,M,2.0,0000*59
$GPGGA,101515.00,3030.68664208,N,11424.06997305,E,2,03,2.2,68.228,M,-12.686,M,1.0,0000*57
$GPGGA,101516.00,3030.68668330,N,11424.06996274,E,2,03,2.2,68.296,M,-12.686,M,1.0,0000*51
$GPGGA,101517.00,3030.68666539,N,11424.06997112,E,2,03,2.2,68.253,M,-12.686,M,1.0,0000*5A
$GPGGA,101518.00,3030.68665511,N,11424.06996976,E,2,03,2.2,68.237,M,-12.686,M,1.0,0000*55
$GPGGA,101519.00,3030.68670796,N,11424.06994378,E,2,03,2.2,68.392,M,-12.686,M,2.0,0000*56
$GPGGA,101520.00,3030.68672664,N,11424.06993706,E,2,03,2.2,68.436,M,-12.686,M,1.0,0000*52
$GPGGA,101521.00,3030.68670658,N,11424.06994445,E,2,04,2.2,68.408,M,-12.686,M,1.0,0000*57
$GPGGA,101522.00,3030.68672457,N,11424.06993364,E,2,03,2.2,68.444,M,-12.686,M,1.0,0000*57
$GPGGA,101523.00,3030.68673438,N,11424.06992885,E,2,03,2.2,68.501,M,-12.686,M,1.0,0000*5B
$GPGGA,101524.00,3030.68679005,N,11424.06991023,E,2,04,2.2,68.616,M,-12.686,M,1.0,0000*59
$GPGGA,101525.00,3030.68676467,N,11424.06991231,E,2,03,2.2,68.582,M,-12.686,M,1.0,0000*5F
$GPGGA,101526.00,3030.68675806,N,11424.06991820,E,2,04,2.2,68.545,M,-12.686,M,1.0,0000*52
$GPGGA,101527.00,3030.68675492,N,11424.06991862,E,2,04,2.2,68.543,M,-12.686,M,2.0,0000*51
$GPGGA,101528.00,3030.68676213,N,11424.06991741,E,2,04,2.2,68.575,M,-12.686,M,1.0,0000*5A
$GPGGA,101529.00,3030.68678663,N,11424.06990821,E,2,04,2.2,68.619,M,-12.686,M,1.0,0000*57
$GPGGA,101530.00,3030.68677838,N,11424.06990913,E,2,04,2.2,68.620,M,-12.686,M,1.0,0000*5A
$GPGGA,101531.00,3030.68679725,N,11424.06990187,E,2,03,2.2,68.677,M,-12.686,M,1.0,0000*56
$GPGGA,101532.00,3030.68678194,N,11424.06990766,E,2,03,2.2,68.632,M,-12.686,M,1.0,0000*50
$GPGGA,101533.00,3030.68677609,N,11424.06990710,E,2,03,2.2,68.638,M,-12.686,M,1.0,0000*56
$GPGGA,101534.00,3030.68677891,N,11424.06991060,E,2,04,2.2,68.631,M,-12.686,M,1.0,0000*51
$GPGGA,101535.00,3030.68675919,N,11424.06991768,E,2,04,2.2,68.593,M,-12.686,M,1.0,0000*57
$GPGGA,101536.00,3030.68679211,N,11424.06990756,E,2,04,2.2,68.672,M,-12.686,M,1.0,0000*5B
$GPGGA,101537.00,3030.68677916,N,11424.06991107,E,2,04,2.2,68.648,M,-12.686,M,1.0,0000*52
$GPGGA,101538.00,3030.68679326,N,11424.06990490,E,2,04,2.2,68.674,M,-12.686,M,1.0,0000*5F
$GPGGA,101539.00,3030.68677606,N,11424.06991458,E,2,04,2.2,68.632,M,-12.686,M,1.0,0000*50
$GPGGA,101540.00,3030.68676060,N,11424.06991416,E,2,04,2.2,68.616,M,-12.686,M,1.0,0000*55
$GPGGA,101541.00,3030.68676119,N,11424.06991343,E,2,04,2.2,68.613,M,-12.686,M,1.0,0000*59
$GPGGA,101542.00,3030.68673354,N,11424.06991854,E,2,04,2.2,68.600,M,-12.686,M,1.0,0000*5B
$GPGGA,101543.00,3030.68675723,N,11424.06991395,E,2,04,2.2,68.630,M,-12.686,M,1.0,0000*5D
$GPGGA,101544.00,3030.68674822,N,11424.06991778,E,2,04,2.2,68.623,M,-12.686,M,2.0,0000*53
$GPGGA,101545.00,3030.68672127,N,11424.06992183,E,2,04,2.2,68.602,M,-12.686,M,1.0,0000*59
$GPGGA,101546.00,3030.68672484,N,11424.06992034,E,2,04,2.2,68.588,M,-12.686,M,2.0,0000*59
$GPGGA,101547.00,3030.68674654,N,11424.06992203,E,2,04,2.2,68.631,M,-12.686,M,3.0,0000*57
$GPGGA,101548.00,3030.68677707,N,11424.06990823,E,2,03,2.2,68.674,M,-12.686,M,2.0,0000*51
$GPGGA,101549.00,3030.68681332,N,11424.06989094,E,2,03,2.2,68.776,M,-12.686,M,2.0,0000*54
$GPGGA,101550.00,3030.68677483,N,11424.06990615,E,2,03,2.2,68.710,M,-12.686,M,2.0,0000*5F
$GPGGA,101551.00,3030.68681147,N,11424.06989281,E,2,04,2.2,68.790,M,-12.686,M,1.0,0000*57
$GPGGA,101552.00,3030.68676853,N,11424.06990876,E,2,04,2.2,68.691,M,-12.686,M,1.0,0000*5A
$GPGGA,101553.00,3030.68675779,N,11424.06991324,E,2,03,2.2,68.663,M,-12.686,M,1.0,0000*58
$GPGGA,101554.00,3030.68677027,N,11424.06990168,E,2,04,2.2,68.728,M,-12.686,M,1.0,0000*53
$GPGGA,101555.00,3030.68674443,N,11424.06991293,E,2,03,2.2,68.655,M,-12.686,M,1.0,0000*5D
$GPGGA,101556.00,3030.68679785,N,11424.06989022,E,2,03,2.2,68.767,M,-12.686,M,1.0,0000*5B
$GPGGA,101557.00,3030.68680418,N,11424.06988776,E,2,03,2.2,68.816,M,-12.686,M,2.0,0000*56
$GPGGA,101558.00,3030.68684449,N,11424.06987356,E,2,03,2.2,68.879,M,-12.686,M,1.0,0000*5A
$GPGGA,101559.00,3030.68684988,N,11424.06987621,E,2,03,2.2,68.891,M,-12.686,M,1.0,0000*58
$GPGGA,101600.00,3030.68685442,N,11424.06987608,E,2,03,2.2,68.876,M,-12.686,M,1.0,0000*5F
$GPGGA,101601.00,3030.68686483,N,11424.06986952,E,2,03,2.2,68.928,M,-12.686,M,1.0,0000*5B
$GPGGA,101602.00,3030.68686439,N,11424.06986407,E,2,03,2.2,68.966,M,-12.686,M,1.0,0000*5E
$GPGGA,101603.00,3030.68684657,N,11424.06987140,E,2,03,2.2,68.901,M,-12.686,M,1.0,0000*51
$GPGGA,101604.00,3030.68686530,N,11424.06986534,E,2,03,2.2,68.949,M,-12.686,M,2.0,0000*5F
$GPGGA,101605.00,3030.68688373,N,11424.06985949,E,2,03,2.2,69.015,M,-12.686,M,2.0,0000*55
$GPGGA,101606.00,3030.68683964,N,11424.06987640,E,2,03,2.2,68.896,M,-12.686,M,1.0,0000*54
$GPGGA,101607.00,3030.68684650,N,11424.06986948,E,2,03,2.2,68.954,M,-12.686,M,1.0,0000*53
$GPGGA,101608.00,3030.68687833,N,11424.06986352,E,2,03,2.2,68.976,M,-12.686,M,1.0,0000*55
$GPGGA,101609.00,3030.68688055,N,11424.06986319,E,2,03,2.2,69.009,M,-12.686,M,1.0,0000*5C
$GPGGA,101610.00,3030.68684656,N,11424.06987317,E,2,03,2.2,68.943,M,-12.686,M,1.0,0000*54
$GPGGA,101611.00,3030.68681285,N,11424.06989085,E,2,04,2.2,68.869,M,-12.686,M,2.0,0000*51
$GPGGA,101612.00,3030.68683308,N,11424.06988302,E,2,04,2.2,68.903,M,-12.686,M,1.0,0000*57
$GPGGA,101613.00,3030.68681467,N,11424.06988644,E,2,04,2.2,68.896,M,-12.686,M,1.0,0000*50
$GPGGA,101614.00,3030.68681647,N,11424.06988553,E,2,03,2.2,68.899,M,-12.686,M,2.0,0000*59
$GPGGA,101615.00,3030.68679271,N,11424.06989535,E,2,03,2.2,68.823,M,-12.686,M,2.0,0000*5E
$GPGGA,101616.00,3030.68681905,N,11424.06989430,E,2,03,2.2,68.879,M,-12.686,M,1.0,0000*5A
$GPGGA,101617.00,3030.68680040,N,11424.06989932,E,2,03,2.2,68.847,M,-12.686,M,1.0,0000*50
