$GPGGA,121709.00,3030.71445504,N,11424.40807867,E,1,19,0.9,40.332,M,-12.666,M,,*7D
$GPGGA,121710.00,3030.71446729,N,11424.40807133,E,1,19,0.9,40.350,M,-12.666,M,,*77
$GPGGA,121711.00,3030.71447806,N,11424.40805847,E,1,19,0.9,40.361,M,-12.666,M,,*7F
$GPGGA,121712.00,3030.71449036,N,11424.40804653,E,1,19,0.9,40.369,M,-12.666,M,,*7B
$GPGGA,121713.00,3030.71450116,N,11424.40803332,E,1,19,0.9,40.377,M,-12.666,M,,*7B
$GPGGA,121714.00,3030.71450294,N,11424.40801795,E,1,20,0.9,40.362,M,-12.666,M,,*70
$GPGGA,121715.00,3030.71451656,N,11424.40802188,E,1,20,0.9,40.324,M,-12.666,M,,*71
$GPGGA,121716.00,3030.71452574,N,11424.40802534,E,1,20,0.9,40.288,M,-12.666,M,,*76
$GPGGA,121717.00,3030.71453188,N,11424.40802320,E,1,20,0.9,40.268,M,-12.666,M,,*7C
$GPGGA,121718.00,3030.71453545,N,11424.40801871,E,1,20,0.9,40.243,M,-12.666,M,,*73
$GPGGA,121719.00,3030.71454902,N,11424.40802094,E,1,18,1.2,40.214,M,-12.666,M,,*79
$GPGGA,121720.00,3030.71457207,N,11424.40804008,E,1,18,1.2,40.169,M,-12.666,M,,*74
$GPGGA,121721.00,3030.71459740,N,11424.40806431,E,1,17,1.2,40.124,M,-12.666,M,,*77
$GPGGA,121722.00,3030.71461524,N,11424.40807302,E,1,17,1.2,40.093,M,-12.666,M,,*74
$GPGGA,121723.00,3030.71464063,N,11424.40808683,E,1,16,1.2,40.057,M,-12.666,M,,*7C
$GPGGA,121724.00,3030.71466756,N,11424.40810810,E,1,16,1.2,40.007,M,-12.666,M,,*70
$GPGGA,121725.00,3030.71469789,N,11424.40813025,E,1,16,1.2,39.957,M,-12.666,M,,*73
$GPGGA,121726.00,3030.71474610,N,11424.40817230,E,1,16,1.2,39.879,M,-12.666,M,,*72
$GPGGA,121727.00,3030.71477674,N,11424.40819712,E,1,15,1.3,39.826,M,-12.666,M,,*71
$GPGGA,121728.00,3030.71479385,N,11424.40820260,E,1,15,1.3,39.780,M,-12.666,M,,*72
$GPGGA,121729.00,3030.71482807,N,11424.40822554,E,1,15,1.3,39.717,M,-12.666,M,,*7A
$GPGGA,121730.00,3030.71487650,N,11424.40826639,E,1,16,1.2,39.631,M,-12.666,M,,*70
$GPGGA,121731.00,3030.71493236,N,11424.40830189,E,1,16,1.2,39.541,M,-12.666,M,,*7F
$GPGGA,121732.00,3030.71497884,N,11424.40832377,E,1,17,1.2,39.451,M,-12.666,M,,*7B
$GPGGA,121733.00,3030.71501201,N,11424.40832257,E,1,17,1.2,39.340,M,-12.666,M,,*77
$GPGGA,121734.00,3030.71504754,N,11424.40833219,E,1,17,1.2,39.208,M,-12.666,M,,*76
$GPGGA,121735.00,3030.71508631,N,11424.40834538,E,1,17,1.4,39.083,M,-12.666,M,,*7D
$GPGGA,121736.00,3030.71511631,N,11424.40834274,E,1,16,1.4,38.964,M,-12.666,M,,*79
$GPGGA,121737.00,3030.71513596,N,11424.40833087,E,1,16,1.4,38.826,M,-12.666,M,,*7A
$GPGGA,121738.00,3030.71515478,N,11424.40831871,E,1,16,1.4,38.665,M,-12.666,M,,*78
$GPGGA,121739.00,3030.71517677,N,11424.40831219,E,1,16,1.4,38.501,M,-12.666,M,,*73
$GPGGA,121740.00,3030.71519721,N,11424.40830026,E,1,16,1.4,38.358,M,-12.666,M,,*74
$GPGGA,121741.00,3030.71521310,N,11424.40828079,E,1,16,1.4,38.190,M,-12.666,M,,*7D
$GPGGA,121742.00,3030.71523033,N,11424.40826417,E,1,16,1.4,38.028,M,-12.666,M,,*7E
$GPGGA,121743.00,3030.71524938,N,11424.40825174,E,1,16,1.4,37.862,M,-12.666,M,,*70
$GPGGA,121744.00,3030.71526176,N,11424.40822835,E,1,16,1.4,37.714,M,-12.666,M,,*72
$GPGGA,121745.00,3030.71527719,N,11424.40820744,E,1,16,1.4,37.581,M,-12.666,M,,*78
$GPGGA,121746.00,3030.71529108,N,11424.40818612,E,1,16,1.4,37.450,M,-12.666,M,,*77
$GPGGA,121747.00,3030.71530680,N,11424.40817491,E,1,16,1.4,37.324,M,-12.666,M,,*7B
$GPGGA,121748.00,3030.71532243,N,11424.40815515,E,1,17,1.3,37.224,M,-12.666,M,,*75
$GPGGA,121749.00,3030.71533758,N,11424.40814040,E,1,17,1.3,37.106,M,-12.666,M,,*7D
$GPGGA,121750.00,3030.71534617,N,11424.40811684,E,1,17,1.3,37.000,M,-12.666,M,,*74
$GPGGA,121751.00,3030.71535216,N,11424.40809573,E,1,17,1.3,36.885,M,-12.666,M,,*77
$GPGGA,121752.00,3030.71534348,N,11424.40806656,E,1,18,1.2,36.829,M,-12.666,M,,*7C
$GPGGA,121753.00,3030.71532881,N,11424.40803549,E,1,18,1.2,36.801,M,-12.666,M,,*77
$GPGGA,121754.00,3030.71530857,N,11424.40799681,E,1,18,1.2,36.771,M,-12.666,M,,*7A
$GPGGA,121755.00,3030.71528217,N,11424.40796566,E,1,18,1.2,36.774,M,-12.666,M,,*7C
$GPGGA,121756.00,3030.71524235,N,11424.40791885,E,1,18,1.2,36.797,M,-12.666,M,,*79
$GPGGA,121757.00,3030.71518152,N,11424.40788049,E,1,18,1.2,36.916,M,-12.666,M,,*72
$GPGGA,121758.00,3030.71511846,N,11424.40784205,E,1,18,1.2,37.030,M,-12.666,M,,*72
$GPGGA,121759.00,3030.71505774,N,11424.40779525,E,1,19,1.1,37.083,M,-12.666,M,,*75
$GPGGA,121800.00,3030.71499998,N,11424.40775286,E,1,19,1.1,37.118,M,-12.666,M,,*7F
$GPGGA,121801.00,3030.71494846,N,11424.40770667,E,1,19,1.1,37.143,M,-12.666,M,,*71
$GPGGA,121802.00,3030.71490155,N,11424.40766225,E,1,19,1.0,37.179,M,-12.666,M,,*70
$GPGGA,121803.00,3030.71485952,N,11424.40762739,E,1,19,1.0,37.192,M,-12.666,M,,*73
$GPGGA,121804.00,3030.71482062,N,11424.40758434,E,1,19,1.0,37.193,M,-12.666,M,,*7F
$GPGGA,121805.00,3030.71478595,N,11424.40754481,E,1,19,1.0,37.213,M,-12.666,M,,*7F
$GPGGA,121806.00,3030.71476024,N,11424.40751148,E,1,19,1.0,37.235,M,-12.666,M,,*7C
$GPGGA,121807.00,3030.71474011,N,11424.40748550,E,1,19,1.0,37.258,M,-12.666,M,,*77
$GPGGA,121808.00,3030.71472372,N,11424.40745984,E,1,19,1.0,37.281,M,-12.666,M,,*74
$GPGGA,121809.00,3030.71471472,N,11424.40743879,E,1,19,1.0,37.267,M,-12.666,M,,*7C
$GPGGA,121810.00,3030.71472391,N,11424.40743512,E,1,19,1.0,37.241,M,-12.666,M,,*79
$GPGGA,121811.00,3030.71475051,N,11424.40744755,E,1,19,1.0,37.192,M,-12.666,M,,*7B
$GPGGA,121812.00,3030.71477087,N,11424.40745428,E,1,19,1.0,37.154,M,-12.666,M,,*73
$GPGGA,121813.00,3030.71478833,N,11424.40745580,E,1,18,1.1,37.123,M,-12.666,M,,*79
$GPGGA,121814.00,3030.71480180,N,11424.40744938,E,1,18,1.1,37.106,M,-12.666,M,,*71
$GPGGA,121815.00,3030.71481530,N,11424.40744617,E,1,17,1.1,37.076,M,-12.666,M,,*75
$GPGGA,121816.00,3030.71482883,N,11424.40743877,E,1,17,1.1,37.043,M,-12.666,M,,*79
$GPGGA,121817.00,3030.71484202,N,11424.40742717,E,1,17,1.1,37.052,M,-12.666,M,,*75
$GPGGA,121818.00,3030.71486125,N,11424.40743519,E,1,17,1.1,37.075,M,-12.666,M,,*76
$GPGGA,121819.00,3030.71488332,N,11424.40744922,E,1,17,1.1,37.102,M,-12.666,M,,*7F
$GPGGA,121820.00,3030.71490172,N,11424.40745963,E,1,17,1.1,37.121,M,-12.666,M,,*7F
$GPGGA,121821.00,3030.71491684,N,11424.40746362,E,1,17,1.1,37.125,M,-12.666,M,,*7D
$GPGGA,121822.00,3030.71493427,N,11424.40747522,E,1,17,1.1,37.140,M,-12.666,M,,*77
$GPGGA,121823.00,3030.71495178,N,11424.40748772,E,1,17,1.1,37.169,M,-12.666,M,,*7C
$GPGGA,121824.00,3030.71496883,N,11424.40750891,E,1,17,1.1,37.190,M,-12.666,M,,*78
$GPGGA,121825.00,3030.71498550,N,11424.40752759,E,1,17,1.1,37.207,M,-12.666,M,,*70
$GPGGA,121826.00,3030.71499904,N,11424.40753886,E,1,17,1.1,37.250,M,-12.666,M,,*71
$GPGGA,121827.00,3030.71500934,N,11424.40754779,E,1,17,1.1,37.291,M,-12.666,M,,*77
$GPGGA,121828.00,3030.71501946,N,11424.40756531,E,1,16,1.4,37.311,M,-12.666,M,,*7D
$GPGGA,121829.00,3030.71503209,N,11424.40758446,E,1,17,1.4,37.324,M,-12.666,M,,*76
$GPGGA,121830.00,3030.71504783,N,11424.40759710,E,1,17,1.4,37.337,M,-12.666,M,,*7D
$GPGGA,121831.00,3030.71506668,N,11424.40761447,E,1,18,1.4,37.341,M,-12.666,M,,*7E
$GPGGA,121832.00,3030.71508804,N,11424.40763965,E,1,18,1.4,37.362,M,-12.666,M,,*79
$GPGGA,121833.00,3030.71511077,N,11424.40766782,E,1,18,1.0,37.369,M,-12.666,M,,*71
$GPGGA,121834.00,3030.71513545,N,11424.40769230,E,1,17,1.0,37.369,M,-12.666,M,,*7C
$GPGGA,121835.00,3030.71516480,N,11424.40771365,E,1,17,1.0,37.371,M,-12.666,M,,*71
$GPGGA,121836.00,3030.71519151,N,11424.40772380,E,1,16,1.1,37.344,M,-12.666,M,,*7A
$GPGGA,121837.00,3030.71521743,N,11424.40774002,E,1,15,1.1,37.342,M,-12.666,M,,*7F
$GPGGA,121838.00,3030.71523149,N,11424.40774401,E,1,15,1.1,37.333,M,-12.666,M,,*7F
$GPGGA,121839.00,3030.71523815,N,11424.40774255,E,1,15,1.1,37.283,M,-12.666,M,,*73
$GPGGA,121840.00,3030.71523258,N,11424.40772151,E,1,16,0.8,37.252,M,-12.666,M,,*78
$GPGGA,121841.00,3030.71523169,N,11424.40769312,E,1,17,0.8,37.231,M,-12.666,M,,*73
$GPGGA,121842.00,3030.71522682,N,11424.40766197,E,1,17,0.8,37.191,M,-12.666,M,,*7A
$GPGGA,121843.00,3030.71521296,N,11424.40763108,E,1,17,0.8,37.119,M,-12.666,M,,*7A
$GPGGA,121844.00,3030.71518763,N,11424.40758541,E,1,17,0.8,36.995,M,-12.666,M,,*74
$GPGGA,121845.00,3030.71517182,N,11424.40755613,E,1,17,0.8,36.899,M,-12.666,M,,*77
$GPGGA,121846.00,3030.71516322,N,11424.40754894,E,1,17,0.8,36.815,M,-12.666,M,,*79
$GPGGA,121847.00,3030.71512908,N,11424.40751631,E,1,17,0.8,36.797,M,-12.666,M,,*7F
$GPGGA,121848.00,3030.71508025,N,11424.40747429,E,1,17,0.8,36.791,M,-12.666,M,,*77
$GPGGA,121849.00,3030.71503481,N,11424.40743816,E,1,17,0.8,36.726,M,-12.666,M,,*7F
$GPGGA,121850.00,3030.71497733,N,11424.40739359,E,1,17,0.8,36.701,M,-12.666,M,,*79
$GPGGA,121851.00,3030.71491896,N,11424.40735124,E,1,16,1.1,36.677,M,-12.666,M,,*73
$GPGGA,121852.00,3030.71486789,N,11424.40731320,E,1,17,0.8,36.697,M,-12.666,M,,*72
$GPGGA,121853.00,3030.71481509,N,11424.40727817,E,1,17,0.8,36.708,M,-12.666,M,,*71
$GPGGA,121854.00,3030.71476149,N,11424.40723690,E,1,17,0.8,36.739,M,-12.666,M,,*79
$GPGGA,121855.00,3030.71471080,N,11424.40720690,E,1,17,0.8,36.763,M,-12.666,M,,*77
$GPGGA,121856.00,3030.71466242,N,11424.40718086,E,1,17,0.8,36.797,M,-12.666,M,,*7F
$GPGGA,121857.00,3030.71461857,N,11424.40715895,E,1,17,0.8,36.853,M,-12.666,M,,*77
$GPGGA,121858.00,3030.71457602,N,11424.40712794,E,1,17,0.8,36.916,M,-12.666,M,,*7A
$GPGGA,121859.00,3030.71453491,N,11424.40709975,E,1,17,0.8,36.971,M,-12.666,M,,*7D
$GPGGA,121900.00,3030.71450081,N,11424.40707249,E,1,17,0.8,37.042,M,-12.666,M,,*74
$GPGGA,121901.00,3030.71446878,N,11424.40705650,E,1,18,0.8,37.102,M,-12.666,M,,*78
$GPGGA,121902.00,3030.71443810,N,11424.40703592,E,1,18,0.8,37.161,M,-12.666,M,,*7E
$GPGGA,121903.00,3030.71440728,N,11424.40702256,E,1,18,0.8,37.203,M,-12.666,M,,*71
$GPGGA,121904.00,3030.71437812,N,11424.40699984,E,1,18,0.8,37.230,M,-12.666,M,,*77
$GPGGA,121905.00,3030.71435385,N,11424.40698707,E,1,18,0.8,37.272,M,-12.666,M,,*73
$GPGGA,121906.00,3030.71433225,N,11424.40697784,E,1,18,0.8,37.306,M,-12.666,M,,*7B
$GPGGA,121907.00,3030.71431526,N,11424.40696686,E,1,15,2.4,37.348,M,-12.666,M,,*77
$GPGGA,121908.00,3030.71430548,N,11424.40695853,E,1,15,2.4,37.390,M,-12.666,M,,*71
$GPGGA,121909.00,3030.71430510,N,11424.40695733,E,1,15,2.4,37.430,M,-12.666,M,,*79
$GPGGA,121910.00,3030.71431622,N,11424.40696388,E,1,15,2.4,37.463,M,-12.666,M,,*73
$GPGGA,121911.00,3030.71434798,N,11424.40698584,E,1,15,2.4,37.469,M,-12.666,M,,*79
$GPGGA,121912.00,3030.71436958,N,11424.40700913,E,1,15,2.4,37.456,M,-12.666,M,,*74
$GPGGA,121913.00,3030.71439854,N,11424.40702280,E,1,15,2.4,37.479,M,-12.666,M,,*79
$GPGGA,121914.00,3030.71444508,N,11424.40706053,E,1,15,2.4,37.460,M,-12.666,M,,*70
$GPGGA,121915.00,3030.71450137,N,11424.40710355,E,1,15,2.4,37.441,M,-12.666,M,,*7D
$GPGGA,121916.00,3030.71456010,N,11424.40713801,E,1,15,2.4,37.461,M,-12.666,M,,*77
$GPGGA,121917.00,3030.71462061,N,11424.40718453,E,1,16,2.1,37.453,M,-12.666,M,,*70
$GPGGA,121918.00,3030.71468438,N,11424.40723353,E,1,16,2.1,37.454,M,-12.666,M,,*75
$GPGGA,121919.00,3030.71474583,N,11424.40727123,E,1,16,2.1,37.454,M,-12.666,M,,*79
$GPGGA,121920.00,3030.71481555,N,11424.40731574,E,1,16,2.1,37.451,M,-12.666,M,,*76
$GPGGA,121921.00,3030.71488119,N,11424.40735315,E,1,16,2.1,37.446,M,-12.666,M,,*71
$GPGGA,121922.00,3030.71494751,N,11424.40738951,E,1,16,2.1,37.450,M,-12.666,M,,*75
$GPGGA,121923.00,3030.71501534,N,11424.40742977,E,1,17,1.5,37.452,M,-12.666,M,,*75
$GPGGA,121924.00,3030.71508511,N,11424.40747287,E,1,17,1.5,37.430,M,-12.666,M,,*79
$GPGGA,121925.00,3030.71515756,N,11424.40751569,E,1,17,1.5,37.465,M,-12.666,M,,*75
$GPGGA,121926.00,3030.71522821,N,11424.40757030,E,1,17,1.5,37.501,M,-12.666,M,,*71
$GPGGA,121927.00,3030.71530047,N,11424.40762884,E,1,17,1.5,37.538,M,-12.666,M,,*70
$GPGGA,121928.00,3030.71536958,N,11424.40768299,E,1,18,1.3,37.559,M,-12.666,M,,*7C
$GPGGA,121929.00,3030.71543401,N,11424.40774057,E,1,18,1.3,37.554,M,-12.666,M,,*7E
$GPGGA,121930.00,3030.71549141,N,11424.40779347,E,1,18,1.3,37.559,M,-12.666,M,,*7F
$GPGGA,121931.00,3030.71554962,N,11424.40784964,E,1,18,1.3,37.547,M,-12.666,M,,*7D
$GPGGA,121932.00,3030.71559798,N,11424.40791292,E,1,17,1.3,37.522,M,-12.666,M,,*72
$GPGGA,121933.00,3030.71563372,N,11424.40796299,E,1,17,1.3,37.506,M,-12.666,M,,*70
$GPGGA,121934.00,3030.71566846,N,11424.40802452,E,1,17,1.3,37.476,M,-12.666,M,,*7B
$GPGGA,121935.00,3030.71570081,N,11424.40809278,E,1,16,1.3,37.437,M,-12.666,M,,*7F
$GPGGA,121936.00,3030.71572655,N,11424.40815233,E,1,16,1.3,37.375,M,-12.666,M,,*72
$GPGGA,121937.00,3030.71574521,N,11424.40820504,E,1,16,1.3,37.335,M,-12.666,M,,*74
$GPGGA,121938.00,3030.71576050,N,11424.40825638,E,1,16,1.3,37.305,M,-12.666,M,,*70
$GPGGA,121939.00,3030.71576329,N,11424.40830235,E,1,16,1.3,37.274,M,-12.666,M,,*76
$GPGGA,121940.00,3030.71575004,N,11424.40834592,E,1,16,1.3,37.196,M,-12.666,M,,*76
$GPGGA,121941.00,3030.71574268,N,11424.40838704,E,1,14,1.4,37.177,M,-12.666,M,,*75
$GPGGA,121942.00,3030.71573890,N,11424.40842067,E,1,14,1.4,37.231,M,-12.666,M,,*72
$GPGGA,121943.00,3030.71571430,N,11424.40844744,E,1,15,0.9,37.227,M,-12.666,M,,*7D
$GPGGA,121944.00,3030.71569350,N,11424.40847754,E,1,15,0.9,37.246,M,-12.666,M,,*77
$GPGGA,121945.00,3030.71566005,N,11424.40848796,E,1,16,0.9,37.299,M,-12.666,M,,*7A
$GPGGA,121946.00,3030.71562488,N,11424.40849461,E,1,16,0.9,37.379,M,-12.666,M,,*79
$GPGGA,121947.00,3030.71560128,N,11424.40849302,E,1,16,0.9,37.510,M,-12.666,M,,*7E
$GPGGA,121948.00,3030.71557943,N,11424.40849349,E,1,16,0.9,37.654,M,-12.666,M,,*7C
$GPGGA,121949.00,3030.71555725,N,11424.40849156,E,1,16,0.9,37.791,M,-12.666,M,,*75
$GPGGA,121950.00,3030.71553053,N,11424.40848663,E,1,16,0.9,37.923,M,-12.666,M,,*7A
$GPGGA,121951.00,3030.71550283,N,11424.40847489,E,1,16,0.9,38.078,M,-12.666,M,,*76
$GPGGA,121952.00,3030.71547369,N,11424.40847273,E,1,16,0.9,38.232,M,-12.666,M,,*79
$GPGGA,121953.00,3030.71543716,N,11424.40845657,E,1,17,0.8,38.388,M,-12.666,M,,*70
$GPGGA,121954.00,3030.71539710,N,11424.40843729,E,1,17,0.8,38.531,M,-12.666,M,,*76
$GPGGA,121955.00,3030.71535559,N,11424.40841836,E,1,16,0.9,38.662,M,-12.666,M,,*72
$GPGGA,121956.00,3030.71531680,N,11424.40839376,E,1,16,0.9,38.802,M,-12.666,M,,*7A
$GPGGA,121957.00,3030.71528464,N,11424.40837963,E,1,16,0.9,38.953,M,-12.666,M,,*7E
$GPGGA,121958.00,3030.71525197,N,11424.40835292,E,1,15,1.4,39.107,M,-12.666,M,,*75
$GPGGA,121959.00,3030.71522084,N,11424.40832923,E,1,14,1.4,39.242,M,-12.666,M,,*75
$GPGGA,122000.00,3030.71519580,N,11424.40830994,E,1,14,1.4,39.380,M,-12.666,M,,*7B
$GPGGA,122001.00,3030.71517239,N,11424.40828857,E,1,15,1.4,39.517,M,-12.666,M,,*7F
$GPGGA,122002.00,3030.71514423,N,11424.40826257,E,1,15,1.4,39.622,M,-12.666,M,,*73
$GPGGA,122003.00,3030.71511586,N,11424.40823231,E,1,15,1.4,39.715,M,-12.666,M,,*79
$GPGGA,122004.00,3030.71508693,N,11424.40819582,E,1,15,1.4,39.806,M,-12.666,M,,*7A
$GPGGA,122005.00,3030.71505739,N,11424.40816112,E,1,14,1.6,39.877,M,-12.666,M,,*70
$GPGGA,122006.00,3030.71502965,N,11424.40812496,E,1,14,1.6,39.951,M,-12.666,M,,*7B
$GPGGA,122007.00,3030.71499893,N,11424.40807832,E,1,15,1.6,40.023,M,-12.666,M,,*74
$GPGGA,122008.00,3030.71496717,N,11424.40803506,E,1,15,1.6,40.074,M,-12.666,M,,*7B
$GPGGA,122009.00,3030.71493634,N,11424.40799529,E,1,15,1.6,40.124,M,-12.666,M,,*7A
$GPGGA,122010.00,3030.71490136,N,11424.40794875,E,1,15,1.6,40.167,M,-12.666,M,,*7A
$GPGGA,122011.00,3030.71486739,N,11424.40790231,E,1,15,1.6,40.220,M,-12.666,M,,*7B
$GPGGA,122012.00,3030.71483822,N,11424.40785417,E,1,15,1.6,40.284,M,-12.666,M,,*70
$GPGGA,122013.00,3030.71481245,N,11424.40781580,E,1,15,1.6,40.335,M,-12.666,M,,*78
$GPGGA,122014.00,3030.71478200,N,11424.40776800,E,1,16,1.4,40.399,M,-12.666,M,,*72
$GPGGA,122015.00,3030.71476258,N,11424.40773070,E,1,16,1.4,40.457,M,-12.666,M,,*7F
$GPGGA,122016.00,3030.71474567,N,11424.40769139,E,1,16,1.4,40.521,M,-12.666,M,,*72
$GPGGA,122017.00,3030.71472914,N,11424.40765402,E,1,15,1.4,40.576,M,-12.666,M,,*7D
$GPGGA,122018.00,3030.71471782,N,11424.40762956,E,1,15,1.4,40.618,M,-12.666,M,,*70
$GPGGA,122019.00,3030.71471225,N,11424.40760349,E,1,16,1.4,40.655,M,-12.666,M,,*75
$GPGGA,122020.00,3030.71471627,N,11424.40758358,E,1,16,1.4,40.674,M,-12.666,M,,*71
$GPGGA,122021.00,3030.71473246,N,11424.40757157,E,1,16,1.4,40.674,M,-12.666,M,,*73
$GPGGA,122022.00,3030.71476462,N,11424.40757174,E,1,16,1.1,40.643,M,-12.666,M,,*75
$GPGGA,122023.00,3030.71479520,N,11424.40757160,E,1,16,1.1,40.609,M,-12.666,M,,*77
$GPGGA,122024.00,3030.71482710,N,11424.40757992,E,1,16,1.1,40.575,M,-12.666,M,,*78
$GPGGA,122025.00,3030.71485832,N,11424.40758755,E,1,16,1.1,40.535,M,-12.666,M,,*7F
$GPGGA,122026.00,3030.71489346,N,11424.40760315,E,1,16,1.1,40.491,M,-12.666,M,,*7C
$GPGGA,122027.00,3030.71492862,N,11424.40762794,E,1,16,1.1,40.413,M,-12.666,M,,*7F
$GPGGA,122028.00,3030.71496741,N,11424.40765398,E,1,16,1.1,40.320,M,-12.666,M,,*72
$GPGGA,122029.00,3030.71500478,N,11424.40768729,E,1,16,1.1,40.207,M,-12.666,M,,*73
$GPGGA,122030.00,3030.71504231,N,11424.40772070,E,1,16,1.1,40.105,M,-12.666,M,,*75
$GPGGA,122031.00,3030.71507814,N,11424.40775154,E,1,17,1.1,40.009,M,-12.666,M,,*76
$GPGGA,122032.00,3030.71511556,N,11424.40777237,E,1,17,1.1,39.944,M,-12.666,M,,*73
$GPGGA,122033.00,3030.71515019,N,11424.40779877,E,1,18,1.1,39.887,M,-12.666,M,,*79
$GPGGA,122034.00,3030.71518471,N,11424.40781705,E,1,17,1.1,39.857,M,-12.666,M,,*76
$GPGGA,122035.00,3030.71521561,N,11424.40783301,E,1,18,1.0,39.836,M,-12.666,M,,*76
$GPGGA,122036.00,3030.71524647,N,11424.40784318,E,1,19,1.0,39.849,M,-12.666,M,,*71
$GPGGA,122037.00,3030.71527305,N,11424.40784660,E,1,19,1.0,39.864,M,-12.666,M,,*75
$GPGGA,122038.00,3030.71529428,N,11424.40783301,E,1,19,1.0,39.912,M,-12.666,M,,*79
$GPGGA,122039.00,3030.71531234,N,11424.40781357,E,1,19,1.0,39.978,M,-12.666,M,,*77
$GPGGA,122040.00,3030.71532339,N,11424.40778270,E,1,17,1.1,40.056,M,-12.666,M,,*70
$GPGGA,122041.00,3030.71533346,N,11424.40774646,E,1,17,1.1,40.121,M,-12.666,M,,*74
$GPGGA,122042.00,3030.71533878,N,11424.40771157,E,1,17,1.1,40.199,M,-12.666,M,,*70
$GPGGA,122043.00,3030.71534161,N,11424.40766812,E,1,16,1.2,40.313,M,-12.666,M,,*7B
$GPGGA,122044.00,3030.71534424,N,11424.40761037,E,1,16,1.2,40.451,M,-12.666,M,,*71
$GPGGA,122045.00,3030.71534393,N,11424.40754012,E,1,15,1.2,40.579,M,-12.666,M,,*72
$GPGGA,122046.00,3030.71533672,N,11424.40747947,E,1,15,1.2,40.647,M,-12.666,M,,*79
$GPGGA,122047.00,3030.71532552,N,11424.40741336,E,1,15,1.2,40.726,M,-12.666,M,,*74
$GPGGA,122048.00,3030.71530792,N,11424.40734057,E,1,15,1.2,40.796,M,-12.666,M,,*7A
$GPGGA,122049.00,3030.71528913,N,11424.40726914,E,1,15,1.2,40.864,M,-12.666,M,,*7A
$GPGGA,122050.00,3030.71526365,N,11424.40718710,E,1,16,1.2,40.919,M,-12.666,M,,*78
$GPGGA,122051.00,3030.71524274,N,11424.40711118,E,1,16,1.2,40.964,M,-12.666,M,,*77
$GPGGA,122052.00,3030.71522111,N,11424.40703505,E,1,16,1.2,40.998,M,-12.666,M,,*7A
$GPGGA,122053.00,3030.71519675,N,11424.40695224,E,1,17,1.2,41.041,M,-12.666,M,,*71
$GPGGA,122054.00,3030.71517385,N,11424.40686221,E,1,17,1.2,41.088,M,-12.666,M,,*70
$GPGGA,122055.00,3030.71514849,N,11424.40678723,E,1,17,1.2,41.091,M,-12.667,M,,*76
$GPGGA,122056.00,3030.71512838,N,11424.40670817,E,1,17,1.2,41.102,M,-12.667,M,,*7E
$GPGGA,122057.00,3030.71510771,N,11424.40662603,E,1,17,1.2,41.123,M,-12.667,M,,*74
$GPGGA,122058.00,3030.71509292,N,11424.40653834,E,1,16,1.2,41.136,M,-12.667,M,,*76
$GPGGA,122059.00,3030.71507817,N,11424.40647036,E,1,17,1.2,41.120,M,-12.667,M,,*77
$GPGGA,122100.00,3030.71505581,N,11424.40641494,E,1,17,1.2,41.103,M,-12.667,M,,*71
$GPGGA,122101.00,3030.71503662,N,11424.40636324,E,1,15,1.2,41.070,M,-12.667,M,,*73
$GPGGA,122102.00,3030.71502682,N,11424.40632399,E,1,16,1.2,41.027,M,-12.667,M,,*7C
$GPGGA,122103.00,3030.71501338,N,11424.40628530,E,1,16,1.2,40.971,M,-12.667,M,,*7F
$GPGGA,122104.00,3030.71500869,N,11424.40624195,E,1,16,1.2,40.930,M,-12.667,M,,*74
$GPGGA,122105.00,3030.71500198,N,11424.40621016,E,1,16,1.2,40.885,M,-12.667,M,,*72
$GPGGA,122106.00,3030.71501012,N,11424.40620945,E,1,16,1.2,40.826,M,-12.667,M,,*74
$GPGGA,122107.00,3030.71502016,N,11424.40622812,E,1,15,1.2,40.751,M,-12.667,M,,*7F
$GPGGA,122108.00,3030.71502992,N,11424.40622539,E,1,13,1.3,40.702,M,-12.667,M,,*70
$GPGGA,122109.00,3030.71503997,N,11424.40622193,E,1,14,1.3,40.660,M,-12.667,M,,*73
$GPGGA,122110.00,3030.71504945,N,11424.40621242,E,1,14,1.3,40.647,M,-12.667,M,,*7A
$GPGGA,122111.00,3030.71505807,N,11424.40621525,E,1,16,1.2,40.612,M,-12.667,M,,*78
$GPGGA,122112.00,3030.71506475,N,11424.40621194,E,1,15,1.3,40.598,M,-12.667,M,,*7C
$GPGGA,122113.00,3030.71506771,N,11424.40619440,E,1,15,1.3,40.614,M,-12.667,M,,*7A
$GPGGA,122114.00,3030.71506891,N,11424.40617697,E,1,15,1.3,40.635,M,-12.667,M,,*79
$GPGGA,122115.00,3030.71507072,N,11424.40617161,E,1,15,1.3,40.644,M,-12.667,M,,*74
$GPGGA,122116.00,3030.71507324,N,11424.40617841,E,1,16,1.3,40.664,M,-12.667,M,,*7D
$GPGGA,122117.00,3030.71507585,N,11424.40616980,E,1,17,1.3,40.713,M,-12.667,M,,*7C
$GPGGA,122118.00,3030.71507717,N,11424.40616893,E,1,17,1.3,40.758,M,-12.667,M,,*76
$GPGGA,122119.00,3030.71507840,N,11424.40616317,E,1,18,1.3,40.810,M,-12.667,M,,*71
$GPGGA,122120.00,3030.71507868,N,11424.40616686,E,1,18,1.3,40.842,M,-12.667,M,,*7B
$GPGGA,122121.00,3030.71508032,N,11424.40618108,E,1,18,1.3,40.865,M,-12.667,M,,*78
$GPGGA,122122.00,3030.71507854,N,11424.40617349,E,1,19,1.0,40.912,M,-12.667,M,,*77
$GPGGA,122123.00,3030.71507969,N,11424.40617122,E,1,19,1.0,40.958,M,-12.667,M,,*78
$GPGGA,122124.00,3030.71508182,N,11424.40615852,E,1,19,1.0,41.046,M,-12.667,M,,*76
$GPGGA,122125.00,3030.71508011,N,11424.40615273,E,1,19,1.0,41.110,M,-12.667,M,,*77
$GPGGA,122126.00,3030.71508450,N,11424.40614429,E,1,20,0.9,41.188,M,-12.667,M,,*7E
$GPGGA,122127.00,3030.71509116,N,11424.40613342,E,1,21,0.9,41.266,M,-12.667,M,,*76
$GPGGA,122128.00,3030.71509772,N,11424.40611313,E,1,21,0.9,41.386,M,-12.667,M,,*74
$GPGGA,122129.00,3030.71510776,N,11424.40609432,E,1,22,0.9,41.478,M,-12.667,M,,*71
$GPGGA,122130.00,3030.71512094,N,11424.40608339,E,1,20,0.9,41.609,M,-12.667,M,,*7B
$GPGGA,122131.00,3030.71513632,N,11424.40607099,E,1,19,1.1,41.727,M,-12.667,M,,*79
$GPGGA,122132.00,3030.71515465,N,11424.40605696,E,1,19,1.1,41.866,M,-12.667,M,,*7D
$GPGGA,122133.00,3030.71516949,N,11424.40602833,E,1,19,1.1,42.040,M,-12.667,M,,*75
$GPGGA,122134.00,3030.71519657,N,11424.40600510,E,1,18,1.2,42.203,M,-12.667,M,,*74
$GPGGA,122135.00,3030.71523221,N,11424.40599419,E,1,18,1.2,42.340,M,-12.667,M,,*74
$GPGGA,122136.00,3030.71526571,N,11424.40595883,E,1,19,0.8,42.539,M,-12.667,M,,*71
$GPGGA,122137.00,3030.71529234,N,11424.40591225,E,1,18,0.8,42.752,M,-12.667,M,,*75
$GPGGA,122138.00,3030.71531525,N,11424.40585882,E,1,18,0.8,42.974,M,-12.667,M,,*7C
$GPGGA,122139.00,3030.71533773,N,11424.40580858,E,1,18,0.8,43.168,M,-12.667,M,,*78
$GPGGA,122140.00,3030.71535701,N,11424.40575745,E,1,19,0.8,43.352,M,-12.667,M,,*76
$GPGGA,122141.00,3030.71537250,N,11424.40570552,E,1,18,0.8,43.517,M,-12.667,M,,*73
$GPGGA,122142.00,3030.71538561,N,11424.40565642,E,1,17,0.8,43.661,M,-12.667,M,,*71
$GPGGA,122143.00,3030.71539422,N,11424.40561021,E,1,17,0.8,43.793,M,-12.667,M,,*7C
$GPGGA,122144.00,3030.71539861,N,11424.40555923,E,1,17,0.8,43.897,M,-12.667,M,,*77
$GPGGA,122145.00,3030.71539904,N,11424.40551742,E,1,17,0.8,43.961,M,-12.667,M,,*71
$GPGGA,122146.00,3030.71539806,N,11424.40547123,E,1,17,0.8,44.005,M,-12.667,M,,*7B
$GPGGA,122147.00,3030.71539602,N,11424.40542266,E,1,17,0.8,44.039,M,-12.667,M,,*78
$GPGGA,122148.00,3030.71539393,N,11424.40537082,E,1,17,0.8,44.073,M,-12.667,M,,*7E
$GPGGA,122149.00,3030.71539097,N,11424.40532071,E,1,18,0.8,44.077,M,-12.667,M,,*7A
$GPGGA,122150.00,3030.71538587,N,11424.40528439,E,1,18,0.8,44.029,M,-12.667,M,,*7F
$GPGGA,122151.00,3030.71537632,N,11424.40523443,E,1,18,0.8,43.986,M,-12.667,M,,*71
$GPGGA,122152.00,3030.71536848,N,11424.40519735,E,1,18,0.8,43.901,M,-12.667,M,,*74
$GPGGA,122153.00,3030.71536082,N,11424.40516307,E,1,18,0.8,43.816,M,-12.667,M,,*76
$GPGGA,122154.00,3030.71534867,N,11424.40512852,E,1,18,0.8,43.693,M,-12.667,M,,*7C
$GPGGA,122155.00,3030.71533307,N,11424.40509334,E,1,18,0.8,43.548,M,-12.667,M,,*73
$GPGGA,122156.00,3030.71531645,N,11424.40506325,E,1,18,0.8,43.381,M,-12.667,M,,*7D
$GPGGA,122157.00,3030.71529962,N,11424.40503632,E,1,18,0.8,43.211,M,-12.667,M,,*71
$GPGGA,122158.00,3030.71527929,N,11424.40500087,E,1,18,0.8,43.039,M,-12.667,M,,*7C
$GPGGA,122159.00,3030.71526083,N,11424.40497374,E,1,18,0.8,42.855,M,-12.667,M,,*76
$GPGGA,122200.00,3030.71523797,N,11424.40494845,E,1,18,0.8,42.659,M,-12.667,M,,*76
$GPGGA,122201.00,3030.71521649,N,11424.40492306,E,1,18,0.8,42.469,M,-12.667,M,,*7C
$GPGGA,122202.00,3030.71519475,N,11424.40489257,E,1,18,0.8,42.286,M,-12.667,M,,*71
$GPGGA,122203.00,3030.71517106,N,11424.40485979,E,1,19,0.8,42.102,M,-12.667,M,,*7A
$GPGGA,122204.00,3030.71514791,N,11424.40483083,E,1,18,1.2,41.916,M,-12.667,M,,*78
$GPGGA,122205.00,3030.71512940,N,11424.40480914,E,1,18,1.2,41.738,M,-12.667,M,,*7B
$GPGGA,122206.00,3030.71511104,N,11424.40478891,E,1,18,1.2,41.554,M,-12.667,M,,*70
$GPGGA,122207.00,3030.71509382,N,11424.40476886,E,1,18,1.2,41.398,M,-12.667,M,,*7A
$GPGGA,122208.00,3030.71507494,N,11424.40475405,E,1,19,1.1,41.231,M,-12.667,M,,*7F
$GPGGA,122209.00,3030.71505570,N,11424.40474032,E,1,19,1.1,41.070,M,-12.667,M,,*71
$GPGGA,122210.00,3030.71503747,N,11424.40473877,E,1,19,1.1,40.935,M,-12.667,M,,*7E
$GPGGA,122211.00,3030.71501875,N,11424.40473445,E,1,19,1.1,40.810,M,-12.667,M,,*78
$GPGGA,122212.00,3030.71499866,N,11424.40472505,E,1,21,1.0,40.700,M,-12.667,M,,*79
$GPGGA,122213.00,3030.71497897,N,11424.40472590,E,1,20,1.0,40.583,M,-12.667,M,,*7C
$GPGGA,122214.00,3030.71496094,N,11424.40474177,E,1,20,1.0,40.446,M,-12.667,M,,*72
$GPGGA,122215.00,3030.71494811,N,11424.40478156,E,1,20,1.0,40.305,M,-12.667,M,,*7B
$GPGGA,122216.00,3030.71494156,N,11424.40483195,E,1,20,1.0,40.159,M,-12.667,M,,*72
$GPGGA,122217.00,3030.71494245,N,11424.40488821,E,1,20,1.0,40.014,M,-12.667,M,,*77
$GPGGA,122218.00,3030.71494106,N,11424.40494800,E,1,20,1.0,39.870,M,-12.667,M,,*76
$GPGGA,122219.00,3030.71494312,N,11424.40502378,E,1,20,1.0,39.733,M,-12.667,M,,*72
$GPGGA,122220.00,3030.71494390,N,11424.40510775,E,1,20,1.0,39.581,M,-12.667,M,,*73
$GPGGA,122221.00,3030.71494656,N,11424.40518867,E,1,20,1.0,39.420,M,-12.667,M,,*73
$GPGGA,122222.00,3030.71494606,N,11424.40525959,E,1,20,1.0,39.280,M,-12.667,M,,*7B
$GPGGA,122223.00,3030.71494891,N,11424.40532986,E,1,20,1.0,39.139,M,-12.667,M,,*7F
$GPGGA,122224.00,3030.71495208,N,11424.40540228,E,1,20,1.0,38.987,M,-12.667,M,,*75
$GPGGA,122225.00,3030.71495338,N,11424.40547208,E,1,20,1.0,38.846,M,-12.667,M,,*7F
$GPGGA,122226.00,3030.71496123,N,11424.40554337,E,1,20,1.0,38.725,M,-12.667,M,,*72
$GPGGA,122227.00,3030.71497047,N,11424.40561189,E,1,19,1.1,38.618,M,-12.667,M,,*74
$GPGGA,122228.00,3030.71497898,N,11424.40567451,E,1,19,1.1,38.516,M,-12.667,M,,*7A
$GPGGA,122229.00,3030.71499637,N,11424.40576763,E,1,19,1.1,38.403,M,-12.667,M,,*79
$GPGGA,122230.00,3030.71501345,N,11424.40585606,E,1,19,1.1,38.259,M,-12.667,M,,*76
$GPGGA,122231.00,3030.71502975,N,11424.40593006,E,1,19,1.1,38.119,M,-12.667,M,,*7B
$GPGGA,122232.00,3030.71505109,N,11424.40599034,E,1,19,1.1,37.996,M,-12.667,M,,*77
$GPGGA,122233.00,3030.71507072,N,11424.40605911,E,1,19,1.1,37.862,M,-12.667,M,,*7B
$GPGGA,122234.00,3030.71508400,N,11424.40613051,E,1,19,1.1,37.731,M,-12.667,M,,*71
$GPGGA,122235.00,3030.71509238,N,11424.40618707,E,1,19,1.1,37.610,M,-12.667,M,,*71
$GPGGA,122236.00,3030.71510343,N,11424.40625573,E,1,19,1.1,37.496,M,-12.667,M,,*74
$GPGGA,122237.00,3030.71511372,N,11424.40631236,E,1,19,1.1,37.386,M,-12.667,M,,*73
$GPGGA,122238.00,3030.71512228,N,11424.40636860,E,1,19,1.1,37.286,M,-12.667,M,,*7E
$GPGGA,122239.00,3030.71511478,N,11424.40638434,E,1,19,1.1,37.205,M,-12.667,M,,*77
$GPGGA,122240.00,3030.71510463,N,11424.40638474,E,1,19,1.1,37.150,M,-12.667,M,,*75
$GPGGA,122241.00,3030.71509669,N,11424.40638500,E,1,20,1.0,37.114,M,-12.667,M,,*7D
$GPGGA,122242.00,3030.71508880,N,11424.40638557,E,1,18,1.1,37.071,M,-12.667,M,,*7C
$GPGGA,122243.00,3030.71508202,N,11424.40638462,E,1,19,1.1,37.042,M,-12.667,M,,*7B
