$GPGGA,123107.00,3030.70546011,N,11424.42071948,E,2,18,1.2,43.009,M,-12.666,M,3.0,0137*5A
$GPGGA,123108.00,3030.70550407,N,11424.42067748,E,2,18,1.2,42.735,M,-12.666,M,4.0,0137*56
$GPGGA,123109.00,3030.70554720,N,11424.42063398,E,2,18,1.2,42.442,M,-12.666,M,5.0,0137*5A
$GPGGA,123110.00,3030.70558882,N,11424.42058855,E,2,18,1.2,42.146,M,-12.666,M,6.0,0137*59
$GPGGA,123111.00,3030.70563592,N,11424.42053996,E,2,18,1.2,41.840,M,-12.666,M,7.0,0137*54
$GPGGA,123112.00,3030.70568421,N,11424.42049017,E,2,18,1.2,41.528,M,-12.666,M,7.0,0137*5D
$GPGGA,123113.00,3030.70572742,N,11424.42043994,E,2,19,0.8,41.209,M,-12.666,M,3.0,0137*53
$GPGGA,123114.00,3030.70577465,N,11424.42038756,E,2,19,0.8,40.881,M,-12.666,M,4.0,0137*57
$GPGGA,123115.00,3030.70582319,N,11424.42033529,E,2,19,0.8,40.557,M,-12.666,M,5.0,0137*56
$GPGGA,123116.00,3030.70587472,N,11424.42027995,E,2,19,0.8,40.227,M,-12.666,M,6.0,0137*57
$GPGGA,123117.00,3030.70592380,N,11424.42022666,E,2,20,0.8,39.883,M,-12.666,M,7.0,0137*5F
$GPGGA,123118.00,3030.70597396,N,11424.42017407,E,2,19,1.1,39.548,M,-12.666,M,7.0,0137*59
$GPGGA,123119.00,3030.70602662,N,11424.42011927,E,2,19,1.1,39.213,M,-12.666,M,3.0,0137*5D
$GPGGA,123120.00,3030.70607307,N,11424.42006763,E,2,19,1.1,38.889,M,-12.666,M,4.0,0137*53
$GPGGA,123121.00,3030.70611537,N,11424.42001677,E,2,19,1.1,38.577,M,-12.666,M,5.0,0137*5E
$GPGGA,123122.00,3030.70615390,N,11424.41997078,E,2,19,1.1,38.275,M,-12.666,M,6.0,0137*58
$GPGGA,123123.00,3030.70619621,N,11424.41992169,E,2,18,1.1,37.965,M,-12.666,M,7.0,0137*5B
$GPGGA,123124.00,3030.70623321,N,11424.41987585,E,2,18,1.1,37.674,M,-12.666,M,7.0,0137*5D
$GPGGA,123125.00,3030.70626703,N,11424.41982872,E,2,18,1.1,37.385,M,-12.666,M,3.0,0137*52
$GPGGA,123126.00,3030.70629496,N,11424.41978923,E,2,18,1.1,37.129,M,-12.666,M,4.0,0137*52
$GPGGA,123127.00,3030.70632031,N,11424.41975232,E,2,18,1.1,36.875,M,-12.666,M,5.0,0137*56
$GPGGA,123128.00,3030.70634265,N,11424.41971618,E,2,18,1.1,36.623,M,-12.666,M,6.0,0137*5A
$GPGGA,123129.00,3030.70636335,N,11424.41968206,E,2,18,1.1,36.376,M,-12.666,M,7.0,0137*5A
$GPGGA,123130.00,3030.70637619,N,11424.41965265,E,2,18,1.1,36.150,M,-12.666,M,7.0,0137*56
$GPGGA,123131.00,3030.70639171,N,11424.41962776,E,2,18,1.1,35.929,M,-12.666,M,3.0,0137*51
$GPGGA,123132.00,3030.70639077,N,11424.41961478,E,2,18,1.1,35.761,M,-12.666,M,4.0,0137*5E
$GPGGA,123133.00,3030.70638592,N,11424.41960619,E,2,19,1.1,35.617,M,-12.666,M,5.0,0137*54
$GPGGA,123134.00,3030.70636549,N,11424.41961126,E,2,19,1.1,35.528,M,-12.666,M,6.0,0137*5D
$GPGGA,123135.00,3030.70635107,N,11424.41961032,E,2,19,1.1,35.410,M,-12.666,M,7.0,0137*5E
$GPGGA,123136.00,3030.70633364,N,11424.41961483,E,2,19,1.1,35.322,M,-12.666,M,7.0,0137*54
$GPGGA,123137.00,3030.70632294,N,11424.41961242,E,2,18,1.2,35.205,M,-12.666,M,3.0,0137*53
$GPGGA,123138.00,3030.70631653,N,11424.41960417,E,2,18,1.2,35.048,M,-12.666,M,4.0,0137*5B
$GPGGA,123139.00,3030.70631708,N,11424.41959040,E,2,18,1.2,34.868,M,-12.666,M,5.0,0137*53
$GPGGA,123140.00,3030.70630152,N,11424.41959108,E,2,18,1.2,34.725,M,-12.666,M,6.0,0137*5D
$GPGGA,123141.00,3030.70628358,N,11424.41959158,E,2,18,1.2,34.593,M,-12.666,M,7.0,0137*56
$GPGGA,123142.00,3030.70626375,N,11424.41959561,E,2,18,1.2,34.469,M,-12.666,M,7.0,0137*5E
$GPGGA,123143.00,3030.70624393,N,11424.41960159,E,2,18,1.2,34.357,M,-12.666,M,3.0,0137*5E
$GPGGA,123144.00,3030.70622461,N,11424.41960989,E,2,18,1.2,34.261,M,-12.666,M,4.0,0137*53
$GPGGA,123145.00,3030.70618960,N,11424.41963647,E,2,18,1.2,34.226,M,-12.666,M,5.0,0137*5B
$GPGGA,123146.00,3030.70614427,N,11424.41966433,E,2,18,1.2,34.186,M,-12.666,M,6.0,0137*54
$GPGGA,123147.00,3030.70611288,N,11424.41967958,E,2,18,1.2,34.094,M,-12.666,M,7.0,0137*51
$GPGGA,123148.00,3030.70607949,N,11424.41969810,E,2,18,1.2,34.019,M,-12.666,M,8.0,0137*56
$GPGGA,123149.00,3030.70604605,N,11424.41972080,E,2,18,1.2,33.951,M,-12.666,M,9.0,0137*5B
$GPGGA,123150.00,3030.70601544,N,11424.41974451,E,2,18,1.2,33.890,M,-12.666,M,10.0,0137*6A
$GPGGA,123151.00,3030.70598993,N,11424.41976802,E,2,18,1.2,33.836,M,-12.666,M,11.0,0137*6B
$GPGGA,123152.00,3030.70597662,N,11424.41977742,E,2,18,1.2,33.784,M,-12.666,M,12.0,0137*69
$GPGGA,123153.00,3030.70597105,N,11424.41977578,E,2,18,1.2,33.702,M,-12.666,M,13.0,0137*6A
$GPGGA,123154.00,3030.70595987,N,11424.41977747,E,2,18,1.2,33.647,M,-12.666,M,14.0,0137*64
$GPGGA,123155.00,3030.70595787,N,11424.41977773,E,2,18,1.2,33.576,M,-12.666,M,15.0,0137*6C
$GPGGA,123156.00,3030.70595359,N,11424.41978295,E,2,18,1.2,33.517,M,-12.666,M,16.0,0137*6E
$GPGGA,123157.00,3030.70595653,N,11424.41978407,E,2,18,1.2,33.457,M,-12.666,M,17.0,0137*69
$GPGGA,123158.00,3030.70596401,N,11424.41978308,E,2,18,1.2,33.391,M,-12.666,M,18.0,0137*6A
$GPGGA,123159.00,3030.70596913,N,11424.41978352,E,2,18,1.2,33.332,M,-12.666,M,19.0,0137*62
$GPGGA,123200.00,3030.70597299,N,11424.41978410,E,2,18,1.2,33.276,M,-12.666,M,20.0,0137*6F
$GPGGA,123201.00,3030.70598052,N,11424.41978493,E,2,18,1.2,33.221,M,-12.666,M,21.0,0137*6C
$GPGGA,123202.00,3030.70599955,N,11424.41978426,E,2,18,1.2,33.167,M,-12.666,M,22.0,0137*6C
$GPGGA,123203.00,3030.70601887,N,11424.41978669,E,2,18,1.2,33.116,M,-12.666,M,23.0,0137*6F
$GPGGA,123204.00,3030.70604553,N,11424.41978527,E,2,18,1.2,33.060,M,-12.666,M,24.0,0137*67
$GPGGA,123205.00,3030.70606959,N,11424.41978482,E,2,18,1.2,33.010,M,-12.666,M,25.0,0137*6A
$GPGGA,123206.00,3030.70730151,N,11424.41912735,E,1,17,1.3,38.094,M,-12.666,M,,*78
$GPGGA,123207.00,3030.70712532,N,11424.41918771,E,1,17,1.3,38.647,M,-12.666,M,,*7A
$GPGGA,123208.00,3030.70706160,N,11424.41922154,E,1,17,1.3,38.838,M,-12.666,M,,*7D
$GPGGA,123209.00,3030.70702332,N,11424.41924403,E,1,18,1.3,38.943,M,-12.666,M,,*7E
$GPGGA,123210.00,3030.70698910,N,11424.41927081,E,1,18,1.3,39.026,M,-12.666,M,,*78
$GPGGA,123211.00,3030.70696120,N,11424.41928935,E,1,18,1.3,39.081,M,-12.666,M,,*78
$GPGGA,123212.00,3030.70693730,N,11424.41931248,E,1,18,1.3,39.136,M,-12.666,M,,*7D
$GPGGA,123213.00,3030.70691813,N,11424.41933819,E,1,18,1.3,39.196,M,-12.666,M,,*76
$GPGGA,123214.00,3030.70690559,N,11424.41936689,E,1,19,1.3,39.256,M,-12.666,M,,*7F
$GPGGA,123215.00,3030.70689308,N,11424.41939988,E,1,19,1.3,39.333,M,-12.666,M,,*77
$GPGGA,123216.00,3030.70688451,N,11424.41944132,E,1,19,1.3,39.430,M,-12.666,M,,*79
$GPGGA,123217.00,3030.70687765,N,11424.41948627,E,1,19,1.3,39.532,M,-12.666,M,,*7F
$GPGGA,123218.00,3030.70687171,N,11424.41951683,E,1,19,1.3,39.599,M,-12.666,M,,*74
$GPGGA,123219.00,3030.70686113,N,11424.41955422,E,1,19,1.3,39.677,M,-12.666,M,,*7E
$GPGGA,123220.00,3030.70684797,N,11424.41958767,E,1,19,1.3,39.747,M,-12.666,M,,*71
$GPGGA,123221.00,3030.70684277,N,11424.41962247,E,1,19,1.3,39.831,M,-12.666,M,,*7B
$GPGGA,123222.00,3030.70683776,N,11424.41964973,E,1,19,1.3,39.892,M,-12.666,M,,*78
$GPGGA,123223.00,3030.70683606,N,11424.41966887,E,1,19,1.3,39.930,M,-12.666,M,,*7E
$GPGGA,123224.00,3030.70683439,N,11424.41969084,E,1,19,1.3,39.973,M,-12.666,M,,*74
$GPGGA,123225.00,3030.70683291,N,11424.41971599,E,1,19,1.3,40.030,M,-12.666,M,,*71
$GPGGA,123226.00,3030.70684333,N,11424.41973707,E,1,19,1.3,40.091,M,-12.666,M,,*70
$GPGGA,123227.00,3030.70684023,N,11424.41976310,E,1,19,1.3,40.154,M,-12.666,M,,*7C
$GPGGA,123228.00,3030.70683655,N,11424.41978372,E,1,19,1.3,40.204,M,-12.666,M,,*7F
$GPGGA,123229.00,3030.70683238,N,11424.41980112,E,1,19,1.3,40.241,M,-12.666,M,,*73
$GPGGA,123230.00,3030.70682899,N,11424.41981083,E,1,19,1.3,40.260,M,-12.666,M,,*70
$GPGGA,123231.00,3030.70682706,N,11424.41982028,E,1,19,1.3,40.279,M,-12.666,M,,*72
$GPGGA,123232.00,3030.70682708,N,11424.41982939,E,1,19,1.3,40.297,M,-12.666,M,,*76
$GPGGA,123233.00,3030.70682660,N,11424.41983918,E,1,19,1.3,40.314,M,-12.666,M,,*70
$GPGGA,123234.00,3030.70682965,N,11424.41984437,E,1,19,1.3,40.322,M,-12.666,M,,*7F
$GPGGA,123235.00,3030.70681863,N,11424.41985307,E,1,19,1.3,40.332,M,-12.666,M,,*7E
$GPGGA,123236.00,3030.70681570,N,11424.41986489,E,1,19,1.3,40.347,M,-12.666,M,,*72
$GPGGA,123237.00,3030.70679700,N,11424.41987739,E,1,19,1.3,40.348,M,-12.666,M,,*77
$GPGGA,123238.00,3030.70677485,N,11424.41989337,E,1,19,1.3,40.347,M,-12.666,M,,*73
$GPGGA,123239.00,3030.70675665,N,11424.41991173,E,1,19,1.3,40.354,M,-12.666,M,,*75
$GPGGA,123240.00,3030.70674149,N,11424.41992105,E,1,19,1.3,40.344,M,-12.666,M,,*70
$GPGGA,123241.00,3030.70672251,N,11424.41994255,E,1,19,1.3,40.364,M,-12.666,M,,*7F
$GPGGA,123242.00,3030.70669338,N,11424.41997102,E,1,19,1.3,40.389,M,-12.666,M,,*79
$GPGGA,123243.00,3030.70666999,N,11424.41998611,E,1,19,1.3,40.390,M,-12.666,M,,*74
$GPGGA,123244.00,3030.70665329,N,11424.41998962,E,1,19,1.3,40.365,M,-12.666,M,,*70
$GPGGA,123245.00,3030.70663683,N,11424.41999431,E,1,19,1.3,40.342,M,-12.666,M,,*7D
$GPGGA,123246.00,3030.70673550,N,11424.41995258,E,2,19,1.3,39.991,M,-12.666,M,66.0,0137*65
$GPGGA,123247.00,3030.70686681,N,11424.41989626,E,2,19,1.3,39.525,M,-12.666,M,67.0,0137*63
$GPGGA,123248.00,3030.70697623,N,11424.41984871,E,2,20,1.1,39.103,M,-12.666,M,68.0,0137*62
$GPGGA,123249.00,3030.70707523,N,11424.41980662,E,2,20,1.1,38.717,M,-12.666,M,69.0,0137*63
$GPGGA,123250.00,3030.70716194,N,11424.41976915,E,2,20,1.1,38.361,M,-12.666,M,70.0,0137*68
$GPGGA,123251.00,3030.70723206,N,11424.41973986,E,2,20,1.1,38.042,M,-12.666,M,71.0,0137*6B
$GPGGA,123252.00,3030.70729159,N,11424.41971700,E,2,20,1.1,37.759,M,-12.666,M,72.0,0137*68
$GPGGA,123253.00,3030.70734393,N,11424.41969345,E,2,20,1.1,37.490,M,-12.666,M,73.0,0137*6A
$GPGGA,123254.00,3030.70738485,N,11424.41967326,E,2,20,1.1,37.248,M,-12.666,M,74.0,0137*6E
$GPGGA,123255.00,3030.70741911,N,11424.41965797,E,2,20,1.1,37.031,M,-12.666,M,75.0,0137*60
$GPGGA,123256.00,3030.70744403,N,11424.41964597,E,2,20,1.1,36.824,M,-12.666,M,76.0,0137*65
$GPGGA,123257.00,3030.70746092,N,11424.41963980,E,2,20,1.1,36.647,M,-12.666,M,77.0,0137*6D
$GPGGA,123258.00,3030.70747548,N,11424.41963026,E,2,19,1.1,36.476,M,-12.666,M,78.0,0137*61
$GPGGA,123259.00,3030.70748348,N,11424.41962297,E,2,19,1.2,36.317,M,-12.666,M,79.0,0137*62
$GPGGA,123300.00,3030.70748197,N,11424.41962049,E,2,19,1.2,36.176,M,-12.666,M,80.0,0137*6D
$GPGGA,123301.00,3030.70747909,N,11424.41961934,E,2,19,1.2,36.051,M,-12.666,M,81.0,0137*69
$GPGGA,123302.00,3030.70747312,N,11424.41962188,E,2,19,1.2,35.937,M,-12.666,M,82.0,0137*6F
$GPGGA,123303.00,3030.70746594,N,11424.41962047,E,2,19,1.2,35.809,M,-12.666,M,83.0,0137*68
$GPGGA,123304.00,3030.70745929,N,11424.41962344,E,2,20,1.0,35.701,M,-12.666,M,84.0,0137*6E
$GPGGA,123305.00,3030.70745066,N,11424.41962442,E,2,20,1.0,35.598,M,-12.666,M,85.0,0137*6F
$GPGGA,123306.00,3030.70744161,N,11424.41962809,E,2,20,1.0,35.500,M,-12.666,M,86.0,0137*6A
$GPGGA,123307.00,3030.70743142,N,11424.41963147,E,2,20,1.0,35.412,M,-12.666,M,87.0,0137*6C
$GPGGA,123308.00,3030.70741137,N,11424.41964049,E,2,20,1.0,35.339,M,-12.666,M,88.0,0137*6A
$GPGGA,123309.00,3030.70738979,N,11424.41964262,E,2,20,1.0,35.253,M,-12.666,M,89.0,0137*60
$GPGGA,123310.00,3030.70736723,N,11424.41964428,E,2,20,1.0,35.169,M,-12.666,M,90.0,0137*6D
$GPGGA,123311.00,3030.70734064,N,11424.41964693,E,2,20,1.0,35.095,M,-12.666,M,91.0,0137*6B
$GPGGA,123312.00,3030.70731781,N,11424.41964899,E,2,21,1.0,35.022,M,-12.666,M,92.0,0137*6B
$GPGGA,123313.00,3030.70728503,N,11424.41965428,E,2,21,1.0,34.976,M,-12.666,M,93.0,0137*65
$GPGGA,123314.00,3030.70724967,N,11424.41965810,E,2,21,1.0,34.929,M,-12.666,M,94.0,0137*6A
$GPGGA,123315.00,3030.70720775,N,11424.41966660,E,2,21,1.0,34.901,M,-12.666,M,95.0,0137*63
$GPGGA,123316.00,3030.70716279,N,11424.41967444,E,2,21,1.0,34.887,M,-12.666,M,96.0,0137*65
$GPGGA,123317.00,3030.70711385,N,11424.41968642,E,2,20,1.0,34.888,M,-12.666,M,97.0,0137*65
$GPGGA,123318.00,3030.70707018,N,11424.41969228,E,2,21,1.0,34.866,M,-12.666,M,98.0,0137*6D
$GPGGA,123319.00,3030.70702933,N,11424.41969997,E,2,21,1.0,34.850,M,-12.666,M,99.0,0137*62
$GPGGA,123320.00,3030.70698841,N,11424.41970692,E,2,21,1.0,34.823,M,-12.666,M,100.0,0137*59
$GPGGA,123321.00,3030.70694769,N,11424.41971575,E,2,21,1.0,34.811,M,-12.666,M,101.0,0137*5A
$GPGGA,123322.00,3030.70690917,N,11424.41972506,E,2,21,1.0,34.797,M,-12.666,M,102.0,0137*5F
$GPGGA,123323.00,3030.70687361,N,11424.41973077,E,2,21,1.0,34.776,M,-12.666,M,103.0,0137*5F
$GPGGA,123324.00,3030.70683772,N,11424.41973371,E,2,21,1.0,34.746,M,-12.666,M,104.0,0137*5B
$GPGGA,123325.00,3030.70680858,N,11424.41973920,E,2,21,1.0,34.709,M,-12.666,M,105.0,0137*5A
$GPGGA,123326.00,3030.70677428,N,11424.41974745,E,2,20,1.0,34.685,M,-12.666,M,106.0,0137*57
$GPGGA,123327.00,3030.70673475,N,11424.41975939,E,2,20,1.0,34.681,M,-12.666,M,107.0,0137*5B
$GPGGA,123328.00,3030.70670150,N,11424.41976889,E,2,20,1.0,34.667,M,-12.666,M,108.0,0137*5B
$GPGGA,123329.00,3030.70667067,N,11424.41977773,E,2,20,1.0,34.658,M,-12.666,M,109.0,0137*5F
$GPGGA,123330.00,3030.70664009,N,11424.41978712,E,2,20,1.0,34.642,M,-12.666,M,110.0,0137*57
$GPGGA,123331.00,3030.70661309,N,11424.41979677,E,2,21,1.0,34.628,M,-12.666,M,111.0,0137*5F
$GPGGA,123332.00,3030.70658444,N,11424.41980608,E,2,21,1.0,34.625,M,-12.666,M,112.0,0137*58
$GPGGA,123333.00,3030.70655555,N,11424.41981180,E,2,21,1.0,34.607,M,-12.666,M,113.0,0137*52
$GPGGA,123334.00,3030.70653664,N,11424.41981422,E,2,21,1.0,34.593,M,-12.666,M,114.0,0137*56
$GPGGA,123335.00,3030.70650765,N,11424.41982303,E,2,20,1.0,34.590,M,-12.666,M,115.0,0137*50
$GPGGA,123336.00,3030.70648337,N,11424.41982762,E,2,20,1.0,34.584,M,-12.666,M,116.0,0137*5C
$GPGGA,123337.00,3030.70645811,N,11424.41983506,E,2,20,1.0,34.586,M,-12.666,M,117.0,0137*5D
$GPGGA,123338.00,3030.70643726,N,11424.41983912,E,2,20,1.0,34.577,M,-12.666,M,118.0,0137*57
$GPGGA,123339.00,3030.70640882,N,11424.41985146,E,2,21,1.0,34.593,M,-12.666,M,119.0,0137*51
$GPGGA,123340.00,3030.70638268,N,11424.41986246,E,2,21,1.0,34.606,M,-12.666,M,120.0,0137*5B
$GPGGA,123341.00,3030.70635562,N,11424.41987505,E,2,21,1.0,34.633,M,-12.666,M,121.0,0137*5C
$GPGGA,123342.00,3030.70633087,N,11424.41988545,E,2,21,1.0,34.676,M,-12.666,M,122.0,0137*5E
$GPGGA,123343.00,3030.70631030,N,11424.41989268,E,2,21,1.0,34.725,M,-12.666,M,123.0,0137*5E
$GPGGA,123344.00,3030.70628842,N,11424.41989751,E,2,21,1.0,34.779,M,-12.666,M,124.0,0137*5D
$GPGGA,123345.00,3030.70626950,N,11424.41990268,E,2,21,1.0,34.842,M,-12.666,M,125.0,0137*51
$GPGGA,123346.00,3030.70624949,N,11424.41990969,E,2,21,1.0,34.910,M,-12.666,M,126.0,0137*57
$GPGGA,123347.00,3030.70623635,N,11424.41991118,E,2,20,1.0,34.957,M,-12.666,M,127.0,0137*59
$GPGGA,123348.00,3030.70622014,N,11424.41991505,E,2,20,1.0,35.019,M,-12.666,M,128.0,0137*57
$GPGGA,123349.00,3030.70620848,N,11424.41991708,E,2,19,1.0,35.084,M,-12.666,M,129.0,0137*55
$GPGGA,123350.00,3030.70619260,N,11424.41992216,E,2,19,1.0,35.152,M,-12.666,M,130.0,0137*5C
$GPGGA,123351.00,3030.70618554,N,11424.41992535,E,2,19,1.0,35.198,M,-12.666,M,131.0,0137*5D
$GPGGA,123352.00,3030.70617399,N,11424.41993135,E,2,18,1.1,35.260,M,-12.666,M,132.0,0137*54
$GPGGA,123353.00,3030.70616195,N,11424.41994130,E,2,18,1.1,35.326,M,-12.666,M,133.0,0137*5A
$GPGGA,123354.00,3030.70615283,N,11424.41994807,E,2,18,1.1,35.382,M,-12.666,M,134.0,0137*5E
$GPGGA,123355.00,3030.70614346,N,11424.41995571,E,2,18,1.1,35.446,M,-12.666,M,135.0,0137*55
$GPGGA,123356.00,3030.70613333,N,11424.41996310,E,2,18,1.1,35.507,M,-12.666,M,136.0,0137*56
$GPGGA,123357.00,3030.70611782,N,11424.41997679,E,2,17,1.2,35.577,M,-12.666,M,137.0,0137*5A
$GPGGA,123358.00,3030.70610401,N,11424.41999093,E,2,17,1.2,35.645,M,-12.666,M,138.0,0137*5D
$GPGGA,123359.00,3030.70609663,N,11424.41999820,E,2,17,1.2,35.703,M,-12.666,M,139.0,0137*50
$GPGGA,123400.00,3030.70608782,N,11424.42000748,E,2,17,1.2,35.751,M,-12.666,M,140.0,0137*56
$GPGGA,123401.00,3030.70607858,N,11424.42001963,E,2,17,1.2,35.809,M,-12.666,M,141.0,0137*55
$GPGGA,123402.00,3030.70606987,N,11424.42003260,E,2,17,1.2,35.864,M,-12.666,M,142.0,0137*56
$GPGGA,123403.00,3030.70606235,N,11424.42004415,E,2,18,1.1,35.912,M,-12.666,M,143.0,0137*5B
$GPGGA,123404.00,3030.70605594,N,11424.42005407,E,2,19,1.1,35.963,M,-12.666,M,144.0,0137*51
$GPGGA,123405.00,3030.70604917,N,11424.42006456,E,2,19,1.1,36.009,M,-12.666,M,145.0,0137*56
$GPGGA,123406.00,3030.70604294,N,11424.42007565,E,2,19,1.1,36.064,M,-12.666,M,146.0,0137*5D
$GPGGA,123407.00,3030.70603646,N,11424.42008872,E,2,19,1.1,36.112,M,-12.666,M,147.0,0137*55
$GPGGA,123408.00,3030.70602635,N,11424.42010310,E,2,19,1.1,36.168,M,-12.666,M,148.0,0137*5B
$GPGGA,123409.00,3030.70601712,N,11424.42011779,E,2,19,1.1,36.227,M,-12.666,M,149.0,0137*5E
$GPGGA,123410.00,3030.70600781,N,11424.42013238,E,2,19,1.1,36.282,M,-12.666,M,150.0,0137*58
$GPGGA,123411.00,3030.70600138,N,11424.42014632,E,2,19,1.1,36.328,M,-12.666,M,151.0,0137*54
$GPGGA,123412.00,3030.70598946,N,11424.42016680,E,2,19,1.1,36.391,M,-12.666,M,152.0,0137*5E
$GPGGA,123413.00,3030.70597672,N,11424.42018505,E,2,19,1.1,36.450,M,-12.666,M,153.0,0137*53
$GPGGA,123414.00,3030.70596096,N,11424.42020881,E,2,19,1.1,36.517,M,-12.666,M,154.0,0137*56
$GPGGA,123415.00,3030.70594254,N,11424.42023489,E,2,19,1.1,36.590,M,-12.666,M,155.0,0137*50
$GPGGA,123416.00,3030.70592494,N,11424.42025954,E,2,20,1.0,36.661,M,-12.666,M,156.0,0137*51
$GPGGA,123417.00,3030.70590645,N,11424.42028830,E,2,20,1.0,36.738,M,-12.666,M,157.0,0137*5E
$GPGGA,123418.00,3030.70589266,N,11424.42031118,E,2,21,1.0,36.798,M,-12.666,M,158.0,0137*53
$GPGGA,123419.00,3030.70588297,N,11424.42032959,E,2,21,1.0,36.845,M,-12.666,M,159.0,0137*5D
$GPGGA,123420.00,3030.70586957,N,11424.42035206,E,2,20,1.0,36.901,M,-12.666,M,160.0,0137*52
$GPGGA,123421.00,3030.70585712,N,11424.42037456,E,2,21,1.0,36.957,M,-12.666,M,161.0,0137*5D
$GPGGA,123422.00,3030.70584861,N,11424.42039556,E,2,20,1.0,37.010,M,-12.666,M,162.0,0137*52
$GPGGA,123423.00,3030.70584493,N,11424.42041118,E,2,21,1.0,37.048,M,-12.666,M,163.0,0137*5E
$GPGGA,123424.00,3030.70583972,N,11424.42042910,E,2,21,1.0,37.089,M,-12.666,M,163.0,0137*52
$GPGGA,123425.00,3030.70584120,N,11424.42043915,E,2,21,1.0,37.111,M,-12.666,M,164.0,0137*58
$GPGGA,123426.00,3030.70583927,N,11424.42044855,E,2,22,0.9,37.139,M,-12.666,M,165.0,0137*51
$GPGGA,123427.00,3030.70584091,N,11424.42045509,E,2,21,1.0,37.166,M,-12.666,M,166.0,0137*54
$GPGGA,123428.00,3030.70583662,N,11424.42047016,E,2,20,1.0,37.211,M,-12.666,M,167.0,0137*5C
$GPGGA,123429.00,3030.70583053,N,11424.42048977,E,2,21,1.0,37.251,M,-12.666,M,168.0,0137*52
$GPGGA,123430.00,3030.70582279,N,11424.42051047,E,2,21,1.0,37.285,M,-12.666,M,169.0,0137*5B
$GPGGA,123431.00,3030.70581845,N,11424.42052528,E,2,21,1.0,37.317,M,-12.666,M,170.0,0137*51
$GPGGA,123432.00,3030.70581998,N,11424.42053238,E,2,21,1.0,37.338,M,-12.666,M,171.0,0137*58
$GPGGA,123433.00,3030.70582188,N,11424.42054238,E,2,21,1.0,37.357,M,-12.666,M,172.0,0137*5E
$GPGGA,123434.00,3030.70582364,N,11424.42055012,E,2,21,1.0,37.368,M,-12.666,M,173.0,0137*5F
$GPGGA,123435.00,3030.70582521,N,11424.42055975,E,2,21,1.0,37.392,M,-12.666,M,174.0,0137*53
$GPGGA,123436.00,3030.70582975,N,11424.42056874,E,2,22,0.9,37.395,M,-12.666,M,175.0,0137*53
$GPGGA,123437.00,3030.70583310,N,11424.42057627,E,2,21,1.0,37.403,M,-12.666,M,176.0,0137*53
$GPGGA,123438.00,3030.70583339,N,11424.42058537,E,2,21,1.0,37.409,M,-12.666,M,177.0,0137*51
$GPGGA,123439.00,3030.70583828,N,11424.42059122,E,2,21,1.0,37.414,M,-12.666,M,178.0,0137*59
$GPGGA,123440.00,3030.70584305,N,11424.42059957,E,2,21,1.0,37.419,M,-12.666,M,179.0,0137*52
$GPGGA,123441.00,3030.70439630,N,11424.42182354,E,1,20,1.1,45.062,M,-12.666,M,,*73
$GPGGA,123442.00,3030.70368063,N,11424.42228632,E,1,20,1.1,47.412,M,-12.666,M,,*74
$GPGGA,123443.00,3030.70359319,N,11424.42232716,E,1,20,1.1,47.697,M,-12.666,M,,*7A
$GPGGA,123444.00,3030.70356104,N,11424.42234921,E,1,20,1.1,47.786,M,-12.666,M,,*71
$GPGGA,123445.00,3030.70354375,N,11424.42235453,E,1,20,1.1,47.836,M,-12.666,M,,*7B
$GPGGA,123446.00,3030.70355440,N,11424.42234882,E,1,20,1.1,47.813,M,-12.666,M,,*7E
$GPGGA,123447.00,3030.70357087,N,11424.42231826,E,1,20,1.1,47.753,M,-12.666,M,,*72
$GPGGA,123448.00,3030.70357162,N,11424.42230303,E,1,20,1.1,47.728,M,-12.666,M,,*76
$GPGGA,123449.00,3030.70357751,N,11424.42228574,E,1,20,1.1,47.690,M,-12.666,M,,*7C
$GPGGA,123450.00,3030.70358787,N,11424.42226719,E,1,20,1.1,47.649,M,-12.666,M,,*73
$GPGGA,123451.00,3030.70360008,N,11424.42224741,E,1,20,1.1,47.602,M,-12.666,M,,*79
$GPGGA,123452.00,3030.70360989,N,11424.42222739,E,1,20,1.1,47.556,M,-12.666,M,,*71
$GPGGA,123453.00,3030.70361983,N,11424.42221124,E,1,20,1.1,47.519,M,-12.666,M,,*79
$GPGGA,123454.00,3030.70362939,N,11424.42219491,E,1,20,1.1,47.477,M,-12.666,M,,*75
$GPGGA,123455.00,3030.70363891,N,11424.42217964,E,1,20,1.1,47.425,M,-12.666,M,,*78
$GPGGA,123456.00,3030.70366690,N,11424.42215761,E,1,20,1.1,47.341,M,-12.666,M,,*7D
$GPGGA,123457.00,3030.70369886,N,11424.42213364,E,1,20,1.1,47.245,M,-12.666,M,,*78
$GPGGA,123458.00,3030.70372437,N,11424.42211140,E,1,20,1.1,47.156,M,-12.666,M,,*7C
$GPGGA,123459.00,3030.70375323,N,11424.42208829,E,1,20,1.1,47.051,M,-12.666,M,,*70
$GPGGA,123500.00,3030.70378942,N,11424.42205702,E,1,20,1.1,46.929,M,-12.666,M,,*71
$GPGGA,123501.00,3030.70381857,N,11424.42203228,E,1,20,1.1,46.818,M,-12.666,M,,*7B
$GPGGA,123502.00,3030.70384935,N,11424.42200809,E,1,21,1.0,46.713,M,-12.666,M,,*76
$GPGGA,123503.00,3030.70388109,N,11424.42198722,E,1,21,1.0,46.621,M,-12.666,M,,*78
$GPGGA,123504.00,3030.70391148,N,11424.42197202,E,1,21,1.0,46.535,M,-12.666,M,,*7C
$GPGGA,123505.00,3030.70394354,N,11424.42194889,E,1,21,1.0,46.431,M,-12.666,M,,*78
$GPGGA,123506.00,3030.70398362,N,11424.42192400,E,1,19,1.1,46.324,M,-12.666,M,,*70
$GPGGA,123507.00,3030.70401343,N,11424.42190051,E,1,19,1.1,46.235,M,-12.666,M,,*76
$GPGGA,123508.00,3030.70405695,N,11424.42187722,E,1,18,1.1,46.123,M,-12.666,M,,*73
$GPGGA,123509.00,3030.70408495,N,11424.42185792,E,1,18,1.1,46.034,M,-12.666,M,,*73
$GPGGA,123510.00,3030.70411382,N,11424.42184057,E,1,18,1.1,45.945,M,-12.666,M,,*71
$GPGGA,123511.00,3030.70413996,N,11424.42182486,E,1,17,1.1,45.866,M,-12.666,M,,*7C
$GPGGA,123512.00,3030.70415613,N,11424.42181729,E,1,17,1.1,45.828,M,-12.666,M,,*74
$GPGGA,123513.00,3030.70417126,N,11424.42180643,E,1,17,1.1,45.783,M,-12.666,M,,*74
$GPGGA,123514.00,3030.70430719,N,11424.42172988,E,2,18,1.1,45.315,M,-12.666,M,213.0,0137*55
$GPGGA,123515.00,3030.70446484,N,11424.42164881,E,2,18,1.1,44.787,M,-12.666,M,214.0,0137*54
$GPGGA,123516.00,3030.70461679,N,11424.42156950,E,2,18,1.1,44.274,M,-12.666,M,215.0,0137*56
$GPGGA,123517.00,3030.70476413,N,11424.42149184,E,2,18,1.1,43.771,M,-12.666,M,216.0,0137*54
$GPGGA,123518.00,3030.70490280,N,11424.42142040,E,2,18,1.1,43.291,M,-12.666,M,217.0,0137*57
$GPGGA,123519.00,3030.70503581,N,11424.42135207,E,2,19,1.1,42.836,M,-12.666,M,218.0,0137*52
$GPGGA,123520.00,3030.70516436,N,11424.42128688,E,2,18,1.2,42.393,M,-12.666,M,219.0,0137*59
$GPGGA,123521.00,3030.70528470,N,11424.42122780,E,2,18,1.2,41.980,M,-12.666,M,220.0,0137*55
$GPGGA,123522.00,3030.70539856,N,11424.42117092,E,2,18,1.2,41.587,M,-12.666,M,221.0,0137*56
$GPGGA,123523.00,3030.70550471,N,11424.42111669,E,2,18,1.2,41.220,M,-12.666,M,222.0,0137*5C
$GPGGA,123524.00,3030.70560353,N,11424.42106619,E,2,18,1.2,40.874,M,-12.666,M,223.0,0137*55
$GPGGA,123525.00,3030.70569453,N,11424.42102366,E,2,18,1.2,40.567,M,-12.666,M,224.0,0137*5B
$GPGGA,123526.00,3030.70577560,N,11424.42098439,E,2,18,1.2,40.279,M,-12.666,M,225.0,0137*50
$GPGGA,123527.00,3030.70585327,N,11424.42094709,E,2,18,1.2,40.000,M,-12.666,M,226.0,0137*5A
$GPGGA,123528.00,3030.70592291,N,11424.42091422,E,2,18,1.2,39.755,M,-12.666,M,227.0,0137*58
$GPGGA,123529.00,3030.70598764,N,11424.42088345,E,2,18,1.2,39.527,M,-12.666,M,228.0,0137*5A
$GPGGA,123530.00,3030.70604683,N,11424.42085270,E,2,18,1.2,39.311,M,-12.666,M,229.0,0137*54
$GPGGA,123531.00,3030.70610025,N,11424.42082314,E,2,18,1.2,39.114,M,-12.666,M,230.0,0137*51
$GPGGA,123532.00,3030.70614794,N,11424.42079588,E,2,18,1.2,38.928,M,-12.666,M,231.0,0137*5B
$GPGGA,123533.00,3030.70619735,N,11424.42077349,E,2,18,1.2,38.770,M,-12.666,M,232.0,0137*59
$GPGGA,123534.00,3030.70623821,N,11424.42075259,E,2,18,1.2,38.631,M,-12.666,M,233.0,0137*5A
$GPGGA,123535.00,3030.70627667,N,11424.42073251,E,2,18,1.2,38.499,M,-12.666,M,234.0,0137*5A
$GPGGA,123536.00,3030.70631220,N,11424.42071360,E,2,17,1.2,38.379,M,-12.666,M,235.0,0137*5F
$GPGGA,123537.00,3030.70634274,N,11424.42069588,E,2,17,1.2,38.275,M,-12.666,M,236.0,0137*5D
$GPGGA,123538.00,3030.70637223,N,11424.42067985,E,2,17,1.2,38.181,M,-12.666,M,237.0,0137*55
$GPGGA,123539.00,3030.70640068,N,11424.42066298,E,2,16,1.3,38.091,M,-12.666,M,238.0,0137*50
$GPGGA,123540.00,3030.70642715,N,11424.42064831,E,2,16,1.3,38.002,M,-12.666,M,239.0,0137*51
$GPGGA,123541.00,3030.70645048,N,11424.42063443,E,2,16,1.3,37.934,M,-12.666,M,240.0,0137*5B
$GPGGA,123542.00,3030.70647337,N,11424.42062067,E,2,16,1.3,37.874,M,-12.666,M,241.0,0137*56
$GPGGA,123543.00,3030.70649148,N,11424.42061099,E,2,16,1.3,37.823,M,-12.666,M,242.0,0137*50
$GPGGA,123544.00,3030.70650723,N,11424.42060258,E,2,16,1.3,37.777,M,-12.666,M,243.0,0137*55
$GPGGA,123545.00,3030.70652506,N,11424.42059314,E,2,17,1.3,37.733,M,-12.666,M,244.0,0137*56
$GPGGA,123546.00,3030.70654150,N,11424.42058372,E,2,17,1.3,37.694,M,-12.666,M,245.0,0137*58
$GPGGA,123547.00,3030.70655720,N,11424.42057550,E,2,17,1.3,37.665,M,-12.666,M,246.0,0137*5D
$GPGGA,123548.00,3030.70656923,N,11424.42057074,E,2,17,1.3,37.645,M,-12.666,M,247.0,0137*5C
$GPGGA,123549.00,3030.70657291,N,11424.42057097,E,2,17,1.3,37.649,M,-12.666,M,248.0,0137*50
$GPGGA,123550.00,3030.70657720,N,11424.42056769,E,2,17,1.3,37.647,M,-12.666,M,249.0,0137*5F
$GPGGA,123551.00,3030.70505965,N,11424.42203414,E,1,16,1.4,45.524,M,-12.666,M,,*7C
$GPGGA,123552.00,3030.70470778,N,11424.42218338,E,1,17,1.2,46.554,M,-12.666,M,,*7E
$GPGGA,123553.00,3030.70454822,N,11424.42226365,E,1,17,1.2,47.101,M,-12.666,M,,*79
$GPGGA,123554.00,3030.70443585,N,11424.42230948,E,1,17,1.2,47.393,M,-12.666,M,,*73
$GPGGA,123555.00,3030.70435987,N,11424.42233763,E,1,17,1.2,47.630,M,-12.666,M,,*75
$GPGGA,123556.00,3030.70429359,N,11424.42237765,E,1,17,1.2,47.874,M,-12.666,M,,*7E
$GPGGA,123557.00,3030.70423095,N,11424.42240951,E,1,16,1.2,48.120,M,-12.666,M,,*79
$GPGGA,123558.00,3030.70416626,N,11424.42244198,E,1,16,1.2,48.323,M,-12.666,M,,*76
$GPGGA,123559.00,3030.70411687,N,11424.42246240,E,1,16,1.2,48.482,M,-12.666,M,,*73
$GPGGA,123600.00,3030.70405483,N,11424.42249372,E,1,16,1.2,48.676,M,-12.666,M,,*79
$GPGGA,123601.00,3030.70399429,N,11424.42252261,E,1,16,1.2,48.868,M,-12.666,M,,*72
$GPGGA,123602.00,3030.70391540,N,11424.42256186,E,1,16,1.2,49.099,M,-12.666,M,,*7E
$GPGGA,123603.00,3030.70384501,N,11424.42260082,E,1,16,1.2,49.314,M,-12.666,M,,*78
$GPGGA,123604.00,3030.70377490,N,11424.42263919,E,1,16,1.2,49.515,M,-12.666,M,,*75
$GPGGA,123605.00,3030.70371020,N,11424.42267341,E,1,15,1.2,49.707,M,-12.666,M,,*7C
$GPGGA,123606.00,3030.70365481,N,11424.42270071,E,1,15,1.2,49.874,M,-12.666,M,,*78
$GPGGA,123607.00,3030.70360712,N,11424.42272542,E,1,15,1.2,50.017,M,-12.666,M,,*77
$GPGGA,123608.00,3030.70357595,N,11424.42274568,E,1,15,1.2,50.132,M,-12.666,M,,*79
$GPGGA,123609.00,3030.70353876,N,11424.42276521,E,1,15,1.2,50.237,M,-12.666,M,,*75
$GPGGA,123610.00,3030.70349982,N,11424.42278520,E,1,15,1.2,50.357,M,-12.666,M,,*74
$GPGGA,123611.00,3030.70353422,N,11424.42277988,E,2,16,1.2,50.254,M,-12.666,M,270.0,0137*54
$GPGGA,123612.00,3030.70360398,N,11424.42276386,E,2,17,1.1,50.048,M,-12.666,M,271.0,0137*58
$GPGGA,123613.00,3030.70366955,N,11424.42275016,E,2,17,1.1,49.857,M,-12.666,M,272.0,0137*50
$GPGGA,123614.00,3030.70374289,N,11424.42273656,E,2,18,1.1,49.658,M,-12.666,M,273.0,0137*55
$GPGGA,123615.00,3030.70383859,N,11424.42270456,E,2,18,1.1,49.381,M,-12.666,M,274.0,0137*5C
$GPGGA,123616.00,3030.70396210,N,11424.42265853,E,2,18,1.1,49.017,M,-12.666,M,275.0,0137*5C
$GPGGA,123617.00,3030.70409725,N,11424.42260150,E,2,18,1.1,48.611,M,-12.666,M,276.0,0137*52
$GPGGA,123618.00,3030.70423918,N,11424.42254021,E,2,18,1.1,48.177,M,-12.666,M,277.0,0137*53
$GPGGA,123619.00,3030.70439249,N,11424.42247008,E,2,18,1.1,47.701,M,-12.666,M,278.0,0137*58
$GPGGA,123620.00,3030.70456020,N,11424.42238758,E,2,18,1.1,47.174,M,-12.666,M,279.0,0137*59
$GPGGA,123621.00,3030.70474940,N,11424.42229016,E,2,18,1.1,46.569,M,-12.666,M,280.0,0137*55
$GPGGA,123622.00,3030.70492355,N,11424.42219843,E,2,18,1.1,46.010,M,-12.666,M,281.0,0137*51
$GPGGA,123623.00,3030.70508417,N,11424.42211437,E,2,19,1.1,45.492,M,-12.666,M,282.0,0137*5B
$GPGGA,123624.00,3030.70522742,N,11424.42204008,E,2,19,1.1,45.029,M,-12.666,M,283.0,0137*5E
$GPGGA,123625.00,3030.70536148,N,11424.42197094,E,2,21,1.0,44.606,M,-12.666,M,284.0,0137*5D
$GPGGA,123626.00,3030.70558374,N,11424.42184137,E,2,21,1.0,43.860,M,-12.666,M,285.0,0137*59
$GPGGA,123627.00,3030.70583951,N,11424.42168682,E,2,21,1.0,42.974,M,-12.666,M,286.0,0137*5E
$GPGGA,123628.00,3030.70602588,N,11424.42157487,E,2,21,1.0,42.329,M,-12.666,M,287.0,0137*5B
$GPGGA,123629.00,3030.70616606,N,11424.42148958,E,2,21,1.0,41.846,M,-12.666,M,288.0,0137*55
$GPGGA,123630.00,3030.70627613,N,11424.42141997,E,2,21,1.0,41.456,M,-12.666,M,289.0,0137*5D
$GPGGA,123631.00,3030.70636684,N,11424.42136489,E,2,21,1.0,41.151,M,-12.666,M,290.0,0137*5A
$GPGGA,123632.00,3030.70643944,N,11424.42131915,E,2,21,1.0,40.896,M,-12.666,M,291.0,0137*55
$GPGGA,123633.00,3030.70650152,N,11424.42127971,E,2,21,1.0,40.678,M,-12.666,M,292.0,0137*51
$GPGGA,123634.00,3030.70655357,N,11424.42124590,E,2,21,1.0,40.489,M,-12.666,M,293.0,0137*59
$GPGGA,123635.00,3030.70660074,N,11424.42121500,E,2,21,1.0,40.330,M,-12.666,M,294.0,0137*52
$GPGGA,123636.00,3030.70664134,N,11424.42118883,E,2,20,1.0,40.188,M,-12.666,M,295.0,0137*5D
$GPGGA,123637.00,3030.70667669,N,11424.42116399,E,2,20,1.0,40.060,M,-12.666,M,296.0,0137*5A
$GPGGA,123638.00,3030.70670688,N,11424.42114239,E,2,20,1.0,39.947,M,-12.666,M,297.0,0137*56
$GPGGA,123639.00,3030.70673283,N,11424.42112488,E,2,20,1.0,39.852,M,-12.666,M,298.0,0137*5B
$GPGGA,123640.00,3030.70675634,N,11424.42110671,E,2,20,1.0,39.764,M,-12.666,M,299.0,0137*56
$GPGGA,123641.00,3030.70677529,N,11424.42109185,E,2,20,1.0,39.691,M,-12.666,M,300.0,0137*54
$GPGGA,123642.00,3030.70679501,N,11424.42107694,E,2,19,1.0,39.616,M,-12.666,M,301.0,0137*5E
$GPGGA,123643.00,3030.70681272,N,11424.42105977,E,2,19,1.0,39.547,M,-12.666,M,302.0,0137*5F
$GPGGA,123644.00,3030.70682728,N,11424.42104629,E,2,19,1.0,39.484,M,-12.666,M,303.0,0137*5B
$GPGGA,123645.00,3030.70684361,N,11424.42103063,E,2,18,1.1,39.430,M,-12.666,M,304.0,0137*52
$GPGGA,123646.00,3030.70685947,N,11424.42101615,E,2,17,1.1,39.383,M,-12.666,M,305.0,0137*5A
$GPGGA,123647.00,3030.70687201,N,11424.42100183,E,2,17,1.1,39.336,M,-12.666,M,306.0,0137*54
$GPGGA,123648.00,3030.70688125,N,11424.42099009,E,2,17,1.1,39.297,M,-12.666,M,307.0,0137*58
$GPGGA,123649.00,3030.70689372,N,11424.42097936,E,2,17,1.1,39.262,M,-12.666,M,3.0,0137*5E
$GPGGA,123650.00,3030.70679127,N,11424.42100432,E,1,18,1.1,41.434,M,-12.666,M,,*73
$GPGGA,123651.00,3030.70618866,N,11424.42100043,E,1,18,1.1,42.781,M,-12.666,M,,*75
$GPGGA,123652.00,3030.70603609,N,11424.42103867,E,1,18,1.1,43.072,M,-12.666,M,,*7C
$GPGGA,123653.00,3030.70597509,N,11424.42104100,E,1,18,1.1,43.165,M,-12.666,M,,*78
$GPGGA,123654.00,3030.70593854,N,11424.42104929,E,1,18,1.1,43.226,M,-12.666,M,,*79
$GPGGA,123655.00,3030.70595014,N,11424.42101864,E,1,18,1.1,43.201,M,-12.666,M,,*7A
$GPGGA,123656.00,3030.70597217,N,11424.42097765,E,1,18,1.1,43.148,M,-12.666,M,,*74
$GPGGA,123657.00,3030.70599432,N,11424.42093774,E,1,18,1.1,43.086,M,-12.666,M,,*7D
$GPGGA,123658.00,3030.70601178,N,11424.42090042,E,1,18,1.1,43.028,M,-12.666,M,,*7E
$GPGGA,123659.00,3030.70603711,N,11424.42086189,E,1,19,1.1,42.957,M,-12.666,M,,*74
$GPGGA,123700.00,3030.70606206,N,11424.42082536,E,1,19,1.1,42.890,M,-12.666,M,,*71
$GPGGA,123701.00,3030.70608310,N,11424.42079569,E,1,19,1.1,42.834,M,-12.666,M,,*78
$GPGGA,123702.00,3030.70609610,N,11424.42077342,E,1,19,1.1,42.788,M,-12.666,M,,*76
$GPGGA,123703.00,3030.70610603,N,11424.42075459,E,1,19,1.1,42.748,M,-12.666,M,,*7E
$GPGGA,123704.00,3030.70611121,N,11424.42074068,E,1,19,1.1,42.725,M,-12.666,M,,*73
$GPGGA,123705.00,3030.70613467,N,11424.42070989,E,1,18,1.1,42.657,M,-12.666,M,,*70
$GPGGA,123706.00,3030.70614301,N,11424.42069634,E,1,18,1.1,42.619,M,-12.666,M,,*78
$GPGGA,123707.00,3030.70613258,N,11424.42070601,E,1,18,1.1,42.630,M,-12.666,M,,*76
$GPGGA,123708.00,3030.70611556,N,11424.42072961,E,1,18,1.1,42.673,M,-12.666,M,,*7E
$GPGGA,123709.00,3030.70611387,N,11424.42073809,E,1,17,1.1,42.679,M,-12.666,M,,*7E
$GPGGA,123710.00,3030.70611086,N,11424.42074408,E,1,17,1.1,42.678,M,-12.666,M,,*7F
$GPGGA,123711.00,3030.70611798,N,11424.42073960,E,1,17,1.1,42.665,M,-12.666,M,,*7E
$GPGGA,123712.00,3030.70611405,N,11424.42074227,E,1,17,1.1,42.660,M,-12.666,M,,*70
$GPGGA,123713.00,3030.70610649,N,11424.42074057,E,1,18,1.1,42.643,M,-12.666,M,,*71
$GPGGA,123714.00,3030.70607818,N,11424.42076579,E,1,18,1.1,42.672,M,-12.666,M,,*73
$GPGGA,123715.00,3030.70607247,N,11424.42077152,E,1,18,1.1,42.669,M,-12.666,M,,*74
$GPGGA,123716.00,3030.70605296,N,11424.42079260,E,1,18,1.1,42.695,M,-12.666,M,,*76
$GPGGA,123717.00,3030.70606950,N,11424.42077234,E,1,18,1.1,42.652,M,-12.666,M,,*71
$GPGGA,123718.00,3030.70609905,N,11424.42074057,E,1,18,1.1,42.596,M,-12.666,M,,*7E
$GPGGA,123719.00,3030.70619668,N,11424.42069736,E,2,19,1.0,42.310,M,-12.666,M,3.0,0137*55
$GPGGA,123720.00,3030.70633646,N,11424.42063476,E,2,19,1.0,41.890,M,-12.666,M,4.0,0137*51
$GPGGA,123721.00,3030.70601619,N,11424.42081113,E,1,17,1.0,42.489,M,-12.666,M,,*74
$GPGGA,123722.00,3030.70587612,N,11424.42094321,E,1,17,1.0,42.797,M,-12.666,M,,*7A
$GPGGA,123723.00,3030.70582657,N,11424.42097673,E,1,16,1.0,42.859,M,-12.666,M,,*72
$GPGGA,123724.00,3030.70580286,N,11424.42101385,E,1,16,1.1,42.958,M,-12.666,M,,*7C
$GPGGA,123725.00,3030.70582854,N,11424.42098519,E,1,16,1.1,42.921,M,-12.666,M,,*76
$GPGGA,123726.00,3030.70582234,N,11424.42098750,E,1,16,1.1,42.934,M,-12.666,M,,*72
$GPGGA,123727.00,3030.70579740,N,11424.42100319,E,1,16,1.1,42.949,M,-12.666,M,,*72
$GPGGA,123728.00,3030.70578204,N,11424.42102371,E,1,16,1.1,42.997,M,-12.666,M,,*76
$GPGGA,123729.00,3030.70577448,N,11424.42103640,E,1,16,1.1,43.030,M,-12.666,M,,*75
$GPGGA,123730.00,3030.70577130,N,11424.42104475,E,1,16,1.1,43.049,M,-12.666,M,,*7A
$GPGGA,123731.00,3030.70576950,N,11424.42105208,E,1,16,1.1,43.067,M,-12.666,M,,*75
$GPGGA,123732.00,3030.70576823,N,11424.42106014,E,1,16,1.1,43.087,M,-12.666,M,,*71
$GPGGA,123733.00,3030.70576478,N,11424.42106423,E,1,16,1.1,43.083,M,-12.666,M,,*76
$GPGGA,123734.00,3030.70576453,N,11424.42106238,E,1,16,1.1,43.074,M,-12.666,M,,*7C
$GPGGA,123735.00,3030.70590397,N,11424.42099521,E,2,17,1.1,42.616,M,-12.666,M,19.0,0137*60
$GPGGA,123736.00,3030.70604053,N,11424.42093143,E,2,18,1.1,42.167,M,-12.666,M,20.0,0137*68
$GPGGA,123737.00,3030.70616516,N,11424.42087703,E,2,19,1.0,41.766,M,-12.666,M,21.0,0137*6C
$GPGGA,123738.00,3030.70628486,N,11424.42082187,E,2,19,1.0,41.378,M,-12.666,M,22.0,0137*61
$GPGGA,123739.00,3030.70639034,N,11424.42077576,E,2,20,1.0,41.039,M,-12.666,M,23.0,0137*60
$GPGGA,123740.00,3030.70648557,N,11424.42073483,E,2,19,1.0,40.735,M,-12.666,M,24.0,0137*60
$GPGGA,123741.00,3030.70657000,N,11424.42070354,E,2,19,1.0,40.471,M,-12.666,M,25.0,0137*64
$GPGGA,123742.00,3030.70664789,N,11424.42067232,E,2,20,1.0,40.225,M,-12.666,M,7.0,0137*5B
$GPGGA,123743.00,3030.70671623,N,11424.42064520,E,2,20,1.0,40.002,M,-12.666,M,3.0,0137*5B
$GPGGA,123744.00,3030.70677869,N,11424.42062092,E,2,20,1.0,39.802,M,-12.666,M,4.0,0137*51
$GPGGA,123745.00,3030.70683355,N,11424.42059820,E,2,20,1.0,39.620,M,-12.666,M,5.0,0137*59
$GPGGA,123746.00,3030.70688465,N,11424.42057818,E,2,20,1.0,39.453,M,-12.666,M,6.0,0137*55
$GPGGA,123747.00,3030.70692732,N,11424.42056296,E,2,20,1.0,39.312,M,-12.666,M,7.0,0137*50
$GPGGA,123748.00,3030.70696785,N,11424.42054883,E,2,20,1.0,39.181,M,-12.666,M,7.0,0137*53
$GPGGA,123749.00,3030.70700494,N,11424.42053620,E,2,20,1.0,39.066,M,-12.666,M,3.0,0137*53
$GPGGA,123750.00,3030.70703284,N,11424.42052582,E,2,20,1.0,38.965,M,-12.666,M,4.0,0137*59
$GPGGA,123751.00,3030.70705874,N,11424.42051494,E,2,20,1.0,38.871,M,-12.666,M,5.0,0137*5B
$GPGGA,123752.00,3030.70708422,N,11424.42050639,E,2,20,1.0,38.795,M,-12.666,M,6.0,0137*58
$GPGGA,123753.00,3030.70710655,N,11424.42050343,E,2,20,1.0,38.740,M,-12.666,M,7.0,0137*53
$GPGGA,123754.00,3030.70712914,N,11424.42049084,E,2,20,1.0,38.665,M,-12.666,M,7.0,0137*5A
$GPGGA,123755.00,3030.70714758,N,11424.42048689,E,2,20,1.0,38.612,M,-12.666,M,3.0,0137*55
$GPGGA,123756.00,3030.70716269,N,11424.42047701,E,2,21,1.0,38.561,M,-12.666,M,4.0,0137*5C
$GPGGA,123757.00,3030.70717622,N,11424.42047347,E,2,20,1.0,38.519,M,-12.666,M,5.0,0137*5E
$GPGGA,123758.00,3030.70719060,N,11424.42046313,E,2,19,1.0,38.464,M,-12.666,M,6.0,0137*5D
$GPGGA,123759.00,3030.70720141,N,11424.42045904,E,2,20,1.0,38.428,M,-12.666,M,7.0,0137*58
$GPGGA,123800.00,3030.70721071,N,11424.42045707,E,2,19,1.0,38.407,M,-12.666,M,7.0,0137*52
$GPGGA,123801.00,3030.70721826,N,11424.42045095,E,2,20,1.0,38.370,M,-12.666,M,3.0,0137*5C
$GPGGA,123802.00,3030.70722742,N,11424.42044764,E,2,19,1.0,38.345,M,-12.666,M,4.0,0137*52
$GPGGA,123803.00,3030.70723597,N,11424.42044017,E,2,19,1.0,38.309,M,-12.666,M,5.0,0137*52
$GPGGA,123804.00,3030.70724369,N,11424.42043538,E,2,20,1.0,38.275,M,-12.666,M,6.0,0137*59
$GPGGA,123805.00,3030.70725452,N,11424.42042392,E,2,19,1.0,38.232,M,-12.666,M,7.0,0137*59
$GPGGA,123806.00,3030.70725899,N,11424.42042343,E,2,19,1.0,38.219,M,-12.666,M,7.0,0137*54
$GPGGA,123807.00,3030.70726790,N,11424.42041011,E,2,19,1.0,38.164,M,-12.666,M,3.0,0137*5A
$GPGGA,123808.00,3030.70727731,N,11424.42039703,E,2,19,1.0,38.119,M,-12.666,M,4.0,0137*59
$GPGGA,123809.00,3030.70728114,N,11424.42038912,E,2,19,1.0,38.086,M,-12.666,M,5.0,0137*5F
$GPGGA,123810.00,3030.70728788,N,11424.42037697,E,2,20,1.0,38.038,M,-12.666,M,6.0,0137*55
$GPGGA,123811.00,3030.70729384,N,11424.42036462,E,2,20,1.0,37.990,M,-12.666,M,7.0,0137*51
$GPGGA,123812.00,3030.70729573,N,11424.42035890,E,2,20,1.0,37.958,M,-12.666,M,7.0,0137*5A
$GPGGA,123813.00,3030.70729744,N,11424.42035436,E,2,20,1.0,37.938,M,-12.666,M,3.0,0137*5F
$GPGGA,123814.00,3030.70729990,N,11424.42034838,E,2,20,1.0,37.906,M,-12.666,M,4.0,0137*56
$GPGGA,123815.00,3030.70730123,N,11424.42034173,E,2,20,1.0,37.879,M,-12.666,M,5.0,0137*51
$GPGGA,123816.00,3030.70730487,N,11424.42033320,E,2,20,1.0,37.844,M,-12.666,M,6.0,0137*57
$GPGGA,123817.00,3030.70730506,N,11424.42032404,E,2,20,1.0,37.809,M,-12.666,M,7.0,0137*56
$GPGGA,123818.00,3030.70730379,N,11424.42031626,E,2,20,1.0,37.778,M,-12.666,M,7.0,0137*5F
$GPGGA,123819.00,3030.70730354,N,11424.42030655,E,2,20,1.0,37.743,M,-12.666,M,3.0,0137*58
$GPGGA,123820.00,3030.70730133,N,11424.42029932,E,2,20,1.0,37.706,M,-12.666,M,4.0,0137*51
$GPGGA,123821.00,3030.70729866,N,11424.42029633,E,2,20,1.0,37.679,M,-12.666,M,5.0,0137*57
$GPGGA,123822.00,3030.70729702,N,11424.42029078,E,2,20,1.0,37.650,M,-12.666,M,6.0,0137*58
$GPGGA,123823.00,3030.70729147,N,11424.42028848,E,2,20,1.0,37.635,M,-12.666,M,7.0,0137*56
$GPGGA,123824.00,3030.70728549,N,11424.42028391,E,2,20,1.0,37.610,M,-12.666,M,7.0,0137*52
$GPGGA,123825.00,3030.70728255,N,11424.42027750,E,2,20,1.0,37.590,M,-12.666,M,3.0,0137*50
$GPGGA,123826.00,3030.70727896,N,11424.42027373,E,2,20,1.0,37.563,M,-12.666,M,4.0,0137*57
$GPGGA,123827.00,3030.70727248,N,11424.42027208,E,2,20,1.0,37.545,M,-12.666,M,5.0,0137*57
$GPGGA,123828.00,3030.70726693,N,11424.42027211,E,2,20,1.0,37.530,M,-12.666,M,6.0,0137*52
$GPGGA,123829.00,3030.70725773,N,11424.42027067,E,2,20,1.0,37.512,M,-12.666,M,7.0,0137*5D
$GPGGA,123830.00,3030.70724941,N,11424.42027052,E,2,20,1.0,37.492,M,-12.666,M,7.0,0137*54
$GPGGA,123831.00,3030.70723972,N,11424.42027144,E,2,20,1.0,37.477,M,-12.666,M,3.0,0137*5B
$GPGGA,123832.00,3030.70722645,N,11424.42027793,E,2,20,1.0,37.470,M,-12.666,M,4.0,0137*5E
$GPGGA,123833.00,3030.70721103,N,11424.42028417,E,2,20,1.0,37.473,M,-12.666,M,5.0,0137*5B
$GPGGA,123834.00,3030.70720130,N,11424.42028919,E,2,20,1.0,37.468,M,-12.666,M,6.0,0137*57
$GPGGA,123835.00,3030.70719233,N,11424.42029251,E,2,20,1.0,37.462,M,-12.666,M,7.0,0137*51
$GPGGA,123836.00,3030.70718155,N,11424.42029733,E,2,20,1.0,37.448,M,-12.666,M,7.0,0137*59
$GPGGA,123837.00,3030.70717090,N,11424.42030310,E,2,20,1.0,37.436,M,-12.666,M,3.0,0137*5F
$GPGGA,123838.00,3030.70715899,N,11424.42030555,E,2,20,1.0,37.416,M,-12.666,M,4.0,0137*51
$GPGGA,123839.00,3030.70714434,N,11424.42031379,E,2,20,1.0,37.409,M,-12.666,M,5.0,0137*5C
$GPGGA,123840.00,3030.70713298,N,11424.42031758,E,2,20,1.0,37.394,M,-12.666,M,6.0,0137*52
$GPGGA,123841.00,3030.70712082,N,11424.42032164,E,2,20,1.0,37.373,M,-12.666,M,7.0,0137*59
$GPGGA,123842.00,3030.70710910,N,11424.42032781,E,2,20,1.0,37.365,M,-12.666,M,7.0,0137*50
$GPGGA,123843.00,3030.70709989,N,11424.42033094,E,2,20,1.0,37.348,M,-12.666,M,3.0,0137*50
$GPGGA,123844.00,3030.70708942,N,11424.42033451,E,2,20,1.0,37.337,M,-12.666,M,4.0,0137*53
$GPGGA,123845.00,3030.70708051,N,11424.42033837,E,2,20,1.0,37.330,M,-12.666,M,5.0,0137*53
$GPGGA,123846.00,3030.70707454,N,11424.42033901,E,2,20,1.0,37.314,M,-12.666,M,6.0,0137*5F
$GPGGA,123847.00,3030.70706294,N,11424.42034514,E,2,20,1.0,37.313,M,-12.666,M,7.0,0137*5C
$GPGGA,123848.00,3030.70705491,N,11424.42034655,E,2,20,1.0,37.290,M,-12.666,M,7.0,0137*5F
$GPGGA,123849.00,3030.70704145,N,11424.42035398,E,2,20,1.0,37.285,M,-12.666,M,3.0,0137*56
$GPGGA,123850.00,3030.70702994,N,11424.42036086,E,2,20,1.0,37.275,M,-12.666,M,4.0,0137*5B
$GPGGA,123851.00,3030.70701718,N,11424.42037100,E,2,20,1.0,37.274,M,-12.666,M,5.0,0137*5D
$GPGGA,123852.00,3030.70700241,N,11424.42037885,E,2,20,1.0,37.265,M,-12.666,M,6.0,0137*51
$GPGGA,123853.00,3030.70698658,N,11424.42039108,E,2,20,1.0,37.272,M,-12.666,M,7.0,0137*59
$GPGGA,123854.00,3030.70697236,N,11424.42040209,E,2,20,1.0,37.276,M,-12.666,M,7.0,0137*55
$GPGGA,123855.00,3030.70695509,N,11424.42041433,E,2,20,1.0,37.286,M,-12.666,M,3.0,0137*58
$GPGGA,123856.00,3030.70694013,N,11424.42042668,E,2,20,1.0,37.290,M,-12.666,M,4.0,0137*5B
$GPGGA,123857.00,3030.70692121,N,11424.42044463,E,2,21,1.0,37.304,M,-12.666,M,5.0,0137*5F
$GPGGA,123858.00,3030.70690324,N,11424.42045850,E,2,21,1.0,37.300,M,-12.666,M,6.0,0137*5F
$GPGGA,123859.00,3030.70688313,N,11424.42047545,E,2,20,1.0,37.309,M,-12.666,M,7.0,0137*51
$GPGGA,123900.00,3030.70686067,N,11424.42049226,E,2,21,1.0,37.319,M,-12.666,M,7.0,0137*5E
$GPGGA,123901.00,3030.70683953,N,11424.42051085,E,2,21,1.0,37.332,M,-12.666,M,3.0,0137*5B
$GPGGA,123902.00,3030.70682007,N,11424.42053037,E,2,21,1.0,37.354,M,-12.666,M,4.0,0137*5D
$GPGGA,123903.00,3030.70679755,N,11424.42054758,E,2,22,1.0,37.364,M,-12.666,M,5.0,0137*50
$GPGGA,123904.00,3030.70677418,N,11424.42056370,E,2,21,1.0,37.375,M,-12.666,M,6.0,0137*5F
$GPGGA,123905.00,3030.70675879,N,11424.42057700,E,2,21,1.0,37.392,M,-12.666,M,7.0,0137*5D
$GPGGA,123906.00,3030.70674052,N,11424.42059023,E,2,20,1.0,37.390,M,-12.666,M,7.0,0137*55
$GPGGA,123907.00,3030.70672128,N,11424.42060369,E,2,21,1.0,37.391,M,-12.666,M,3.0,0137*5D
$GPGGA,123908.00,3030.70670707,N,11424.42061383,E,2,21,1.0,37.385,M,-12.666,M,4.0,0137*5C
$GPGGA,123909.00,3030.70669173,N,11424.42062617,E,2,20,1.0,37.387,M,-12.666,M,5.0,0137*59
$GPGGA,123910.00,3030.70668330,N,11424.42063085,E,2,22,0.9,37.375,M,-12.666,M,6.0,0137*5D
$GPGGA,123911.00,3030.70667618,N,11424.42063478,E,2,20,1.0,37.362,M,-12.666,M,7.0,0137*57
$GPGGA,123912.00,3030.70667312,N,11424.42063320,E,2,21,1.0,37.340,M,-12.666,M,7.0,0137*50
$GPGGA,123913.00,3030.70667596,N,11424.42062703,E,2,21,1.0,37.312,M,-12.666,M,3.0,0137*5C
$GPGGA,123914.00,3030.70667911,N,11424.42062335,E,2,21,0.9,37.299,M,-12.666,M,4.0,0137*54
$GPGGA,123915.00,3030.70668197,N,11424.42061868,E,2,21,1.0,37.283,M,-12.666,M,5.0,0137*5E
$GPGGA,123916.00,3030.70668592,N,11424.42061190,E,2,20,1.0,37.263,M,-12.666,M,6.0,0137*5E
$GPGGA,123917.00,3030.70727143,N,11424.42016529,E,1,20,1.1,38.057,M,-12.666,M,,*7E
$GPGGA,123918.00,3030.70706176,N,11424.41978678,E,1,20,1.1,40.006,M,-12.666,M,,*7A
$GPGGA,123919.00,3030.70702203,N,11424.41973794,E,1,20,1.1,40.186,M,-12.666,M,,*7F
$GPGGA,123920.00,3030.70695303,N,11424.41974092,E,1,20,1.1,40.308,M,-12.666,M,,*79
$GPGGA,123921.00,3030.70688609,N,11424.41973806,E,1,20,1.1,40.338,M,-12.666,M,,*7A
$GPGGA,123922.00,3030.70685258,N,11424.41971498,E,1,20,1.1,40.326,M,-12.666,M,,*72
$GPGGA,123923.00,3030.70682233,N,11424.41970929,E,1,20,1.1,40.348,M,-12.666,M,,*77
$GPGGA,123924.00,3030.70680796,N,11424.41969441,E,1,20,1.1,40.347,M,-12.666,M,,*7C
$GPGGA,123925.00,3030.70679356,N,11424.41969694,E,1,20,1.1,40.392,M,-12.666,M,,*71
$GPGGA,123926.00,3030.70678152,N,11424.41969831,E,1,20,1.1,40.412,M,-12.666,M,,*7B
$GPGGA,123927.00,3030.70677148,N,11424.41969903,E,1,20,1.1,40.425,M,-12.666,M,,*7A
$GPGGA,123928.00,3030.70675733,N,11424.41971112,E,1,20,1.1,40.474,M,-12.666,M,,*78
$GPGGA,123929.00,3030.70673904,N,11424.41972844,E,1,20,1.1,40.537,M,-12.666,M,,*7A
$GPGGA,123930.00,3030.70672414,N,11424.41974146,E,1,20,1.1,40.591,M,-12.666,M,,*7E
$GPGGA,123931.00,3030.70672368,N,11424.41973739,E,1,20,1.1,40.606,M,-12.666,M,,*77
$GPGGA,123932.00,3030.70673408,N,11424.41972189,E,1,20,1.1,40.594,M,-12.666,M,,*70
$GPGGA,123933.00,3030.70676069,N,11424.41970604,E,1,20,1.1,40.547,M,-12.666,M,,*79
$GPGGA,123934.00,3030.70679253,N,11424.41968930,E,1,20,1.1,40.492,M,-12.666,M,,*72
$GPGGA,123935.00,3030.70680434,N,11424.41968880,E,1,20,1.1,40.485,M,-12.666,M,,*7E
$GPGGA,123936.00,3030.70682514,N,11424.41967725,E,1,20,1.1,40.458,M,-12.666,M,,*73
$GPGGA,123937.00,3030.70682391,N,11424.41968353,E,1,20,1.1,40.474,M,-12.666,M,,*7D
$GPGGA,123938.00,3030.70682473,N,11424.41969406,E,1,20,1.1,40.510,M,-12.666,M,,*7C
$GPGGA,123939.00,3030.70682889,N,11424.41969783,E,1,20,1.1,40.534,M,-12.666,M,,*7C
$GPGGA,123940.00,3030.70682829,N,11424.41970699,E,1,20,1.1,40.568,M,-12.666,M,,*73
$GPGGA,123941.00,3030.70682056,N,11424.41971755,E,1,19,1.1,40.607,M,-12.666,M,,*72
$GPGGA,123942.00,3030.70681848,N,11424.41972353,E,1,19,1.1,40.637,M,-12.666,M,,*77
$GPGGA,123943.00,3030.70681159,N,11424.41973190,E,1,19,1.1,40.671,M,-12.666,M,,*71
$GPGGA,123944.00,3030.70680610,N,11424.41973620,E,1,19,1.1,40.689,M,-12.666,M,,*76
$GPGGA,123945.00,3030.70679963,N,11424.41974084,E,1,19,1.1,40.705,M,-12.666,M,,*70
$GPGGA,123946.00,3030.70679469,N,11424.41974396,E,1,19,1.1,40.720,M,-12.666,M,,*73
$GPGGA,123947.00,3030.70679319,N,11424.41974947,E,1,19,1.1,40.722,M,-12.666,M,,*76
$GPGGA,123948.00,3030.70679858,N,11424.41975093,E,1,19,1.1,40.711,M,-12.666,M,,*76
$GPGGA,123949.00,3030.70679660,N,11424.41975154,E,1,19,1.1,40.703,M,-12.666,M,,*7B
$GPGGA,123950.00,3030.70680477,N,11424.41974648,E,1,19,1.1,40.678,M,-12.666,M,,*77
$GPGGA,123951.00,3030.70680888,N,11424.41974306,E,1,19,1.1,40.653,M,-12.666,M,,*7C
$GPGGA,123952.00,3030.70681551,N,11424.41973563,E,1,19,1.1,40.618,M,-12.666,M,,*7A
$GPGGA,123953.00,3030.70682128,N,11424.41972990,E,1,19,1.1,40.591,M,-12.666,M,,*71
$GPGGA,123954.00,3030.70682234,N,11424.41973042,E,1,19,1.1,40.576,M,-12.666,M,,*76
$GPGGA,123955.00,3030.70683181,N,11424.41972465,E,1,19,1.1,40.556,M,-12.666,M,,*79
$GPGGA,123956.00,3030.70683603,N,11424.41971984,E,1,19,1.1,40.535,M,-12.666,M,,*73
$GPGGA,123957.00,3030.70683742,N,11424.41971323,E,1,19,1.1,40.511,M,-12.666,M,,*77
$GPGGA,123958.00,3030.70684201,N,11424.41970558,E,1,19,1.1,40.477,M,-12.666,M,,*77
$GPGGA,123959.00,3030.70685060,N,11424.41969412,E,1,19,1.1,40.445,M,-12.666,M,,*74
$GPGGA,124000.00,3030.70685859,N,11424.41968173,E,1,19,1.1,40.405,M,-12.666,M,,*73
$GPGGA,124001.00,3030.70686477,N,11424.41967008,E,1,18,1.2,40.369,M,-12.666,M,,*7C
$GPGGA,124002.00,3030.70686858,N,11424.41966039,E,1,18,1.2,40.343,M,-12.666,M,,*75
$GPGGA,124003.00,3030.70687779,N,11424.41964248,E,1,18,1.2,40.290,M,-12.666,M,,*70
$GPGGA,124004.00,3030.70688447,N,11424.41962938,E,1,18,1.2,40.248,M,-12.666,M,,*79
$GPGGA,124005.00,3030.70689451,N,11424.41961851,E,1,18,1.2,40.213,M,-12.666,M,,*7D
$GPGGA,124006.00,3030.70690113,N,11424.41961448,E,1,18,1.2,40.198,M,-12.666,M,,*71
$GPGGA,124007.00,3030.70691042,N,11424.41960750,E,1,18,1.2,40.176,M,-12.666,M,,*7F
$GPGGA,124008.00,3030.70690976,N,11424.41960455,E,1,18,1.2,40.165,M,-12.666,M,,*7B
$GPGGA,124009.00,3030.70690926,N,11424.41959913,E,1,18,1.2,40.142,M,-12.666,M,,*7F
$GPGGA,124010.00,3030.70690592,N,11424.41959222,E,1,18,1.2,40.113,M,-12.666,M,,*79
$GPGGA,124011.00,3030.70689889,N,11424.41959046,E,1,18,1.2,40.102,M,-12.666,M,,*77
$GPGGA,124012.00,3030.70690368,N,11424.41958540,E,1,18,1.2,40.080,M,-12.666,M,,*71
$GPGGA,124013.00,3030.70689968,N,11424.41958871,E,1,18,1.2,40.081,M,-12.666,M,,*7C
$GPGGA,124014.00,3030.70690408,N,11424.41957928,E,1,18,1.2,40.046,M,-12.666,M,,*71
$GPGGA,124015.00,3030.70692437,N,11424.41956364,E,1,18,1.2,40.005,M,-12.666,M,,*7A
$GPGGA,124016.00,3030.70692989,N,11424.41954785,E,1,18,1.1,39.956,M,-12.666,M,,*7A
$GPGGA,124017.00,3030.70693496,N,11424.41953399,E,1,17,1.4,39.912,M,-12.666,M,,*7D
$GPGGA,124018.00,3030.70694054,N,11424.41952038,E,1,18,1.3,39.869,M,-12.666,M,,*73
$GPGGA,124019.00,3030.70695083,N,11424.41949764,E,1,18,1.3,39.793,M,-12.666,M,,*77
$GPGGA,124020.00,3030.70697468,N,11424.41947629,E,1,17,1.3,39.733,M,-12.666,M,,*7D
$GPGGA,124021.00,3030.70700208,N,11424.41945325,E,1,17,1.3,39.667,M,-12.666,M,,*78
$GPGGA,124022.00,3030.70702381,N,11424.41943137,E,1,17,1.3,39.606,M,-12.666,M,,*79
$GPGGA,124023.00,3030.70705276,N,11424.41939290,E,1,18,1.3,39.504,M,-12.666,M,,*7B
$GPGGA,124024.00,3030.70705669,N,11424.41937092,E,1,18,1.3,39.440,M,-12.666,M,,*79
$GPGGA,124025.00,3030.70709774,N,11424.41933396,E,1,18,1.3,39.345,M,-12.666,M,,*78
$GPGGA,124026.00,3030.70713336,N,11424.41929577,E,1,18,1.3,39.246,M,-12.666,M,,*72
$GPGGA,124027.00,3030.70717250,N,11424.41925643,E,1,18,1.3,39.148,M,-12.666,M,,*73
$GPGGA,124028.00,3030.70720194,N,11424.41922463,E,1,18,1.3,39.064,M,-12.666,M,,*7B
$GPGGA,124029.00,3030.70722943,N,11424.41919627,E,1,18,1.3,38.987,M,-12.666,M,,*75
$GPGGA,124030.00,3030.70725277,N,11424.41917435,E,1,17,1.3,38.934,M,-12.666,M,,*7E
$GPGGA,124031.00,3030.70726456,N,11424.41916221,E,1,17,1.3,38.902,M,-12.666,M,,*7E
$GPGGA,124032.00,3030.70728779,N,11424.41914461,E,1,18,1.3,38.860,M,-12.666,M,,*77
$GPGGA,124033.00,3030.70730387,N,11424.41913002,E,1,18,1.3,38.826,M,-12.666,M,,*7E
$GPGGA,124034.00,3030.70732019,N,11424.41912016,E,1,18,1.3,38.807,M,-12.666,M,,*78
$GPGGA,124035.00,3030.70735470,N,11424.41910065,E,1,19,1.3,38.765,M,-12.666,M,,*79
$GPGGA,124036.00,3030.70735520,N,11424.41909454,E,1,19,1.3,38.740,M,-12.666,M,,*77
$GPGGA,124037.00,3030.70735122,N,11424.41909375,E,1,19,1.3,38.728,M,-12.666,M,,*7A
$GPGGA,124038.00,3030.70736541,N,11424.41908698,E,1,19,1.3,38.714,M,-12.666,M,,*7F
$GPGGA,124039.00,3030.70738608,N,11424.41907501,E,1,19,1.3,38.687,M,-12.666,M,,*79
$GPGGA,124040.00,3030.70740503,N,11424.41906285,E,1,19,1.3,38.660,M,-12.666,M,,*73
$GPGGA,124041.00,3030.70742184,N,11424.41905380,E,1,19,1.3,38.641,M,-12.666,M,,*7F
$GPGGA,124042.00,3030.70743209,N,11424.41904541,E,1,18,1.3,38.625,M,-12.666,M,,*72
$GPGGA,124043.00,3030.70744698,N,11424.41903865,E,1,18,1.3,38.611,M,-12.666,M,,*73
$GPGGA,124044.00,3030.70748362,N,11424.41901604,E,1,18,1.3,38.566,M,-12.666,M,,*70
$GPGGA,124045.00,3030.70750521,N,11424.41900631,E,1,18,1.3,38.547,M,-12.666,M,,*7D
$GPGGA,124046.00,3030.70750333,N,11424.41900659,E,1,18,1.3,38.542,M,-12.666,M,,*70
$GPGGA,124047.00,3030.70748898,N,11424.41901504,E,1,18,1.3,38.560,M,-12.666,M,,*78
$GPGGA,124048.00,3030.70748357,N,11424.41902125,E,1,18,1.3,38.575,M,-12.666,M,,*7F
$GPGGA,124049.00,3030.70749488,N,11424.41902157,E,1,18,1.3,38.581,M,-12.666,M,,*74
$GPGGA,124050.00,3030.70751732,N,11424.41901893,E,1,17,1.3,38.588,M,-12.666,M,,*73
$GPGGA,124051.00,3030.70753882,N,11424.41902113,E,1,17,1.3,38.614,M,-12.666,M,,*70
$GPGGA,124052.00,3030.70756326,N,11424.41902169,E,1,18,1.3,38.633,M,-12.666,M,,*74
$GPGGA,124053.00,3030.70759479,N,11424.41902046,E,1,18,1.3,38.646,M,-12.666,M,,*79
$GPGGA,124054.00,3030.70762026,N,11424.41902079,E,1,18,1.3,38.661,M,-12.666,M,,*71
$GPGGA,124055.00,3030.70765056,N,11424.41901956,E,1,17,1.3,38.679,M,-12.666,M,,*71
$GPGGA,124056.00,3030.70766466,N,11424.41902381,E,1,17,1.3,38.704,M,-12.666,M,,*7E
$GPGGA,124057.00,3030.70768115,N,11424.41902707,E,1,17,1.3,38.729,M,-12.666,M,,*75
$GPGGA,124058.00,3030.70769943,N,11424.41902985,E,1,17,1.3,38.755,M,-12.666,M,,*7F
$GPGGA,124059.00,3030.70771197,N,11424.41903651,E,1,17,1.3,38.788,M,-12.666,M,,*71
$GPGGA,124100.00,3030.70773062,N,11424.41903822,E,1,18,1.3,38.814,M,-12.666,M,,*7A
$GPGGA,124101.00,3030.70774651,N,11424.41904019,E,1,18,1.3,38.830,M,-12.666,M,,*7B
$GPGGA,124102.00,3030.70775727,N,11424.41904535,E,1,18,1.3,38.854,M,-12.666,M,,*70
$GPGGA,124103.00,3030.70781680,N,11424.41902509,E,2,19,1.2,38.738,M,-12.666,M,5.0,0137*57
$GPGGA,124104.00,3030.70793698,N,11424.41897453,E,2,19,1.2,38.437,M,-12.666,M,6.0,0137*56
$GPGGA,124105.00,3030.70804735,N,11424.41892991,E,2,19,1.2,38.166,M,-12.666,M,7.0,0137*56
$GPGGA,124106.00,3030.70814960,N,11424.41888496,E,2,19,1.2,37.911,M,-12.666,M,7.0,0137*5C
$GPGGA,124107.00,3030.70824095,N,11424.41884595,E,2,19,1.2,37.677,M,-12.666,M,3.0,0137*58
$GPGGA,124108.00,3030.70832103,N,11424.41881237,E,2,19,1.2,37.467,M,-12.666,M,4.0,0137*50
$GPGGA,124109.00,3030.70840077,N,11424.41877838,E,2,19,1.2,37.268,M,-12.666,M,5.0,0137*52
$GPGGA,124110.00,3030.70846507,N,11424.41875290,E,2,19,1.2,37.095,M,-12.666,M,6.0,0137*57
$GPGGA,124111.00,3030.70852503,N,11424.41872464,E,2,19,1.2,36.936,M,-12.666,M,7.0,0137*5D
$GPGGA,124112.00,3030.70858012,N,11424.41869860,E,2,19,1.2,36.793,M,-12.666,M,7.0,0137*52
$GPGGA,124113.00,3030.70862468,N,11424.41867767,E,2,19,1.2,36.664,M,-12.666,M,3.0,0137*58
$GPGGA,124114.00,3030.70866782,N,11424.41865784,E,2,19,1.2,36.548,M,-12.666,M,4.0,0137*59
$GPGGA,124115.00,3030.70870903,N,11424.41863938,E,2,19,1.2,36.441,M,-12.666,M,5.0,0137*5E
$GPGGA,124116.00,3030.70874534,N,11424.41862335,E,2,19,1.2,36.344,M,-12.666,M,6.0,0137*56
$GPGGA,124117.00,3030.70877256,N,11424.41861131,E,2,20,1.1,36.260,M,-12.666,M,7.0,0137*5D
$GPGGA,124118.00,3030.70879908,N,11424.41859727,E,2,20,1.1,36.183,M,-12.666,M,7.0,0137*58
$GPGGA,124119.00,3030.70881842,N,11424.41859016,E,2,20,1.1,36.119,M,-12.666,M,3.0,0137*53
$GPGGA,124120.00,3030.70883802,N,11424.41858055,E,2,20,1.1,36.060,M,-12.666,M,4.0,0137*51
$GPGGA,124121.00,3030.70885597,N,11424.41857493,E,2,19,1.1,36.012,M,-12.666,M,5.0,0137*58
$GPGGA,124122.00,3030.70887043,N,11424.41857021,E,2,19,1.1,35.966,M,-12.666,M,6.0,0137*52
$GPGGA,124123.00,3030.70888768,N,11424.41856175,E,2,19,1.1,35.915,M,-12.666,M,7.0,0137*56
$GPGGA,124124.00,3030.70889925,N,11424.41855733,E,2,19,1.1,35.882,M,-12.666,M,7.0,0137*5F
$GPGGA,124125.00,3030.70891232,N,11424.41855158,E,2,19,1.1,35.842,M,-12.666,M,3.0,0137*59
$GPGGA,124126.00,3030.70892349,N,11424.41854495,E,2,19,1.1,35.807,M,-12.666,M,4.0,0137*57
$GPGGA,124127.00,3030.70893614,N,11424.41854218,E,2,20,1.1,35.779,M,-12.666,M,5.0,0137*54
$GPGGA,124128.00,3030.70894135,N,11424.41854068,E,2,19,1.1,35.756,M,-12.666,M,6.0,0137*59
$GPGGA,124129.00,3030.70894623,N,11424.41853893,E,2,20,1.1,35.740,M,-12.666,M,7.0,0137*5F
$GPGGA,124130.00,3030.70895402,N,11424.41853594,E,2,20,1.1,35.718,M,-12.666,M,7.0,0137*50
$GPGGA,124131.00,3030.70895695,N,11424.41853605,E,2,20,1.1,35.703,M,-12.666,M,3.0,0137*58
$GPGGA,124132.00,3030.70895448,N,11424.41854459,E,2,20,1.1,35.705,M,-12.666,M,4.0,0137*54
$GPGGA,124133.00,3030.70894666,N,11424.41855675,E,2,20,1.1,35.714,M,-12.666,M,5.0,0137*56
$GPGGA,124134.00,3030.70893654,N,11424.41857101,E,2,20,1.2,35.722,M,-12.666,M,6.0,0137*54
$GPGGA,124135.00,3030.70891856,N,11424.41859182,E,2,20,1.2,35.742,M,-12.666,M,7.0,0137*59
$GPGGA,124136.00,3030.70889515,N,11424.41861574,E,2,20,1.2,35.779,M,-12.666,M,7.0,0137*57
$GPGGA,124137.00,3030.70885182,N,11424.41866064,E,2,20,1.2,35.846,M,-12.666,M,3.0,0137*54
$GPGGA,124138.00,3030.70878815,N,11424.41872522,E,2,20,1.2,35.926,M,-12.666,M,4.0,0137*5C
