$GPGGA,121126.00,3030.68635275,N,11424.10498076,E,4,12,0.8,37.805,M,-12.684,M,1.0,0000*5E
$GPGGA,121127.00,3030.68635164,N,11424.10497976,E,4,11,0.8,37.806,M,-12.684,M,1.0,0000*5A
$GPGGA,121128.00,3030.68635419,N,11424.10497846,E,4,11,0.8,37.799,M,-12.684,M,1.0,0000*51
$GPGGA,121129.00,3030.68635066,N,11424.10498042,E,4,12,0.8,37.812,M,-12.684,M,1.0,0000*50
$GPGGA,121130.00,3030.68635323,N,11424.10497865,E,4,11,0.8,37.806,M,-12.684,M,1.0,0000*5E
$GPGGA,121131.00,3030.68635563,N,11424.10497596,E,4,13,0.8,37.804,M,-12.684,M,1.0,0000*5C
$GPGGA,121132.00,3030.68635617,N,11424.10497771,E,4,12,0.8,37.812,M,-12.684,M,1.0,0000*52
$GPGGA,121133.00,3030.68635343,N,11424.10498001,E,4,13,0.8,37.812,M,-12.684,M,1.0,0000*59
$GPGGA,121134.00,3030.68635084,N,11424.10498021,E,4,11,0.8,37.808,M,-12.684,M,1.0,0000*5D
$GPGGA,121135.00,3030.68635487,N,11424.10497848,E,4,12,0.8,37.795,M,-12.684,M,1.0,0000*5B
$GPGGA,121136.00,3030.68635422,N,11424.10498119,E,4,13,0.8,37.812,M,-12.684,M,1.0,0000*54
$GPGGA,121137.00,3030.68635841,N,11424.10497828,E,4,11,0.8,37.800,M,-12.684,M,1.0,0000*59
$GPGGA,121138.00,3030.68635360,N,11424.10497695,E,4,11,0.8,37.802,M,-12.684,M,1.0,0000*54
$GPGGA,121139.00,3030.68635440,N,11424.10497652,E,4,13,0.8,37.814,M,-12.684,M,1.0,0000*5E
$GPGGA,121140.00,3030.68635497,N,11424.10497857,E,4,10,0.8,37.805,M,-12.684,M,1.0,0000*52
$GPGGA,121141.00,3030.68635899,N,11424.10497605,E,4,12,0.8,37.798,M,-12.684,M,1.0,0000*51
$GPGGA,121142.00,3030.68635984,N,11424.10497693,E,4,12,0.8,37.807,M,-12.684,M,1.0,0000*59
$GPGGA,121143.00,3030.68635588,N,11424.10497841,E,4,11,0.8,37.816,M,-12.684,M,1.0,0000*5A
$GPGGA,121144.00,3030.68635842,N,11424.10497697,E,4,13,0.8,37.805,M,-12.684,M,1.0,0000*53
$GPGGA,121145.00,3030.68636188,N,11424.10497735,E,4,10,0.8,37.805,M,-12.684,M,1.0,0000*54
$GPGGA,121146.00,3030.68635920,N,11424.10497631,E,4,12,0.8,37.811,M,-12.684,M,1.0,0000*5C
$GPGGA,121147.00,3030.68635962,N,11424.10497681,E,4,11,0.8,37.815,M,-12.684,M,1.0,0000*57
$GPGGA,121148.00,3030.68636009,N,11424.10497623,E,4,11,0.8,37.811,M,-12.684,M,1.0,0000*53
$GPGGA,121149.00,3030.68636066,N,11424.10497742,E,4,12,0.8,37.814,M,-12.684,M,1.0,0000*5B
$GPGGA,121150.00,3030.68636429,N,11424.10497496,E,4,10,0.8,37.814,M,-12.684,M,1.0,0000*54
$GPGGA,121151.00,3030.68635890,N,11424.10498044,E,4,13,0.8,37.826,M,-12.684,M,1.0,0000*5E
$GPGGA,121152.00,3030.68635715,N,11424.10497885,E,4,12,0.8,37.814,M,-12.684,M,1.0,0000*55
$GPGGA,121153.00,3030.68635958,N,11424.10497890,E,4,11,0.8,37.806,M,-12.684,M,1.0,0000*57
$GPGGA,121154.00,3030.68636360,N,11424.10497552,E,4,13,0.8,37.821,M,-12.684,M,1.0,0000*56
$GPGGA,121155.00,3030.68635916,N,11424.10497889,E,4,11,0.8,37.813,M,-12.684,M,1.0,0000*57
$GPGGA,121156.00,3030.68635926,N,11424.10497896,E,4,13,0.8,37.828,M,-12.684,M,1.0,0000*53
$GPGGA,121157.00,3030.68636165,N,11424.10497440,E,4,13,0.8,37.809,M,-12.684,M,1.0,0000*5A
$GPGGA,121158.00,3030.68635961,N,11424.10497832,E,4,11,0.8,37.810,M,-12.684,M,1.0,0000*59
$GPGGA,121159.00,3030.68635730,N,11424.10497868,E,4,13,0.8,37.810,M,-12.684,M,1.0,0000*5F
$GPGGA,121200.00,3030.68635728,N,11424.10497710,E,4,12,0.8,37.795,M,-12.684,M,1.0,0000*5A
$GPGGA,121201.00,3030.68635871,N,11424.10497773,E,4,13,0.8,37.819,M,-12.684,M,1.0,0000*57
$GPGGA,121202.00,3030.68635934,N,11424.10497746,E,4,12,0.8,37.818,M,-12.684,M,1.0,0000*52
$GPGGA,121203.00,3030.68636030,N,11424.10497656,E,4,11,0.8,37.816,M,-12.684,M,1.0,0000*50
$GPGGA,121204.00,3030.68636321,N,11424.10497544,E,4,12,0.8,37.817,M,-12.684,M,1.0,0000*56
$GPGGA,121205.00,3030.68636036,N,11424.10497755,E,4,11,0.8,37.823,M,-12.684,M,1.0,0000*54
$GPGGA,121206.00,3030.68636018,N,11424.10497557,E,4,12,0.8,37.808,M,-12.684,M,1.0,0000*51
$GPGGA,121207.00,3030.68636323,N,11424.10497722,E,4,12,0.8,37.820,M,-12.684,M,1.0,0000*51
$GPGGA,121208.00,3030.68636140,N,11424.10497738,E,4,11,0.8,37.825,M,-12.684,M,1.0,0000*54
$GPGGA,121209.00,3030.68636453,N,11424.10497465,E,4,12,0.8,37.826,M,-12.684,M,2.0,0000*5A
$GPGGA,121210.00,3030.68636229,N,11424.10497670,E,4,12,0.8,37.824,M,-12.684,M,1.0,0000*5E
$GPGGA,121211.00,3030.68636147,N,11424.10497817,E,4,11,0.8,37.822,M,-12.684,M,1.0,0000*5E
$GPGGA,121212.00,3030.68636144,N,11424.10497533,E,4,13,0.8,37.812,M,-12.684,M,1.0,0000*54
$GPGGA,121213.00,3030.68636015,N,11424.10497737,E,4,12,0.8,37.813,M,-12.684,M,1.0,0000*56
$GPGGA,121214.00,3030.68636111,N,11424.10497634,E,4,13,0.8,37.821,M,-12.684,M,1.0,0000*56
$GPGGA,121215.00,3030.68635469,N,11424.10497874,E,4,12,0.8,37.835,M,-12.684,M,1.0,0000*50
$GPGGA,121216.00,3030.68635585,N,11424.10497791,E,4,12,0.8,37.825,M,-12.684,M,1.0,0000*55
$GPGGA,121217.00,3030.68635784,N,11424.10497639,E,4,13,0.8,37.835,M,-12.684,M,1.0,0000*54
$GPGGA,121218.00,3030.68635878,N,11424.10497667,E,4,11,0.8,37.828,M,-12.684,M,1.0,0000*52
$GPGGA,121219.00,3030.68636002,N,11424.10497707,E,4,12,0.8,37.831,M,-12.684,M,2.0,0000*5A
$GPGGA,121220.00,3030.68635244,N,11424.10497948,E,4,12,0.8,37.823,M,-12.684,M,1.0,0000*56
$GPGGA,121221.00,3030.68635739,N,11424.10497689,E,4,11,0.8,37.828,M,-12.684,M,1.0,0000*52
$GPGGA,121222.00,3030.68635215,N,11424.10497812,E,4,12,0.8,37.808,M,-12.684,M,1.0,0000*57
$GPGGA,121223.00,3030.68635418,N,11424.10497791,E,4,13,0.8,37.814,M,-12.684,M,2.0,0000*56
$GPGGA,121224.00,3030.68635126,N,11424.10497866,E,4,12,0.8,37.808,M,-12.684,M,3.0,0000*53
$GPGGA,121225.00,3030.68635546,N,11424.10497981,E,4,12,0.8,37.838,M,-12.684,M,2.0,0000*5A
$GPGGA,121226.00,3030.68635234,N,11424.10497984,E,4,13,0.8,37.828,M,-12.684,M,1.0,0000*5D
$GPGGA,121227.00,3030.68635792,N,11424.10497748,E,4,12,0.8,37.818,M,-12.684,M,1.0,0000*59
$GPGGA,121228.00,3030.68635293,N,11424.10498025,E,4,12,0.8,37.814,M,-12.684,M,1.0,0000*5D
$GPGGA,121229.00,3030.68635431,N,11424.10497805,E,4,13,0.7,37.824,M,-12.684,M,1.0,0000*5A
$GPGGA,121230.00,3030.68635410,N,11424.10497946,E,4,13,0.7,37.824,M,-12.684,M,2.0,0000*54
$GPGGA,121231.00,3030.68635375,N,11424.10497998,E,4,11,0.8,37.806,M,-12.684,M,1.0,0000*5C
$GPGGA,121232.00,3030.68634988,N,11424.10498095,E,4,12,0.7,37.801,M,-12.684,M,1.0,0000*56
$GPGGA,121233.00,3030.68635025,N,11424.10498248,E,4,12,0.7,37.809,M,-12.684,M,1.0,0000*52
$GPGGA,121234.00,3030.68634841,N,11424.10498245,E,4,12,0.8,37.812,M,-12.684,M,1.0,0000*56
$GPGGA,121235.00,3030.68634949,N,11424.10498264,E,4,14,0.7,37.802,M,-12.684,M,1.0,0000*55
$GPGGA,121236.00,3030.68635488,N,11424.10497725,E,4,14,0.7,37.803,M,-12.684,M,1.0,0000*59
$GPGGA,121237.00,3030.68635765,N,11424.10498140,E,4,12,0.8,37.811,M,-12.684,M,1.0,0000*58
$GPGGA,121238.00,3030.68635489,N,11424.10498004,E,4,14,0.7,37.814,M,-12.684,M,1.0,0000*5B
$GPGGA,121239.00,3030.68635631,N,11424.10497831,E,4,14,0.7,37.824,M,-12.684,M,1.0,0000*59
$GPGGA,121240.00,3030.68635924,N,11424.10497927,E,4,13,0.8,37.813,M,-12.684,M,1.0,0000*56
$GPGGA,121241.00,3030.68635573,N,11424.10497845,E,4,12,0.8,37.827,M,-12.684,M,1.0,0000*5A
$GPGGA,121242.00,3030.68635528,N,11424.10498447,E,4,12,0.8,37.818,M,-12.684,M,1.0,0000*5A
$GPGGA,121243.00,3030.68635423,N,11424.10497976,E,4,13,0.8,37.823,M,-12.684,M,1.0,0000*58
$GPGGA,121244.00,3030.68635439,N,11424.10497799,E,4,13,0.8,37.827,M,-12.684,M,1.0,0000*5F
$GPGGA,121245.00,3030.68635650,N,11424.10497827,E,4,12,0.8,37.819,M,-12.684,M,1.0,0000*55
$GPGGA,121246.00,3030.68635472,N,11424.10497993,E,4,12,0.8,37.828,M,-12.684,M,1.0,0000*58
$GPGGA,121247.00,3030.68635111,N,11424.10497865,E,4,12,0.8,37.829,M,-12.684,M,1.0,0000*50
$GPGGA,121248.00,3030.68635110,N,11424.10498033,E,4,13,0.8,37.842,M,-12.684,M,1.0,0000*56
$GPGGA,121249.00,3030.68635161,N,11424.10498072,E,4,13,0.8,37.826,M,-12.684,M,1.0,0000*56
$GPGGA,121250.00,3030.68635270,N,11424.10497878,E,4,13,0.8,37.837,M,-12.684,M,1.0,0000*50
$GPGGA,121251.00,3030.68635197,N,11424.10497836,E,4,13,0.8,37.832,M,-12.684,M,1.0,0000*54
$GPGGA,121252.00,3030.68635145,N,11424.10498095,E,4,13,0.8,37.836,M,-12.684,M,1.0,0000*52
$GPGGA,121253.00,3030.68635304,N,11424.10497845,E,4,12,0.8,37.841,M,-12.684,M,1.0,0000*5F
$GPGGA,121254.00,3030.68634956,N,11424.10498116,E,4,12,0.8,37.846,M,-12.684,M,1.0,0000*53
$GPGGA,121255.00,3030.68635045,N,11424.10497979,E,4,12,0.8,37.851,M,-12.684,M,1.0,0000*50
$GPGGA,121256.00,3030.68635133,N,11424.10498044,E,4,12,0.8,37.842,M,-12.684,M,1.0,0000*59
$GPGGA,121257.00,3030.68635168,N,11424.10498031,E,4,13,0.8,37.837,M,-12.684,M,1.0,0000*57
$GPGGA,121258.00,3030.68634866,N,11424.10498131,E,4,11,0.8,37.835,M,-12.684,M,1.0,0000*5F
$GPGGA,121259.00,3030.68635046,N,11424.10497947,E,4,11,0.8,37.829,M,-12.684,M,1.0,0000*5E
$GPGGA,121300.00,3030.68634821,N,11424.10498143,E,4,11,0.8,37.822,M,-12.684,M,1.0,0000*53
$GPGGA,121301.00,3030.68634898,N,11424.10498253,E,4,11,0.8,37.810,M,-12.684,M,1.0,0000*53
$GPGGA,121302.00,3030.68634903,N,11424.10498468,E,4,11,0.8,37.813,M,-12.684,M,1.0,0000*5E
$GPGGA,121303.00,3030.68634833,N,11424.10498413,E,4,10,0.8,37.801,M,-12.684,M,1.0,0000*53
$GPGGA,121304.00,3030.68635056,N,11424.10497690,E,4,12,0.8,37.855,M,-12.684,M,1.0,0000*5B
$GPGGA,121305.00,3030.68634729,N,11424.10497773,E,4,11,0.8,37.856,M,-12.684,M,1.0,0000*58
$GPGGA,121306.00,3030.68634584,N,11424.10497790,E,4,12,0.8,37.861,M,-12.684,M,1.0,0000*54
$GPGGA,121307.00,3030.68634787,N,11424.10497842,E,4,11,0.8,37.851,M,-12.684,M,1.0,0000*54
$GPGGA,121308.00,3030.68634927,N,11424.10497577,E,4,12,0.8,37.862,M,-12.684,M,1.0,0000*57
$GPGGA,121309.00,3030.68634834,N,11424.10497824,E,4,12,0.8,37.851,M,-12.684,M,1.0,0000*5E
$GPGGA,121310.00,3030.68634957,N,11424.10497728,E,4,10,0.8,37.845,M,-12.684,M,1.0,0000*56
$GPGGA,121311.00,3030.68634818,N,11424.10497556,E,4,09,0.8,37.856,M,-12.684,M,1.0,0000*5C
$GPGGA,121312.00,3030.68634764,N,11424.10497669,E,4,08,0.8,37.859,M,-12.684,M,1.0,0000*5A
$GPGGA,121313.00,3030.68634530,N,11424.10497634,E,4,09,0.8,37.852,M,-12.684,M,1.0,0000*5A
$GPGGA,121314.00,3030.68635176,N,11424.10497486,E,4,09,0.8,37.853,M,-12.684,M,1.0,0000*50
$GPGGA,121315.00,3030.68635300,N,11424.10497573,E,4,09,0.8,37.863,M,-12.684,M,1.0,0000*5A
$GPGGA,121316.00,3030.68636584,N,11424.10497815,E,4,11,0.8,37.851,M,-12.684,M,1.0,0000*55
$GPGGA,121317.00,3030.68636955,N,11424.10497603,E,4,10,0.8,37.846,M,-12.684,M,1.0,0000*5A
$GPGGA,121318.00,3030.68636850,N,11424.10497589,E,4,09,0.9,37.850,M,-12.684,M,1.0,0000*5E
$GPGGA,121319.00,3030.68636640,N,11424.10497621,E,4,09,0.9,37.851,M,-12.684,M,1.0,0000*50
$GPGGA,121320.00,3030.68636650,N,11424.10497601,E,4,09,0.9,37.849,M,-12.684,M,1.0,0000*50
$GPGGA,121321.00,3030.68636779,N,11424.10497363,E,4,10,0.9,37.853,M,-12.684,M,1.0,0000*59
$GPGGA,121322.00,3030.68636776,N,11424.10497670,E,4,09,0.9,37.852,M,-12.684,M,1.0,0000*5B
$GPGGA,121323.00,3030.68636895,N,11424.10497419,E,4,09,0.9,37.851,M,-12.684,M,1.0,0000*56
$GPGGA,121324.00,3030.68636441,N,11424.10497792,E,4,09,0.9,37.853,M,-12.684,M,1.0,0000*56
$GPGGA,121325.00,3030.68636420,N,11424.10497862,E,4,10,0.9,37.846,M,-12.684,M,1.0,0000*5C
$GPGGA,121326.00,3030.68636566,N,11424.10497487,E,4,10,0.9,37.835,M,-12.684,M,1.0,0000*5F
$GPGGA,121327.00,3030.68636637,N,11424.10497682,E,4,10,0.9,37.840,M,-12.684,M,1.0,0000*5C
$GPGGA,121328.00,3030.68636079,N,11424.10497626,E,4,10,0.9,37.829,M,-12.684,M,1.0,0000*5E
$GPGGA,121329.00,3030.68636754,N,11424.10497588,E,4,10,0.9,37.834,M,-12.684,M,1.0,0000*5C
$GPGGA,121330.00,3030.68636793,N,11424.10497613,E,4,09,0.9,37.845,M,-12.684,M,1.0,0000*50
$GPGGA,121331.00,3030.68636929,N,11424.10497871,E,4,10,0.9,37.843,M,-12.684,M,1.0,0000*5A
$GPGGA,121332.00,3030.68636820,N,11424.10497685,E,4,09,0.9,37.841,M,-12.684,M,1.0,0000*5E
$GPGGA,121333.00,3030.68636448,N,11424.10497807,E,4,10,0.9,37.843,M,-12.684,M,1.0,0000*53
$GPGGA,121334.00,3030.68636590,N,11424.10497692,E,4,09,0.9,37.844,M,-12.684,M,1.0,0000*5D
$GPGGA,121335.00,3030.68636443,N,11424.10497591,E,4,09,0.9,37.835,M,-12.684,M,1.0,0000*55
$GPGGA,121336.00,3030.68636379,N,11424.10497774,E,4,10,0.9,37.842,M,-12.684,M,1.0,0000*59
$GPGGA,121337.00,3030.68636568,N,11424.10497473,E,4,09,0.9,37.840,M,-12.684,M,1.0,0000*50
$GPGGA,121338.00,3030.68636460,N,11424.10497552,E,4,10,0.9,37.833,M,-12.684,M,1.0,0000*58
$GPGGA,121339.00,3030.68636381,N,11424.10497863,E,4,09,0.9,37.847,M,-12.684,M,1.0,0000*55
$GPGGA,121340.00,3030.68636516,N,11424.10497757,E,4,09,0.9,37.843,M,-12.684,M,1.0,0000*5F
$GPGGA,121341.00,3030.68636367,N,11424.10497723,E,4,10,0.9,37.835,M,-12.684,M,1.0,0000*54
$GPGGA,121342.00,3030.68635954,N,11424.10497822,E,4,10,0.9,37.832,M,-12.684,M,1.0,0000*57
$GPGGA,121343.00,3030.68636457,N,11424.10497765,E,4,09,0.9,37.843,M,-12.684,M,1.0,0000*59
$GPGGA,121344.00,3030.68636040,N,11424.10497820,E,4,09,0.9,37.848,M,-12.684,M,1.0,0000*59
$GPGGA,121345.00,3030.68636495,N,11424.10497706,E,4,10,0.9,37.832,M,-12.684,M,1.0,0000*5A
$GPGGA,121346.00,3030.68636250,N,11424.10497865,E,4,09,0.9,37.843,M,-12.684,M,1.0,0000*52
$GPGGA,121347.00,3030.68636256,N,11424.10497710,E,4,11,0.9,37.835,M,-12.684,M,1.0,0000*50
$GPGGA,121348.00,3030.68636116,N,11424.10497895,E,4,10,0.8,37.854,M,-12.684,M,1.0,0000*5D
$GPGGA,121349.00,3030.68636381,N,11424.10497932,E,4,09,0.9,37.843,M,-12.684,M,1.0,0000*53
$GPGGA,121350.00,3030.68635856,N,11424.10497823,E,4,12,0.9,37.831,M,-12.684,M,1.0,0000*57
$GPGGA,121351.00,3030.68636358,N,11424.10497531,E,4,12,0.9,37.839,M,-12.684,M,1.0,0000*56
$GPGGA,121352.00,3030.68636319,N,11424.10497813,E,4,10,0.8,37.834,M,-12.684,M,1.0,0000*53
$GPGGA,121353.00,3030.68636194,N,11424.10497790,E,4,09,1.2,37.845,M,-12.684,M,1.0,0000*54
$GPGGA,121354.00,3030.68636400,N,11424.10497533,E,4,12,1.0,37.833,M,-12.684,M,1.0,0000*59
$GPGGA,121355.00,3030.68635928,N,11424.10497857,E,4,12,0.8,37.841,M,-12.684,M,1.0,0000*5F
$GPGGA,121356.00,3030.68636094,N,11424.10497696,E,4,10,1.2,37.834,M,-12.684,M,1.0,0000*59
$GPGGA,121357.00,3030.68636515,N,11424.10497633,E,4,12,0.9,37.849,M,-12.684,M,1.0,0000*59
$GPGGA,121358.00,3030.68636176,N,11424.10497737,E,4,12,0.8,37.828,M,-12.684,M,1.0,0000*54
$GPGGA,121359.00,3030.68636141,N,11424.10497832,E,4,09,1.0,37.831,M,-12.684,M,1.0,0000*50
$GPGGA,121400.00,3030.68636532,N,11424.10497613,E,4,11,0.9,37.839,M,-12.684,M,1.0,0000*5F
$GPGGA,121401.00,3030.68636350,N,11424.10497542,E,4,11,0.9,37.830,M,-12.684,M,1.0,0000*52
$GPGGA,121402.00,3030.68636067,N,11424.10497838,E,4,12,0.8,37.842,M,-12.684,M,1.0,0000*51
$GPGGA,121403.00,3030.68636108,N,11424.10497826,E,4,10,1.2,37.840,M,-12.684,M,1.0,0000*5C
$GPGGA,121404.00,3030.68636300,N,11424.10497956,E,4,11,0.9,37.848,M,-12.684,M,1.0,0000*54
$GPGGA,121405.00,3030.68636295,N,11424.10497621,E,4,11,0.8,37.852,M,-12.684,M,1.0,0000*5D
$GPGGA,121406.00,3030.68636300,N,11424.10497665,E,4,10,1.2,37.859,M,-12.684,M,1.0,0000*52
$GPGGA,121407.00,3030.68636185,N,11424.10497708,E,4,10,0.9,37.837,M,-12.684,M,1.0,0000*54
$GPGGA,121408.00,3030.68636033,N,11424.10497765,E,4,12,0.8,37.834,M,-12.684,M,1.0,0000*5C
$GPGGA,121409.00,3030.68635779,N,11424.10497615,E,4,09,1.2,37.830,M,-12.684,M,1.0,0000*54
$GPGGA,121410.00,3030.68636472,N,11424.10497457,E,4,10,1.2,37.843,M,-12.684,M,1.0,0000*5F
$GPGGA,121411.00,3030.68636012,N,11424.10497819,E,4,12,0.9,37.847,M,-12.684,M,1.0,0000*56
$GPGGA,121412.00,3030.68636353,N,11424.10497676,E,4,10,0.8,37.847,M,-12.684,M,1.0,0000*57
$GPGGA,121413.00,3030.68636564,N,11424.10497273,E,4,10,1.0,37.834,M,-12.684,M,1.0,0000*58
$GPGGA,121414.00,3030.68636238,N,11424.10497575,E,4,12,0.9,37.844,M,-12.684,M,1.0,0000*5D
$GPGGA,121415.00,3030.68636138,N,11424.10497659,E,4,10,0.8,37.844,M,-12.684,M,1.0,0000*51
$GPGGA,121416.00,3030.68635824,N,11424.10497499,E,4,11,0.9,37.854,M,-12.684,M,1.0,0000*5A
$GPGGA,121417.00,3030.68636059,N,11424.10497507,E,4,10,0.8,37.852,M,-12.684,M,1.0,0000*5A
$GPGGA,121418.00,3030.68636153,N,11424.10497546,E,4,12,0.8,37.865,M,-12.684,M,1.0,0000*5D
$GPGGA,121419.00,3030.68636182,N,11424.10497508,E,4,11,0.9,37.849,M,-12.684,M,1.0,0000*56
$GPGGA,121420.00,3030.68636270,N,11424.10497468,E,4,11,0.8,37.848,M,-12.684,M,1.0,0000*55
$GPGGA,121421.00,3030.68635580,N,11424.10497733,E,4,12,0.8,37.845,M,-12.684,M,1.0,0000*5C
$GPGGA,121422.00,3030.68635797,N,11424.10497487,E,4,10,0.8,37.847,M,-12.684,M,1.0,0000*57
$GPGGA,121423.00,3030.68635620,N,11424.10497802,E,4,11,0.9,37.842,M,-12.684,M,1.0,0000*5F
$GPGGA,121424.00,3030.68636353,N,11424.10497656,E,4,12,0.8,37.853,M,-12.684,M,2.0,0000*54
$GPGGA,121425.00,3030.68636265,N,11424.10497416,E,4,10,0.8,37.847,M,-12.684,M,3.0,0000*51
$GPGGA,121426.00,3030.68635874,N,11424.10497403,E,4,11,1.0,37.848,M,-12.684,M,2.0,0000*59
$GPGGA,121427.00,3030.68635851,N,11424.10497685,E,4,11,0.8,37.839,M,-12.684,M,1.0,0000*5F
$GPGGA,121428.00,3030.68635802,N,11424.10497412,E,4,12,0.8,37.834,M,-12.684,M,1.0,0000*54
$GPGGA,121429.00,3030.68635948,N,11424.10497517,E,4,12,0.8,37.831,M,-12.684,M,1.0,0000*5B
$GPGGA,121430.00,3030.68635813,N,11424.10497649,E,4,11,1.0,37.842,M,-12.684,M,1.0,0000*5A
$GPGGA,121431.00,3030.68635644,N,11424.10497722,E,4,11,1.0,37.844,M,-12.684,M,1.0,0000*5D
$GPGGA,121432.00,3030.68635171,N,11424.10497554,E,4,11,0.8,37.812,M,-12.684,M,1.0,0000*56
$GPGGA,121433.00,3030.68635673,N,11424.10497322,E,4,12,1.0,37.809,M,-12.684,M,2.0,0000*56
$GPGGA,121434.00,3030.68634963,N,11424.10497666,E,4,11,1.0,37.828,M,-12.684,M,1.0,0000*58
$GPGGA,121435.00,3030.68634815,N,11424.10497625,E,4,11,0.8,37.823,M,-12.684,M,1.0,0000*5C
$GPGGA,121436.00,3030.68635560,N,11424.10497384,E,4,12,1.0,37.812,M,-12.684,M,1.0,0000*57
$GPGGA,121437.00,3030.68635265,N,11424.10497431,E,4,11,1.0,37.820,M,-12.684,M,1.0,0000*5F
$GPGGA,121438.00,3030.68635159,N,11424.10497397,E,4,11,1.0,37.820,M,-12.684,M,1.0,0000*57
$GPGGA,121439.00,3030.68635064,N,11424.10497411,E,4,12,1.0,37.820,M,-12.684,M,1.0,0000*53
$GPGGA,121440.00,3030.68635481,N,11424.10497289,E,4,11,1.0,37.819,M,-12.684,M,1.0,0000*5C
$GPGGA,121441.00,3030.68635486,N,11424.10497273,E,4,12,1.0,37.826,M,-12.684,M,1.0,0000*50
$GPGGA,121442.00,3030.68635279,N,11424.10497219,E,4,12,1.0,37.829,M,-12.684,M,1.0,0000*56
$GPGGA,121443.00,3030.68635704,N,11424.10497177,E,4,11,1.0,37.815,M,-12.684,M,1.0,0000*5F
$GPGGA,121444.00,3030.68635208,N,11424.10497385,E,4,11,1.0,37.815,M,-12.684,M,1.0,0000*5E
$GPGGA,121445.00,3030.68635254,N,11424.10497381,E,4,12,1.0,37.813,M,-12.684,M,1.0,0000*57
$GPGGA,121446.00,3030.68635406,N,11424.10497334,E,4,11,1.0,37.818,M,-12.684,M,1.0,0000*53
$GPGGA,121447.00,3030.68635279,N,11424.10497371,E,4,12,1.0,37.822,M,-12.684,M,1.0,0000*57
$GPGGA,121448.00,3030.68635246,N,11424.10497436,E,4,11,1.0,37.817,M,-12.684,M,1.0,0000*55
$GPGGA,121449.00,3030.68635472,N,11424.10497405,E,4,11,1.0,37.816,M,-12.684,M,1.0,0000*54
$GPGGA,121450.00,3030.68635605,N,11424.10497478,E,4,12,1.0,37.834,M,-12.684,M,1.0,0000*57
$GPGGA,121451.00,3030.68635061,N,11424.10497502,E,4,13,0.8,37.815,M,-12.684,M,1.0,0000*55
$GPGGA,121452.00,3030.68635320,N,11424.10497540,E,4,12,1.0,37.817,M,-12.684,M,1.0,0000*5C
$GPGGA,121453.00,3030.68635057,N,11424.10497538,E,4,12,1.0,37.815,M,-12.684,M,1.0,0000*53
$GPGGA,121454.00,3030.68634852,N,11424.10497523,E,4,13,0.8,37.813,M,-12.684,M,2.0,0000*5F
$GPGGA,121455.00,3030.68635567,N,11424.10497382,E,4,11,1.0,37.820,M,-12.684,M,1.0,0000*51
$GPGGA,121456.00,3030.68635209,N,11424.10497268,E,4,13,1.0,37.818,M,-12.684,M,1.0,0000*51
$GPGGA,121457.00,3030.68635527,N,11424.10497173,E,4,13,1.0,37.815,M,-12.684,M,1.0,0000*5F
$GPGGA,121458.00,3030.68635466,N,11424.10497087,E,4,12,0.8,37.806,M,-12.684,M,1.0,0000*54
$GPGGA,121459.00,3030.68635266,N,11424.10497429,E,4,12,1.0,37.815,M,-12.684,M,1.0,0000*58
$GPGGA,121500.00,3030.68635127,N,11424.10497659,E,4,13,1.0,37.836,M,-12.684,M,1.0,0000*56
$GPGGA,121501.00,3030.68635442,N,11424.10497444,E,4,12,0.8,37.824,M,-12.684,M,1.0,0000*54
$GPGGA,121502.00,3030.68635540,N,11424.10497168,E,4,10,1.1,37.821,M,-12.684,M,1.0,0000*50
$GPGGA,121503.00,3030.68634924,N,11424.10497252,E,4,12,1.1,37.807,M,-12.684,M,1.0,0000*52
$GPGGA,121504.00,3030.68635054,N,11424.10497272,E,4,10,0.8,37.795,M,-12.684,M,1.0,0000*56
$GPGGA,121505.00,3030.68635843,N,11424.10497440,E,4,09,1.1,37.829,M,-12.684,M,1.0,0000*56
$GPGGA,121506.00,3030.68635808,N,11424.10497904,E,4,11,1.1,37.842,M,-12.684,M,1.0,0000*53
$GPGGA,121507.00,3030.68636157,N,11424.10497656,E,4,11,1.1,37.832,M,-12.684,M,1.0,0000*5D
$GPGGA,121508.00,3030.68636121,N,11424.10497487,E,4,10,0.9,37.838,M,-12.684,M,1.0,0000*5F
$GPGGA,121509.00,3030.68635956,N,11424.10497532,E,4,09,1.1,37.830,M,-12.684,M,1.0,0000*53
$GPGGA,121510.00,3030.68636091,N,11424.10497405,E,4,10,1.1,37.829,M,-12.684,M,1.0,0000*5F
$GPGGA,121511.00,3030.68636045,N,11424.10497635,E,4,10,0.9,37.829,M,-12.684,M,1.0,0000*5F
$GPGGA,121512.00,3030.68635997,N,11424.10497587,E,4,10,1.1,37.831,M,-12.684,M,1.0,0000*53
$GPGGA,121513.00,3030.68635763,N,11424.10497806,E,4,11,1.1,37.829,M,-12.684,M,1.0,0000*5B
$GPGGA,121514.00,3030.68636034,N,11424.10497590,E,4,10,0.9,37.840,M,-12.684,M,1.0,0000*5F
$GPGGA,121515.00,3030.68635344,N,11424.10497694,E,4,09,1.1,37.829,M,-12.684,M,1.0,0000*50
$GPGGA,121516.00,3030.68635270,N,11424.10497803,E,4,11,1.1,37.810,M,-12.684,M,1.0,0000*56
$GPGGA,121517.00,3030.68636520,N,11424.10497806,E,4,10,1.0,37.838,M,-12.684,M,1.0,0000*59
$GPGGA,121518.00,3030.68636341,N,11424.10497900,E,4,11,0.8,37.827,M,-12.684,M,2.0,0000*55
$GPGGA,121519.00,3030.68636432,N,11424.10497403,E,4,10,1.0,37.829,M,-12.684,M,1.0,0000*5C
$GPGGA,121520.00,3030.68636268,N,11424.10497798,E,4,09,1.0,37.830,M,-12.684,M,1.0,0000*5E
$GPGGA,121521.00,3030.68635841,N,11424.10497773,E,4,09,1.0,37.834,M,-12.684,M,1.0,0000*5C
$GPGGA,121522.00,3030.68635775,N,11424.10497643,E,4,10,1.0,37.826,M,-12.684,M,1.0,0000*5E
$GPGGA,121523.00,3030.68636061,N,11424.10497619,E,4,10,1.0,37.829,M,-12.684,M,1.0,0000*5E
$GPGGA,121524.00,3030.68636123,N,11424.10497624,E,4,09,1.0,37.826,M,-12.684,M,1.0,0000*57
$GPGGA,121525.00,3030.68635908,N,11424.10497658,E,4,09,1.0,37.826,M,-12.684,M,1.0,0000*5F
$GPGGA,121526.00,3030.68635736,N,11424.10497722,E,4,10,0.8,37.829,M,-12.684,M,1.0,0000*5D
$GPGGA,121527.00,3030.68635845,N,11424.10497660,E,4,10,1.0,37.849,M,-12.684,M,1.0,0000*5F
$GPGGA,121528.00,3030.68635032,N,11424.10497822,E,4,09,1.0,37.819,M,-12.684,M,1.0,0000*5D
$GPGGA,121529.00,3030.68635812,N,11424.10497585,E,4,09,0.8,37.827,M,-12.684,M,1.0,0000*52
$GPGGA,121530.00,3030.68635805,N,11424.10497610,E,4,09,1.0,37.824,M,-12.684,M,1.0,0000*59
$GPGGA,121531.00,3030.68635477,N,11424.10497962,E,4,08,1.0,37.841,M,-12.684,M,1.0,0000*59
$GPGGA,121532.00,3030.68636009,N,11424.10497627,E,4,08,1.0,37.840,M,-12.684,M,1.0,0000*5B
$GPGGA,121533.00,3030.68635732,N,11424.10497626,E,4,09,0.8,37.835,M,-12.684,M,1.0,0000*5D
$GPGGA,121534.00,3030.68635293,N,11424.10497873,E,4,09,1.0,37.828,M,-12.684,M,1.0,0000*5F
$GPGGA,121535.00,3030.68636257,N,11424.10498107,E,4,10,1.0,37.855,M,-12.684,M,1.0,0000*52
$GPGGA,121536.00,3030.68635990,N,11424.10497497,E,4,10,0.8,37.835,M,-12.684,M,1.0,0000*5E
$GPGGA,121537.00,3030.68635826,N,11424.10497548,E,4,09,1.0,37.833,M,-12.684,M,1.0,0000*57
$GPGGA,121538.00,3030.68635870,N,11424.10497663,E,4,10,0.8,37.842,M,-12.684,M,1.0,0000*56
$GPGGA,121539.00,3030.68636015,N,11424.10497787,E,4,09,0.8,37.838,M,-12.684,M,1.0,0000*51
$GPGGA,121540.00,3030.68635936,N,11424.10497980,E,4,09,1.0,37.850,M,-12.684,M,1.0,0000*5A
$GPGGA,121541.00,3030.68635467,N,11424.10497783,E,4,10,0.8,37.836,M,-12.684,M,1.0,0000*5E
$GPGGA,121542.00,3030.68635560,N,11424.10497736,E,4,10,0.8,37.834,M,-12.684,M,1.0,0000*57
$GPGGA,121543.00,3030.68635628,N,11424.10497532,E,4,10,0.9,37.830,M,-12.684,M,1.0,0000*5A
$GPGGA,121544.00,3030.68635550,N,11424.10497615,E,4,09,1.1,37.819,M,-12.684,M,1.0,0000*5D
$GPGGA,121545.00,3030.68635683,N,11424.10497863,E,4,10,0.9,37.838,M,-12.684,M,1.0,0000*5C
$GPGGA,121546.00,3030.68635927,N,11424.10497623,E,4,09,0.9,37.840,M,-12.684,M,1.0,0000*53
$GPGGA,121547.00,3030.68635831,N,11424.10497710,E,4,10,1.1,37.829,M,-12.684,M,1.0,0000*5B
$GPGGA,121548.00,3030.68635845,N,11424.10497988,E,4,10,1.1,37.851,M,-12.684,M,1.0,0000*57
$GPGGA,121549.00,3030.68635492,N,11424.10497686,E,4,10,0.9,37.843,M,-12.684,M,1.0,0000*5B
$GPGGA,121550.00,3030.68635733,N,11424.10497794,E,4,09,1.1,37.836,M,-12.684,M,1.0,0000*5A
$GPGGA,121551.00,3030.68636040,N,11424.10497846,E,4,10,0.9,37.847,M,-12.684,M,1.0,0000*5C
$GPGGA,121552.00,3030.68635582,N,11424.10497829,E,4,10,0.9,37.853,M,-12.684,M,1.0,0000*5B
$GPGGA,121553.00,3030.68635522,N,11424.10497796,E,4,09,0.9,37.848,M,-12.684,M,1.0,0000*59
$GPGGA,121554.00,3030.68635680,N,11424.10497915,E,4,10,1.1,37.844,M,-12.684,M,1.0,0000*5D
$GPGGA,121555.00,3030.68635813,N,11424.10497736,E,4,09,0.9,37.836,M,-12.684,M,1.0,0000*53
$GPGGA,121556.00,3030.68635507,N,11424.10497723,E,4,10,0.9,37.843,M,-12.684,M,1.0,0000*56
$GPGGA,121557.00,3030.68636123,N,11424.10497880,E,4,09,1.1,37.852,M,-12.684,M,1.0,0000*51
$GPGGA,121558.00,3030.68635617,N,11424.10497824,E,4,10,0.9,37.837,M,-12.684,M,1.0,0000*51
$GPGGA,121559.00,3030.68635855,N,11424.10497814,E,4,10,0.9,37.839,M,-12.684,M,1.0,0000*55
$GPGGA,121600.00,3030.68635269,N,11424.10497984,E,4,10,1.1,37.849,M,-12.684,M,1.0,0000*59
$GPGGA,121601.00,3030.68635838,N,11424.10497704,E,4,09,1.1,37.848,M,-12.684,M,1.0,0000*59
$GPGGA,121602.00,3030.68635245,N,11424.10498025,E,4,09,1.1,37.848,M,-12.684,M,1.0,0000*51
$GPGGA,121603.00,3030.68635531,N,11424.10497727,E,4,10,1.1,37.844,M,-12.684,M,1.0,0000*5A
$GPGGA,121604.00,3030.68635562,N,11424.10498058,E,4,09,1.1,37.857,M,-12.684,M,1.0,0000*51
$GPGGA,121605.00,3030.68635339,N,11424.10497851,E,4,09,1.1,37.832,M,-12.684,M,1.0,0000*55
$GPGGA,121606.00,3030.68635087,N,11424.10497872,E,4,09,1.1,37.841,M,-12.684,M,1.0,0000*55
$GPGGA,121607.00,3030.68635785,N,11424.10497814,E,4,09,1.1,37.840,M,-12.684,M,1.0,0000*50
$GPGGA,121608.00,3030.68635298,N,11424.10497769,E,4,10,1.1,37.835,M,-12.684,M,1.0,0000*59
$GPGGA,121609.00,3030.68635726,N,11424.10497688,E,4,10,1.1,37.827,M,-12.684,M,1.0,0000*55
$GPGGA,121610.00,3030.68635368,N,11424.10497952,E,4,09,1.1,37.843,M,-12.684,M,1.0,0000*51
$GPGGA,121611.00,3030.68635596,N,11424.10497688,E,4,10,1.1,37.843,M,-12.684,M,1.0,0000*57
$GPGGA,121612.00,3030.68635638,N,11424.10498007,E,4,10,1.1,37.841,M,-12.684,M,1.0,0000*5F
$GPGGA,121613.00,3030.68635419,N,11424.10498038,E,4,10,1.0,37.857,M,-12.684,M,1.0,0000*55
$GPGGA,121614.00,3030.68635278,N,11424.10497732,E,4,09,1.0,37.838,M,-12.684,M,1.0,0000*50
$GPGGA,121615.00,3030.68635275,N,11424.10497875,E,4,10,1.0,37.848,M,-12.684,M,1.0,0000*5F
$GPGGA,121616.00,3030.68635670,N,11424.10497909,E,4,10,1.0,37.857,M,-12.684,M,1.0,0000*59
$GPGGA,121617.00,3030.68635269,N,11424.10497958,E,4,10,0.8,37.839,M,-12.684,M,1.0,0000*51
$GPGGA,121618.00,3030.68635794,N,11424.10497917,E,4,10,0.8,37.843,M,-12.684,M,1.0,0000*5F
$GPGGA,121619.00,3030.68635512,N,11424.10498077,E,4,10,1.0,37.857,M,-12.684,M,1.0,0000*5E
$GPGGA,121620.00,3030.68635406,N,11424.10497709,E,4,11,0.8,37.840,M,-12.684,M,1.0,0000*5F
$GPGGA,121621.00,3030.68634802,N,11424.10497846,E,4,11,0.8,37.844,M,-12.684,M,1.0,0000*57
$GPGGA,121622.00,3030.68635352,N,11424.10498009,E,4,10,1.0,37.854,M,-12.684,M,1.0,0000*5E
$GPGGA,121623.00,3030.68635356,N,11424.10497776,E,4,10,0.8,37.841,M,-12.684,M,1.0,0000*56
$GPGGA,121624.00,3030.68635615,N,11424.10497723,E,4,11,0.8,37.840,M,-12.684,M,1.0,0000*53
$GPGGA,121625.00,3030.68635308,N,11424.10497787,E,4,10,0.9,37.847,M,-12.684,M,2.0,0000*51
$GPGGA,121626.00,3030.68635553,N,11424.10497829,E,4,11,0.8,37.842,M,-12.684,M,3.0,0000*55
$GPGGA,121627.00,3030.68634809,N,11424.10497868,E,4,12,0.8,37.821,M,-12.684,M,2.0,0000*55
$GPGGA,121628.00,3030.68633837,N,11424.10498011,E,4,10,1.0,37.809,M,-12.684,M,1.0,0000*5B
$GPGGA,121629.00,3030.68636190,N,11424.10497847,E,4,11,0.9,37.859,M,-12.684,M,1.0,0000*53
$GPGGA,121630.00,3030.68635600,N,11424.10497914,E,4,11,0.8,37.839,M,-12.684,M,1.0,0000*56
$GPGGA,121631.00,3030.68635905,N,11424.10497888,E,4,10,0.9,37.844,M,-12.684,M,1.0,0000*53
$GPGGA,121632.00,3030.68635928,N,11424.10498007,E,4,09,0.8,37.854,M,-12.684,M,1.0,0000*57
$GPGGA,121633.00,3030.68636129,N,11424.10497558,E,4,12,0.8,37.845,M,-12.684,M,1.0,0000*56
$GPGGA,121634.00,3030.68636215,N,11424.10497473,E,4,11,0.8,37.847,M,-12.684,M,2.0,0000*57
$GPGGA,121635.00,3030.68635857,N,11424.10497942,E,4,11,0.8,37.859,M,-12.684,M,1.0,0000*5A
$GPGGA,121636.00,3030.68635876,N,11424.10497921,E,4,11,0.8,37.838,M,-12.684,M,1.0,0000*58
$GPGGA,121637.00,3030.68635854,N,11424.10497971,E,4,11,0.8,37.833,M,-12.684,M,1.0,0000*57
$GPGGA,121638.00,3030.68635380,N,11424.10498191,E,4,12,0.8,37.834,M,-12.684,M,1.0,0000*57
$GPGGA,121639.00,3030.68635860,N,11424.10498052,E,4,12,0.8,37.826,M,-12.684,M,1.0,0000*5E
$GPGGA,121640.00,3030.68635177,N,11424.10498565,E,4,12,0.8,37.817,M,-12.684,M,1.0,0000*5C
$GPGGA,121641.00,3030.68635457,N,11424.10498157,E,4,12,0.8,37.820,M,-12.684,M,1.0,0000*5B
$GPGGA,121642.00,3030.68635673,N,11424.10498336,E,4,13,0.8,37.799,M,-12.684,M,1.0,0000*55
$GPGGA,121643.00,3030.68635258,N,11424.10498053,E,4,13,0.8,37.801,M,-12.684,M,1.0,0000*57
$GPGGA,121644.00,3030.68635207,N,11424.10498157,E,4,12,0.9,37.791,M,-12.684,M,1.0,0000*59
$GPGGA,121645.00,3030.68635222,N,11424.10498328,E,4,13,0.9,37.786,M,-12.684,M,1.0,0000*52
$GPGGA,121646.00,3030.68635816,N,11424.10497750,E,4,12,0.9,37.851,M,-12.684,M,1.0,0000*5C
$GPGGA,121647.00,3030.68635786,N,11424.10497838,E,4,13,0.9,37.857,M,-12.684,M,1.0,0000*5D
$GPGGA,121648.00,3030.68635860,N,11424.10497630,E,4,13,0.9,37.838,M,-12.684,M,1.0,0000*5A
$GPGGA,121649.00,3030.68635754,N,11424.10497900,E,4,13,0.9,37.836,M,-12.684,M,1.0,0000*51
$GPGGA,121650.00,3030.68634971,N,11424.10497575,E,4,12,0.9,37.843,M,-12.684,M,1.0,0000*5C
$GPGGA,121651.00,3030.68634550,N,11424.10497365,E,4,13,0.8,37.807,M,-12.684,M,1.0,0000*55
$GPGGA,121652.00,3030.68634872,N,11424.10497615,E,4,13,0.8,37.813,M,-12.684,M,1.0,0000*5C
$GPGGA,121653.00,3030.68634587,N,11424.10497528,E,4,13,0.8,37.815,M,-12.684,M,1.0,0000*51
$GPGGA,121654.00,3030.68634679,N,11424.10497431,E,4,13,0.8,37.826,M,-12.684,M,1.0,0000*5D
$GPGGA,121655.00,3030.68634461,N,11424.10497463,E,4,12,0.8,37.813,M,-12.684,M,1.0,0000*57
$GPGGA,121656.00,3030.68634921,N,11424.10497785,E,4,13,0.8,37.851,M,-12.684,M,1.0,0000*51
$GPGGA,121657.00,3030.68635094,N,11424.10497759,E,4,13,0.8,37.846,M,-12.684,M,1.0,0000*51
$GPGGA,121658.00,3030.68634719,N,11424.10497992,E,4,13,0.8,37.855,M,-12.684,M,1.0,0000*56
$GPGGA,121659.00,3030.68634716,N,11424.10497666,E,4,12,0.8,37.838,M,-12.684,M,1.0,0000*56
$GPGGA,121700.00,3030.68635220,N,11424.10497636,E,4,13,0.8,37.847,M,-12.684,M,1.0,0000*56
$GPGGA,121701.00,3030.68635017,N,11424.10497865,E,4,12,0.8,37.835,M,-12.684,M,1.0,0000*5D
$GPGGA,121702.00,3030.68634630,N,11424.10497400,E,4,12,0.8,37.816,M,-12.684,M,1.0,0000*52
$GPGGA,121703.00,3030.68634422,N,11424.10497278,E,4,12,0.8,37.820,M,-12.684,M,1.0,0000*5E
$GPGGA,121704.00,3030.68634414,N,11424.10497370,E,4,13,0.8,37.811,M,-12.684,M,1.0,0000*56
$GPGGA,121705.00,3030.68634624,N,11424.10497235,E,4,12,0.8,37.817,M,-12.684,M,1.0,0000*51
$GPGGA,121706.00,3030.68634191,N,11424.10497393,E,4,13,0.8,37.810,M,-12.684,M,1.0,0000*50
$GPGGA,121707.00,3030.68634378,N,11424.10497589,E,4,12,0.8,37.815,M,-12.684,M,1.0,0000*5D
$GPGGA,121708.00,3030.68633942,N,11424.10497498,E,4,12,0.8,37.804,M,-12.684,M,1.0,0000*57
$GPGGA,121709.00,3030.68633918,N,11424.10497531,E,4,13,0.8,37.814,M,-12.684,M,1.0,0000*5B
$GPGGA,121710.00,3030.68634075,N,11424.10497507,E,4,12,0.8,37.807,M,-12.684,M,1.0,0000*50
$GPGGA,121711.00,3030.68634147,N,11424.10497533,E,4,12,0.8,37.805,M,-12.684,M,1.0,0000*54
$GPGGA,121712.00,3030.68633977,N,11424.10497541,E,4,13,0.8,37.808,M,-12.684,M,1.0,0000*52
$GPGGA,121713.00,3030.68634205,N,11424.10497301,E,4,13,0.8,37.812,M,-12.684,M,1.0,0000*53
$GPGGA,121714.00,3030.68634188,N,11424.10497504,E,4,13,0.8,37.813,M,-12.684,M,1.0,0000*50
$GPGGA,121715.00,3030.68634433,N,11424.10497418,E,4,13,0.8,37.806,M,-12.684,M,1.0,0000*5C
$GPGGA,121716.00,3030.68634101,N,11424.10497399,E,4,12,0.8,37.789,M,-12.684,M,1.0,0000*5C
$GPGGA,121717.00,3030.68634266,N,11424.10497479,E,4,13,0.8,37.806,M,-12.684,M,1.0,0000*5F
$GPGGA,121718.00,3030.68633927,N,11424.10497491,E,4,13,0.8,37.804,M,-12.684,M,1.0,0000*5D
$GPGGA,121719.00,3030.68633921,N,11424.10497432,E,4,13,0.8,37.797,M,-12.684,M,1.0,0000*56
$GPGGA,121720.00,3030.68634033,N,11424.10497553,E,4,13,0.8,37.804,M,-12.684,M,1.0,0000*52
$GPGGA,121721.00,3030.68633842,N,11424.10497576,E,4,12,0.8,37.797,M,-12.684,M,1.0,0000*59
$GPGGA,121722.00,3030.68634076,N,11424.10497563,E,4,11,0.8,37.792,M,-12.684,M,1.0,0000*50
$GPGGA,121723.00,3030.68634040,N,11424.10497443,E,4,11,0.8,37.799,M,-12.684,M,1.0,0000*5C
$GPGGA,121724.00,3030.68633952,N,11424.10497409,E,4,12,0.8,37.794,M,-12.684,M,1.0,0000*56
$GPGGA,121725.00,3030.68634336,N,11424.10497430,E,4,12,0.8,37.798,M,-12.684,M,1.0,0000*5E
$GPGGA,121726.00,3030.68633459,N,11424.10497383,E,4,11,0.8,37.786,M,-12.684,M,1.0,0000*57
$GPGGA,121727.00,3030.68634239,N,11424.10497396,E,4,12,0.8,37.804,M,-12.684,M,1.0,0000*53
$GPGGA,121728.00,3030.68633891,N,11424.10497397,E,4,11,0.8,37.812,M,-12.684,M,1.0,0000*56
$GPGGA,121729.00,3030.68633753,N,11424.10497499,E,4,11,0.8,37.798,M,-12.684,M,1.0,0000*52
$GPGGA,121730.00,3030.68633790,N,11424.10497565,E,4,11,0.8,37.796,M,-12.684,M,1.0,0000*59
$GPGGA,121731.00,3030.68634246,N,11424.10497285,E,4,12,0.8,37.793,M,-12.684,M,1.0,0000*5E
$GPGGA,121732.00,3030.68634109,N,11424.10497364,E,4,12,0.8,37.787,M,-12.684,M,1.0,0000*5E
$GPGGA,121733.00,3030.68633758,N,11424.10497574,E,4,12,0.8,37.787,M,-12.684,M,1.0,0000*5D
$GPGGA,121734.00,3030.68634051,N,11424.10497320,E,4,11,0.8,37.791,M,-12.684,M,1.0,0000*50
$GPGGA,121735.00,3030.68634052,N,11424.10497390,E,4,11,0.8,37.792,M,-12.684,M,1.0,0000*5A
$GPGGA,121736.00,3030.68633910,N,11424.10497417,E,4,12,0.8,37.784,M,-12.684,M,1.0,0000*5D
$GPGGA,121737.00,3030.68633915,N,11424.10497332,E,4,11,0.8,37.798,M,-12.684,M,1.0,0000*57
$GPGGA,121738.00,3030.68634446,N,11424.10497288,E,4,11,0.8,37.794,M,-12.684,M,1.0,0000*58
$GPGGA,121739.00,3030.68634076,N,11424.10497430,E,4,12,0.8,37.798,M,-12.684,M,1.0,0000*54
$GPGGA,121740.00,3030.68633966,N,11424.10497384,E,4,12,0.8,37.805,M,-12.684,M,1.0,0000*56
$GPGGA,121741.00,3030.68634482,N,11424.10496993,E,4,11,0.8,37.789,M,-12.684,M,1.0,0000*52
$GPGGA,121742.00,3030.68634306,N,11424.10497312,E,4,12,0.8,37.798,M,-12.684,M,1.0,0000*5B
$GPGGA,121743.00,3030.68634466,N,11424.10497347,E,4,11,0.8,37.786,M,-12.684,M,1.0,0000*57
$GPGGA,121744.00,3030.68633934,N,11424.10497487,E,4,11,0.8,37.798,M,-12.684,M,1.0,0000*59
$GPGGA,121745.00,3030.68634148,N,11424.10497350,E,4,11,0.8,37.780,M,-12.684,M,1.0,0000*58
$GPGGA,121746.00,3030.68634419,N,11424.10497452,E,4,13,0.8,37.798,M,-12.684,M,1.0,0000*54
$GPGGA,121747.00,3030.68634086,N,11424.10497286,E,4,10,0.8,37.787,M,-12.684,M,1.0,0000*55
$GPGGA,121748.00,3030.68634536,N,11424.10497264,E,4,12,0.8,37.789,M,-12.684,M,1.0,0000*54
$GPGGA,121749.00,3030.68633950,N,11424.10497576,E,4,13,0.8,37.791,M,-12.684,M,1.0,0000*52
$GPGGA,121750.00,3030.68635036,N,11424.10497879,E,4,13,0.8,37.816,M,-12.684,M,1.0,0000*57
$GPGGA,121751.00,3030.68635027,N,11424.10497659,E,4,13,0.8,37.796,M,-12.684,M,1.0,0000*5D
$GPGGA,121752.00,3030.68634916,N,11424.10497846,E,4,12,0.7,37.827,M,-12.684,M,1.0,0000*5F
$GPGGA,121753.00,3030.68634683,N,11424.10497762,E,4,12,0.8,37.811,M,-12.684,M,1.0,0000*5E
$GPGGA,121754.00,3030.68634573,N,11424.10497433,E,4,13,0.8,37.778,M,-12.684,M,1.0,0000*53
$GPGGA,121755.00,3030.68634170,N,11424.10497629,E,4,11,0.7,37.770,M,-12.684,M,1.0,0000*59
$GPGGA,121756.00,3030.68635373,N,11424.10497606,E,4,12,0.8,37.811,M,-12.684,M,1.0,0000*53
$GPGGA,121757.00,3030.68634916,N,11424.10497597,E,4,11,0.8,37.795,M,-12.684,M,1.0,0000*51
$GPGGA,121758.00,3030.68635103,N,11424.10497703,E,4,11,0.8,37.789,M,-12.684,M,1.0,0000*51
$GPGGA,121759.00,3030.68635400,N,11424.10497871,E,4,12,0.7,37.805,M,-12.684,M,1.0,0000*5B
$GPGGA,121800.00,3030.68635499,N,11424.10497774,E,4,11,0.8,37.787,M,-12.684,M,1.0,0000*5B
$GPGGA,121801.00,3030.68635139,N,11424.10497762,E,4,11,0.8,37.787,M,-12.684,M,2.0,0000*51
$GPGGA,121802.00,3030.68635044,N,11424.10497606,E,4,11,0.7,37.791,M,-12.684,M,1.0,0000*51
$GPGGA,121803.00,3030.68635263,N,11424.10497449,E,4,11,0.8,37.778,M,-12.684,M,1.0,0000*56
$GPGGA,121804.00,3030.68635056,N,11424.10497523,E,4,11,0.8,37.776,M,-12.684,M,1.0,0000*56
$GPGGA,121805.00,3030.68634930,N,11424.10497662,E,4,11,0.7,37.786,M,-12.684,M,1.0,0000*59
$GPGGA,121806.00,3030.68635015,N,11424.10497902,E,4,12,0.8,37.799,M,-12.684,M,1.0,0000*5E
$GPGGA,121807.00,3030.68635016,N,11424.10497748,E,4,11,0.7,37.792,M,-12.684,M,1.0,0000*5B
$GPGGA,121808.00,3030.68635169,N,11424.10497638,E,4,12,0.7,37.780,M,-12.684,M,1.0,0000*5B
$GPGGA,121809.00,3030.68634477,N,11424.10497773,E,4,12,0.7,37.773,M,-12.684,M,1.0,0000*53
$GPGGA,121810.00,3030.68634622,N,11424.10497660,E,4,11,0.8,37.766,M,-12.684,M,1.0,0000*52
$GPGGA,121811.00,3030.68634166,N,11424.10497815,E,4,11,0.7,37.778,M,-12.684,M,1.0,0000*58
$GPGGA,121812.00,3030.68634511,N,11424.10497756,E,4,11,0.7,37.775,M,-12.684,M,1.0,0000*5A
$GPGGA,121813.00,3030.68634701,N,11424.10497690,E,4,11,0.8,37.768,M,-12.684,M,1.0,0000*50
$GPGGA,121814.00,3030.68634759,N,11424.10497583,E,4,11,0.7,37.760,M,-12.684,M,1.0,0000*5C
$GPGGA,121815.00,3030.68634559,N,11424.10497569,E,4,12,0.8,37.771,M,-12.684,M,1.0,0000*57
$GPGGA,121816.00,3030.68634660,N,11424.10497788,E,4,12,0.8,37.769,M,-12.684,M,1.0,0000*59
$GPGGA,121817.00,3030.68634762,N,11424.10497602,E,4,13,0.8,37.773,M,-12.684,M,1.0,0000*52
$GPGGA,121818.00,3030.68634260,N,11424.10498068,E,4,13,0.8,37.775,M,-12.684,M,1.0,0000*59
$GPGGA,121819.00,3030.68634441,N,11424.10497699,E,4,13,0.8,37.767,M,-12.684,M,1.0,0000*59
$GPGGA,121820.00,3030.68634384,N,11424.10497697,E,4,13,0.8,37.774,M,-12.684,M,1.0,0000*51
$GPGGA,121821.00,3030.68634340,N,11424.10497653,E,4,13,0.8,37.746,M,-12.684,M,1.0,0000*51
$GPGGA,121822.00,3030.68634538,N,11424.10497518,E,4,12,0.8,37.740,M,-12.684,M,1.0,0000*50
$GPGGA,121823.00,3030.68634098,N,11424.10497706,E,4,12,0.8,37.758,M,-12.684,M,1.0,0000*5A
$GPGGA,121824.00,3030.68634524,N,11424.10497865,E,4,12,0.8,37.765,M,-12.684,M,1.0,0000*5B
$GPGGA,121825.00,3030.68634385,N,11424.10497787,E,4,12,0.8,37.766,M,-12.684,M,1.0,0000*57
$GPGGA,121826.00,3030.68634535,N,11424.10497745,E,4,12,0.8,37.761,M,-12.684,M,2.0,0000*53
$GPGGA,121827.00,3030.68634707,N,11424.10497884,E,4,12,0.8,37.763,M,-12.684,M,3.0,0000*50
$GPGGA,121828.00,3030.68634624,N,11424.10497760,E,4,13,0.8,37.774,M,-12.684,M,2.0,0000*5C
$GPGGA,121829.00,3030.68633857,N,11424.10497657,E,4,15,0.8,37.762,M,-12.684,M,1.0,0000*57
$GPGGA,121830.00,3030.68633994,N,11424.10497868,E,4,15,0.8,37.779,M,-12.684,M,1.0,0000*59
$GPGGA,121831.00,3030.68634670,N,11424.10497779,E,4,14,0.8,37.756,M,-12.684,M,1.0,0000*59
$GPGGA,121832.00,3030.68634212,N,11424.10497458,E,4,13,0.8,37.770,M,-12.684,M,1.0,0000*59
$GPGGA,121833.00,3030.68634494,N,11424.10497508,E,4,13,0.8,37.781,M,-12.684,M,1.0,0000*5A
$GPGGA,121834.00,3030.68633919,N,11424.10497911,E,4,13,0.8,37.790,M,-12.684,M,1.0,0000*56
$GPGGA,121835.00,3030.68634498,N,11424.10497666,E,4,12,0.8,37.791,M,-12.684,M,1.0,0000*5B
$GPGGA,121836.00,3030.68634821,N,11424.10497619,E,4,15,0.8,37.800,M,-12.684,M,1.0,0000*5E
$GPGGA,121837.00,3030.68634626,N,11424.10497652,E,4,14,0.8,37.781,M,-12.684,M,1.0,0000*5E
$GPGGA,121838.00,3030.68634914,N,11424.10497751,E,4,14,0.8,37.797,M,-12.684,M,1.0,0000*5A
$GPGGA,121839.00,3030.68635204,N,11424.10497633,E,4,15,0.8,37.797,M,-12.684,M,1.0,0000*54
$GPGGA,121840.00,3030.68635088,N,11424.10497568,E,4,14,0.8,37.793,M,-12.684,M,1.0,0000*54
$GPGGA,121841.00,3030.68635048,N,11424.10497634,E,4,15,0.8,37.791,M,-12.684,M,1.0,0000*50
$GPGGA,121842.00,3030.68634843,N,11424.10497415,E,4,15,0.8,37.793,M,-12.684,M,1.0,0000*52
$GPGGA,121843.00,3030.68634863,N,11424.10497507,E,4,14,0.8,37.800,M,-12.684,M,1.0,0000*57
$GPGGA,121844.00,3030.68634848,N,11424.10497461,E,4,14,0.8,37.789,M,-12.684,M,1.0,0000*56
$GPGGA,121845.00,3030.68635048,N,11424.10497718,E,4,16,0.8,37.794,M,-12.684,M,1.0,0000*5D
$GPGGA,121846.00,3030.68634973,N,11424.10497371,E,4,15,0.8,37.788,M,-12.684,M,1.0,0000*5B
$GPGGA,121847.00,3030.68634988,N,11424.10497489,E,4,15,0.8,37.792,M,-12.684,M,1.0,0000*55
$GPGGA,121848.00,3030.68634977,N,11424.10497735,E,4,15,0.8,37.807,M,-12.684,M,1.0,0000*5D
$GPGGA,121849.00,3030.68635420,N,11424.10497773,E,4,15,0.8,37.797,M,-12.684,M,1.0,0000*56
$GPGGA,121850.00,3030.68635350,N,11424.10497554,E,4,15,0.8,37.795,M,-12.684,M,1.0,0000*5B
$GPGGA,121851.00,3030.68635218,N,11424.10497722,E,4,15,0.8,37.796,M,-12.684,M,1.0,0000*57
$GPGGA,121852.00,3030.68635330,N,11424.10497322,E,4,15,0.8,37.790,M,-12.684,M,1.0,0000*5D
$GPGGA,121853.00,3030.68635366,N,11424.10497527,E,4,16,0.8,37.798,M,-12.684,M,1.0,0000*57
$GPGGA,121854.00,3030.68635162,N,11424.10497494,E,4,16,0.8,37.795,M,-12.684,M,1.0,0000*52
$GPGGA,121855.00,3030.68635218,N,11424.10497506,E,4,15,0.8,37.797,M,-12.684,M,1.0,0000*56
$GPGGA,121856.00,3030.68635265,N,11424.10497575,E,4,15,0.8,37.797,M,-12.684,M,1.0,0000*5B
$GPGGA,121857.00,3030.68635243,N,11424.10497301,E,4,15,0.8,37.799,M,-12.684,M,1.0,0000*55
$GPGGA,121858.00,3030.68635231,N,11424.10497326,E,4,15,0.8,37.795,M,-12.684,M,1.0,0000*56
$GPGGA,121859.00,3030.68634964,N,11424.10497423,E,4,16,0.8,37.794,M,-12.684,M,1.0,0000*5D
$GPGGA,121900.00,3030.68635050,N,11424.10497469,E,4,15,0.8,37.798,M,-12.684,M,1.0,0000*5E
$GPGGA,121901.00,3030.68635096,N,11424.10497651,E,4,15,0.8,37.811,M,-12.684,M,1.0,0000*52
$GPGGA,121902.00,3030.68634998,N,11424.10497532,E,4,14,0.8,37.808,M,-12.684,M,1.0,0000*58
$GPGGA,121903.00,3030.68635194,N,11424.10497318,E,4,16,0.8,37.803,M,-12.684,M,1.0,0000*5B
$GPGGA,121904.00,3030.68635037,N,11424.10497308,E,4,15,0.8,37.787,M,-12.684,M,1.0,0000*55
$GPGGA,121905.00,3030.68635025,N,11424.10497299,E,4,15,0.8,37.799,M,-12.684,M,1.0,0000*51
$GPGGA,121906.00,3030.68634966,N,11424.10497431,E,4,15,0.8,37.786,M,-12.684,M,1.0,0000*57
$GPGGA,121907.00,3030.68634788,N,11424.10497125,E,4,15,0.8,37.801,M,-12.684,M,1.0,0000*58
$GPGGA,121908.00,3030.68634776,N,11424.10497223,E,4,15,0.8,37.785,M,-12.684,M,1.0,0000*50
$GPGGA,121909.00,3030.68635126,N,11424.10497424,E,4,17,0.8,37.791,M,-12.684,M,1.0,0000*55
$GPGGA,121910.00,3030.68634762,N,11424.10497154,E,4,15,0.7,37.800,M,-12.684,M,1.0,0000*52
$GPGGA,121911.00,3030.68634179,N,11424.10497427,E,4,15,0.7,37.789,M,-12.684,M,1.0,0000*50
$GPGGA,121912.00,3030.68635065,N,11424.10497175,E,4,16,0.7,37.788,M,-12.684,M,1.0,0000*5E
$GPGGA,121913.00,3030.68635406,N,11424.10497130,E,4,15,0.7,37.786,M,-12.684,M,1.0,0000*52
$GPGGA,121914.00,3030.68635265,N,11424.10497442,E,4,14,0.8,37.787,M,-12.684,M,1.0,0000*59
$GPGGA,121915.00,3030.68634909,N,11424.10497444,E,4,14,0.8,37.791,M,-12.684,M,1.0,0000*59
$GPGGA,121916.00,3030.68634975,N,11424.10497341,E,4,14,0.8,37.785,M,-12.684,M,1.0,0000*56
$GPGGA,121917.00,3030.68635000,N,11424.10497293,E,4,15,0.8,37.791,M,-12.684,M,1.0,0000*57
$GPGGA,121918.00,3030.68635067,N,11424.10497226,E,4,15,0.8,37.779,M,-12.684,M,1.0,0000*51
$GPGGA,121919.00,3030.68634641,N,11424.10497206,E,4,14,0.8,37.774,M,-12.684,M,1.0,0000*5D
$GPGGA,121920.00,3030.68635162,N,11424.10497303,E,4,14,0.9,37.789,M,-12.684,M,1.0,0000*57
$GPGGA,121921.00,3030.68635144,N,11424.10497375,E,4,15,0.9,37.783,M,-12.684,M,1.0,0000*58
$GPGGA,121922.00,3030.68634957,N,11424.10497665,E,4,14,0.9,37.781,M,-12.684,M,1.0,0000*57
$GPGGA,121923.00,3030.68635025,N,11424.10497603,E,4,15,0.9,37.780,M,-12.684,M,1.0,0000*5B
$GPGGA,121924.00,3030.68635128,N,11424.10497361,E,4,15,0.9,37.783,M,-12.684,M,1.0,0000*52
$GPGGA,121925.00,3030.68634990,N,11424.10497572,E,4,15,0.9,37.783,M,-12.684,M,1.0,0000*5D
$GPGGA,121926.00,3030.68634921,N,11424.10497570,E,4,14,0.9,37.785,M,-12.684,M,1.0,0000*51
$GPGGA,121927.00,3030.68634517,N,11424.10497314,E,4,15,0.9,37.783,M,-12.684,M,1.0,0000*5A
$GPGGA,121928.00,3030.68635571,N,11424.10497288,E,4,14,0.9,37.784,M,-12.684,M,1.0,0000*56
$GPGGA,121929.00,3030.68634989,N,11424.10497433,E,4,15,0.9,37.786,M,-12.684,M,1.0,0000*58
$GPGGA,121930.00,3030.68635121,N,11424.10497587,E,4,14,0.9,37.787,M,-12.684,M,1.0,0000*55
$GPGGA,121931.00,3030.68634580,N,11424.10497189,E,4,15,0.9,37.790,M,-12.684,M,1.0,0000*57
$GPGGA,121932.00,3030.68635012,N,11424.10497594,E,4,15,0.9,37.783,M,-12.684,M,1.0,0000*51
$GPGGA,121933.00,3030.68634391,N,11424.10497410,E,4,15,0.8,37.787,M,-12.684,M,1.0,0000*51
$GPGGA,121934.00,3030.68634888,N,11424.10497733,E,4,14,0.8,37.785,M,-12.684,M,1.0,0000*54
$GPGGA,121935.00,3030.68634766,N,11424.10497633,E,4,14,0.8,37.782,M,-12.684,M,1.0,0000*5C
$GPGGA,121936.00,3030.68634389,N,11424.10497636,E,4,15,0.8,37.778,M,-12.684,M,1.0,0000*5B
$GPGGA,121937.00,3030.68634446,N,11424.10497577,E,4,15,0.8,37.770,M,-12.684,M,1.0,0000*50
$GPGGA,121938.00,3030.68634598,N,11424.10497773,E,4,14,0.8,37.767,M,-12.684,M,1.0,0000*5C
$GPGGA,121939.00,3030.68634883,N,11424.10497678,E,4,15,0.8,37.766,M,-12.684,M,1.0,0000*50
$GPGGA,121940.00,3030.68634595,N,11424.10497924,E,4,14,0.8,37.775,M,-12.684,M,1.0,0000*51
$GPGGA,121941.00,3030.68634621,N,11424.10498068,E,4,14,0.8,37.778,M,-12.684,M,1.0,0000*5F
$GPGGA,121942.00,3030.68634612,N,11424.10497828,E,4,15,0.8,37.757,M,-12.684,M,1.0,0000*53
$GPGGA,121943.00,3030.68634878,N,11424.10497659,E,4,15,0.8,37.763,M,-12.684,M,1.0,0000*5F
$GPGGA,121944.00,3030.68635167,N,11424.10497692,E,4,15,0.8,37.775,M,-12.684,M,1.0,0000*5E
$GPGGA,121945.00,3030.68634198,N,11424.10497855,E,4,15,0.8,37.771,M,-12.684,M,1.0,0000*5F
$GPGGA,121946.00,3030.68634528,N,11424.10497725,E,4,14,0.8,37.767,M,-12.684,M,1.0,0000*5D
$GPGGA,121947.00,3030.68634910,N,11424.10497876,E,4,14,0.8,37.770,M,-12.684,M,1.0,0000*54
$GPGGA,121948.00,3030.68634166,N,11424.10497890,E,4,15,0.8,37.765,M,-12.684,M,1.0,0000*5F
$GPGGA,121949.00,3030.68634512,N,11424.10497970,E,4,14,0.8,37.785,M,-12.684,M,1.0,0000*59
$GPGGA,121950.00,3030.68634771,N,11424.10497861,E,4,16,0.8,37.785,M,-12.684,M,1.0,0000*55
$GPGGA,121951.00,3030.68634818,N,11424.10497662,E,4,15,0.8,37.774,M,-12.684,M,1.0,0000*54
$GPGGA,121952.00,3030.68634806,N,11424.10497804,E,4,15,0.8,37.768,M,-12.684,M,1.0,0000*5B
$GPGGA,121953.00,3030.68634323,N,11424.10497984,E,4,16,0.8,37.785,M,-12.684,M,1.0,0000*5F
$GPGGA,121954.00,3030.68634695,N,11424.10497754,E,4,15,0.8,37.786,M,-12.684,M,1.0,0000*53
$GPGGA,121955.00,3030.68634769,N,11424.10497781,E,4,15,0.8,37.779,M,-12.684,M,1.0,0000*58
$GPGGA,121956.00,3030.68634754,N,11424.10497679,E,4,16,0.8,37.779,M,-12.684,M,1.0,0000*50
$GPGGA,121957.00,3030.68634687,N,11424.10497681,E,4,15,0.7,37.790,M,-12.684,M,1.0,0000*52
$GPGGA,121958.00,3030.68634852,N,11424.10497897,E,4,14,0.7,37.800,M,-12.684,M,1.0,0000*55
$GPGGA,121959.00,3030.68634713,N,11424.10497833,E,4,15,0.7,37.799,M,-12.684,M,1.0,0000*5E
$GPGGA,122000.00,3030.68634388,N,11424.10498020,E,4,14,0.7,37.799,M,-12.684,M,1.0,0000*5A
$GPGGA,122001.00,3030.68634520,N,11424.10498261,E,4,14,0.7,37.812,M,-12.684,M,1.0,0000*54
$GPGGA,122002.00,3030.68634483,N,11424.10498172,E,4,15,0.7,37.805,M,-12.684,M,1.0,0000*59
$GPGGA,122003.00,3030.68634386,N,11424.10498084,E,4,14,0.7,37.815,M,-12.684,M,1.0,0000*52
$GPGGA,122004.00,3030.68634476,N,11424.10497840,E,4,15,0.8,37.798,M,-12.684,M,1.0,0000*56
$GPGGA,122005.00,3030.68634816,N,11424.10498001,E,4,15,0.8,37.815,M,-12.684,M,1.0,0000*55
$GPGGA,122006.00,3030.68634192,N,11424.10498018,E,4,15,0.8,37.814,M,-12.684,M,1.0,0000*5A
$GPGGA,122007.00,3030.68635029,N,11424.10497798,E,4,14,0.8,37.812,M,-12.684,M,1.0,0000*5C
$GPGGA,122008.00,3030.68635229,N,11424.10497650,E,4,14,0.8,37.807,M,-12.684,M,2.0,0000*53
$GPGGA,122009.00,3030.68634899,N,11424.10498070,E,4,15,0.8,37.796,M,-12.684,M,1.0,0000*5C
$GPGGA,122010.00,3030.68634649,N,11424.10497801,E,4,15,0.8,37.805,M,-12.684,M,1.0,0000*53
$GPGGA,122011.00,3030.68634562,N,11424.10497675,E,4,14,0.8,37.801,M,-12.684,M,1.0,0000*50
$GPGGA,122012.00,3030.68634574,N,11424.10497734,E,4,14,0.8,37.802,M,-12.684,M,1.0,0000*53
$GPGGA,122013.00,3030.68634323,N,11424.10497884,E,4,14,0.8,37.791,M,-12.684,M,1.0,0000*57
$GPGGA,122014.00,3030.68634708,N,11424.10497996,E,4,14,0.8,37.796,M,-12.684,M,1.0,0000*58
$GPGGA,122015.00,3030.68634198,N,11424.10497938,E,4,14,0.8,37.803,M,-12.684,M,1.0,0000*51
$GPGGA,122016.00,3030.68633915,N,11424.10497658,E,4,13,0.8,37.801,M,-12.684,M,1.0,0000*54
$GPGGA,122017.00,3030.68633760,N,11424.10497730,E,4,13,0.8,37.798,M,-12.684,M,1.0,0000*59
$GPGGA,122018.00,3030.68634239,N,11424.10497803,E,4,14,0.8,37.801,M,-12.684,M,1.0,0000*5F
$GPGGA,122019.00,3030.68634292,N,11424.10497798,E,4,14,0.8,37.806,M,-12.684,M,1.0,0000*55
$GPGGA,122020.00,3030.68634648,N,11424.10497809,E,4,15,0.8,37.805,M,-12.684,M,2.0,0000*5A
$GPGGA,122021.00,3030.68633995,N,11424.10497815,E,4,15,0.8,37.794,M,-12.684,M,1.0,0000*5A
$GPGGA,122022.00,3030.68634414,N,11424.10497990,E,4,15,0.8,37.796,M,-12.684,M,1.0,0000*54
$GPGGA,122023.00,3030.68634207,N,11424.10497960,E,4,15,0.8,37.808,M,-12.684,M,1.0,0000*56
$GPGGA,122024.00,3030.68634040,N,11424.10497907,E,4,15,0.8,37.797,M,-12.684,M,1.0,0000*58
$GPGGA,122025.00,3030.68634503,N,11424.10497770,E,4,15,0.8,37.803,M,-12.684,M,1.0,0000*57
$GPGGA,122026.00,3030.68633514,N,11424.10498101,E,4,15,0.8,37.802,M,-12.684,M,1.0,0000*5B
$GPGGA,122027.00,3030.68633988,N,11424.10497818,E,4,15,0.8,37.804,M,-12.684,M,2.0,0000*58
$GPGGA,122028.00,3030.68633778,N,11424.10497810,E,4,14,0.8,37.802,M,-12.684,M,3.0,0000*58
$GPGGA,122029.00,3030.68633576,N,11424.10497828,E,4,15,0.8,37.794,M,-12.684,M,2.0,0000*5E
$GPGGA,122030.00,3030.68634120,N,11424.10497869,E,4,14,0.8,37.806,M,-12.684,M,1.0,0000*55
$GPGGA,122031.00,3030.68634262,N,11424.10497598,E,4,13,0.8,37.808,M,-12.684,M,1.0,0000*5B
$GPGGA,122032.00,3030.68633996,N,11424.10497788,E,4,13,0.8,37.812,M,-12.684,M,1.0,0000*57
$GPGGA,122033.00,3030.68633759,N,11424.10497743,E,4,14,0.8,37.808,M,-12.684,M,1.0,0000*50
$GPGGA,122034.00,3030.68634313,N,11424.10497434,E,4,13,0.8,37.815,M,-12.684,M,1.0,0000*52
$GPGGA,122035.00,3030.68633472,N,11424.10497855,E,4,15,0.8,37.806,M,-12.684,M,1.0,0000*5B
$GPGGA,122036.00,3030.68633811,N,11424.10497770,E,4,15,0.8,37.809,M,-12.684,M,1.0,0000*56
$GPGGA,122037.00,3030.68648316,N,11424.10494714,E,4,13,0.8,38.239,M,-12.684,M,1.0,0000*56
$GPGGA,122038.00,3030.68648584,N,11424.10494868,E,4,13,0.8,38.240,M,-12.684,M,1.0,0000*5E
$GPGGA,122039.00,3030.68648005,N,11424.10494974,E,4,14,0.8,38.251,M,-12.684,M,1.0,0000*58
$GPGGA,122040.00,3030.68647905,N,11424.10494885,E,4,14,0.8,38.222,M,-12.684,M,1.0,0000*5B
$GPGGA,122041.00,3030.68648329,N,11424.10494739,E,4,13,0.8,38.240,M,-12.684,M,1.0,0000*5A
$GPGGA,122042.00,3030.68648477,N,11424.10494659,E,4,12,0.8,38.242,M,-12.684,M,2.0,0000*52
$GPGGA,122043.00,3030.68648303,N,11424.10494864,E,4,11,0.8,38.217,M,-12.684,M,1.0,0000*57
$GPGGA,122044.00,3030.68648277,N,11424.10494883,E,4,11,0.8,38.232,M,-12.684,M,1.0,0000*5C
$GPGGA,122045.00,3030.68648808,N,11424.10494749,E,4,11,0.8,38.233,M,-12.684,M,1.0,0000*57
$GPGGA,122046.00,3030.68648699,N,11424.10494876,E,4,11,0.8,38.222,M,-12.684,M,1.0,0000*51
$GPGGA,122047.00,3030.68647780,N,11424.10495060,E,4,12,0.8,38.216,M,-12.684,M,1.0,0000*5C
$GPGGA,122048.00,3030.68648282,N,11424.10494906,E,4,11,0.8,38.209,M,-12.684,M,1.0,0000*5E
$GPGGA,122049.00,3030.68647496,N,11424.10494864,E,4,11,0.8,38.208,M,-12.684,M,1.0,0000*57
$GPGGA,122050.00,3030.68647844,N,11424.10495098,E,4,11,0.8,38.196,M,-12.684,M,1.0,0000*52
$GPGGA,122051.00,3030.68647760,N,11424.10495027,E,4,12,0.8,38.200,M,-12.684,M,1.0,0000*51
$GPGGA,122052.00,3030.68647117,N,11424.10495289,E,4,11,0.8,38.180,M,-12.684,M,1.0,0000*5A
$GPGGA,122053.00,3030.68647053,N,11424.10495069,E,4,10,0.8,38.179,M,-12.684,M,1.0,0000*51
$GPGGA,122054.00,3030.68647204,N,11424.10495094,E,4,12,0.8,38.194,M,-12.684,M,1.0,0000*55
$GPGGA,122055.00,3030.68647300,N,11424.10494962,E,4,13,0.8,38.185,M,-12.684,M,1.0,0000*51
$GPGGA,122056.00,3030.68647359,N,11424.10495185,E,4,12,0.8,38.194,M,-12.684,M,1.0,0000*5F
$GPGGA,122057.00,3030.68647410,N,11424.10495096,E,4,13,0.8,38.197,M,-12.684,M,1.0,0000*55
$GPGGA,122058.00,3030.68646856,N,11424.10495315,E,4,11,0.8,38.183,M,-12.684,M,1.0,0000*5A
$GPGGA,122059.00,3030.68647771,N,11424.10495001,E,4,11,0.8,38.171,M,-12.684,M,1.0,0000*5B
$GPGGA,122100.00,3030.68646536,N,11424.10495119,E,4,11,0.8,38.168,M,-12.684,M,1.0,0000*56
$GPGGA,122101.00,3030.68646441,N,11424.10495350,E,4,11,0.8,38.170,M,-12.684,M,2.0,0000*53
$GPGGA,122102.00,3030.68646669,N,11424.10495247,E,4,11,0.8,38.169,M,-12.684,M,1.0,0000*54
$GPGGA,122103.00,3030.68646706,N,11424.10495256,E,4,10,0.8,38.143,M,-12.684,M,1.0,0000*54
$GPGGA,122104.00,3030.68646610,N,11424.10495415,E,4,11,0.8,38.158,M,-12.684,M,1.0,0000*5F
$GPGGA,122105.00,3030.68660907,N,11424.10501118,E,4,13,0.8,37.938,M,-12.684,M,1.0,0000*54
$GPGGA,122106.00,3030.68660651,N,11424.10501404,E,4,14,0.8,37.940,M,-12.684,M,1.0,0000*5B
$GPGGA,122107.00,3030.68660439,N,11424.10501417,E,4,14,0.8,37.935,M,-12.684,M,1.0,0000*56
$GPGGA,122108.00,3030.68660805,N,11424.10501209,E,4,14,0.8,37.913,M,-12.684,M,1.0,0000*57
$GPGGA,122109.00,3030.68645924,N,11424.10495656,E,4,14,0.8,38.130,M,-12.684,M,1.0,0000*57
$GPGGA,122110.00,3030.68646002,N,11424.10495526,E,4,13,0.8,38.130,M,-12.684,M,1.0,0000*52
$GPGGA,122111.00,3030.68661113,N,11424.10501287,E,4,13,0.8,37.943,M,-12.684,M,1.0,0000*54
$GPGGA,122112.00,3030.68660372,N,11424.10501466,E,4,14,0.8,37.944,M,-12.684,M,1.0,0000*5A
$GPGGA,122113.00,3030.68661299,N,11424.10501039,E,4,14,0.8,37.944,M,-12.684,M,1.0,0000*50
$GPGGA,122114.00,3030.68660523,N,11424.10501446,E,4,13,0.8,37.947,M,-12.684,M,1.0,0000*58
$GPGGA,122115.00,3030.68647220,N,11424.10495167,E,4,15,0.8,38.177,M,-12.684,M,1.0,0000*50
$GPGGA,122116.00,3030.68646660,N,11424.10495189,E,4,15,0.8,38.165,M,-12.684,M,1.0,0000*51
$GPGGA,122117.00,3030.68646966,N,11424.10495128,E,4,14,0.8,38.184,M,-12.684,M,1.0,0000*5C
$GPGGA,122118.00,3030.68646566,N,11424.10495314,E,4,14,0.8,38.161,M,-12.684,M,1.0,0000*59
$GPGGA,122119.00,3030.68646586,N,11424.10495374,E,4,15,0.8,38.166,M,-12.684,M,1.0,0000*56
$GPGGA,122120.00,3030.68646866,N,11424.10495222,E,4,16,0.8,38.168,M,-12.684,M,1.0,0000*50
$GPGGA,122121.00,3030.68646953,N,11424.10495329,E,4,16,0.8,38.170,M,-12.684,M,1.0,0000*55
$GPGGA,122122.00,3030.68646709,N,11424.10495314,E,4,16,0.8,38.168,M,-12.684,M,1.0,0000*50
$GPGGA,122123.00,3030.68646848,N,11424.10495085,E,4,15,0.8,38.166,M,-12.684,M,1.0,0000*5D
$GPGGA,122124.00,3030.68645523,N,11424.10495493,E,4,15,0.8,38.127,M,-12.684,M,1.0,0000*5F
$GPGGA,122125.00,3030.68645305,N,11424.10495702,E,4,15,0.8,38.123,M,-12.684,M,1.0,0000*53
$GPGGA,122126.00,3030.68645446,N,11424.10495412,E,4,16,0.8,38.107,M,-12.684,M,1.0,0000*57
$GPGGA,122127.00,3030.68644890,N,11424.10495723,E,4,16,0.8,38.120,M,-12.684,M,1.0,0000*54
$GPGGA,122128.00,3030.68644740,N,11424.10495649,E,4,15,0.8,38.114,M,-12.684,M,1.0,0000*50
$GPGGA,122129.00,3030.68644980,N,11424.10495867,E,4,15,0.8,38.130,M,-12.684,M,1.0,0000*57
$GPGGA,122130.00,3030.68645453,N,11424.10495590,E,4,14,0.8,38.118,M,-12.684,M,1.0,0000*53
$GPGGA,122131.00,3030.68644946,N,11424.10495507,E,4,13,0.8,38.112,M,-12.684,M,1.0,0000*59
$GPGGA,122132.00,3030.68644997,N,11424.10495733,E,4,13,0.8,38.120,M,-12.684,M,1.0,0000*52
$GPGGA,122133.00,3030.68644984,N,11424.10495729,E,4,15,0.8,38.109,M,-12.684,M,1.0,0000*57
$GPGGA,122134.00,3030.68645231,N,11424.10495546,E,4,14,0.8,38.111,M,-12.684,M,1.0,0000*57
$GPGGA,122135.00,3030.68644960,N,11424.10495714,E,4,15,0.8,38.102,M,-12.684,M,1.0,0000*5E
$GPGGA,122136.00,3030.68645174,N,11424.10495489,E,4,15,0.8,38.114,M,-12.684,M,1.0,0000*51
$GPGGA,122137.00,3030.68645368,N,11424.10495079,E,4,14,0.8,38.104,M,-12.684,M,1.0,0000*54
$GPGGA,122138.00,3030.68644697,N,11424.10495584,E,4,15,0.8,38.097,M,-12.684,M,1.0,0000*52
$GPGGA,122139.00,3030.68645141,N,11424.10495390,E,4,15,0.8,38.117,M,-12.684,M,1.0,0000*54
$GPGGA,122140.00,3030.68645324,N,11424.10495303,E,4,13,0.8,38.109,M,-12.684,M,1.0,0000*58
$GPGGA,122141.00,3030.68645103,N,11424.10495247,E,4,13,0.8,38.112,M,-12.684,M,1.0,0000*55
$GPGGA,122142.00,3030.68645264,N,11424.10495323,E,4,13,0.8,38.110,M,-12.684,M,1.0,0000*55
$GPGGA,122143.00,3030.68645067,N,11424.10496099,E,4,13,0.8,38.084,M,-12.684,M,1.0,0000*58
$GPGGA,122144.00,3030.68634197,N,11424.10498173,E,4,14,0.8,37.797,M,-12.684,M,1.0,0000*51
$GPGGA,122145.00,3030.68634764,N,11424.10497830,E,4,14,0.8,37.798,M,-12.684,M,1.0,0000*54
$GPGGA,122146.00,3030.68634728,N,11424.10498109,E,4,13,0.8,37.801,M,-12.684,M,1.0,0000*5B
$GPGGA,122147.00,3030.68634578,N,11424.10498298,E,4,13,0.8,37.804,M,-12.684,M,1.0,0000*53
$GPGGA,122148.00,3030.68644750,N,11424.10496182,E,4,14,0.8,38.054,M,-12.684,M,1.0,0000*50
$GPGGA,122149.00,3030.68634821,N,11424.10498129,E,4,13,0.8,37.797,M,-12.684,M,1.0,0000*50
$GPGGA,122150.00,3030.68634457,N,11424.10498097,E,4,13,0.8,37.790,M,-12.684,M,1.0,0000*56
$GPGGA,122151.00,3030.68634991,N,11424.10498225,E,4,14,0.8,37.817,M,-12.684,M,1.0,0000*5C
$GPGGA,122152.00,3030.68634873,N,11424.10497999,E,4,14,0.8,37.798,M,-12.684,M,1.0,0000*59
$GPGGA,122153.00,3030.68634907,N,11424.10498172,E,4,14,0.8,37.809,M,-12.684,M,1.0,0000*5F
$GPGGA,122154.00,3030.68634653,N,11424.10498172,E,4,14,0.8,37.806,M,-12.684,M,1.0,0000*59
$GPGGA,122155.00,3030.68634701,N,11424.10497941,E,4,14,0.8,37.795,M,-12.684,M,1.0,0000*5C
$GPGGA,122156.00,3030.68634714,N,11424.10498231,E,4,13,0.8,37.793,M,-12.684,M,1.0,0000*59
$GPGGA,122157.00,3030.68641427,N,11424.10495575,E,4,13,0.8,38.065,M,-12.684,M,1.0,0000*52
$GPGGA,122158.00,3030.68641538,N,11424.10495860,E,4,13,0.8,38.063,M,-12.684,M,1.0,0000*5D
$GPGGA,122159.00,3030.68634976,N,11424.10498107,E,4,14,0.8,37.794,M,-12.684,M,1.0,0000*5A
$GPGGA,122200.00,3030.68635075,N,11424.10497893,E,4,14,0.8,37.798,M,-12.684,M,1.0,0000*59
$GPGGA,122201.00,3030.68634949,N,11424.10498143,E,4,13,0.8,37.796,M,-12.684,M,1.0,0000*5D
$GPGGA,122202.00,3030.68635438,N,11424.10498027,E,4,13,0.8,37.809,M,-12.684,M,1.0,0000*5E
$GPGGA,122203.00,3030.68641833,N,11424.10495997,E,4,14,0.8,38.026,M,-12.684,M,1.0,0000*59
$GPGGA,122204.00,3030.68635016,N,11424.10497927,E,4,14,0.8,37.795,M,-12.684,M,1.0,0000*5B
$GPGGA,122205.00,3030.68635172,N,11424.10498147,E,4,14,0.8,37.806,M,-12.684,M,1.0,0000*5D
$GPGGA,122206.00,3030.68634987,N,11424.10497804,E,4,14,0.8,37.794,M,-12.684,M,1.0,0000*58
$GPGGA,122207.00,3030.68635172,N,11424.10498050,E,4,14,0.8,37.800,M,-12.684,M,1.0,0000*5E
$GPGGA,122208.00,3030.68635027,N,11424.10497931,E,4,14,0.8,37.794,M,-12.684,M,1.0,0000*53
$GPGGA,122209.00,3030.68635025,N,11424.10497962,E,4,14,0.8,37.807,M,-12.684,M,1.0,0000*53
$GPGGA,122210.00,3030.68635165,N,11424.10497795,E,4,12,0.8,37.801,M,-12.684,M,1.0,0000*58
$GPGGA,122211.00,3030.68640891,N,11424.10496544,E,4,12,0.8,37.969,M,-12.684,M,1.0,0000*59
$GPGGA,122212.00,3030.68641372,N,11424.10496373,E,4,13,0.8,37.972,M,-12.684,M,1.0,0000*54
$GPGGA,122213.00,3030.68641425,N,11424.10496467,E,4,13,0.8,37.968,M,-12.684,M,1.0,0000*59
$GPGGA,122214.00,3030.68641282,N,11424.10496358,E,4,12,0.8,37.983,M,-12.684,M,1.0,0000*5A
$GPGGA,122215.00,3030.68641906,N,11424.10496186,E,4,13,0.8,37.978,M,-12.684,M,1.0,0000*58
$GPGGA,122216.00,3030.68641245,N,11424.10496458,E,4,12,0.8,37.978,M,-12.684,M,1.0,0000*50
$GPGGA,122217.00,3030.68641271,N,11424.10496598,E,4,13,0.8,37.989,M,-12.684,M,1.0,0000*54
$GPGGA,122218.00,3030.68642422,N,11424.10496058,E,4,13,0.8,38.012,M,-12.684,M,1.0,0000*55
$GPGGA,122219.00,3030.68642510,N,11424.10496116,E,4,12,0.8,38.013,M,-12.684,M,1.0,0000*5F
$GPGGA,122220.00,3030.68642938,N,11424.10496130,E,4,11,0.8,38.017,M,-12.684,M,1.0,0000*50
$GPGGA,122221.00,3030.68641537,N,11424.10496443,E,4,14,0.8,37.983,M,-12.684,M,1.0,0000*5E
$GPGGA,122222.00,3030.68640768,N,11424.10496616,E,4,13,0.8,37.978,M,-12.684,M,1.0,0000*55
$GPGGA,122223.00,3030.68641547,N,11424.10496523,E,4,14,0.8,37.981,M,-12.684,M,1.0,0000*5E
$GPGGA,122224.00,3030.68641862,N,11424.10496406,E,4,14,0.8,37.992,M,-12.684,M,1.0,0000*57
$GPGGA,122225.00,3030.68641937,N,11424.10496404,E,4,13,0.8,38.001,M,-12.684,M,1.0,0000*5E
$GPGGA,122226.00,3030.68641785,N,11424.10496534,E,4,13,0.8,38.004,M,-12.684,M,1.0,0000*5D
$GPGGA,122227.00,3030.68641643,N,11424.10496397,E,4,13,0.8,37.984,M,-12.684,M,1.0,0000*56
$GPGGA,122228.00,3030.68641644,N,11424.10496334,E,4,12,0.8,37.978,M,-12.684,M,2.0,0000*56
$GPGGA,122229.00,3030.68641770,N,11424.10496180,E,4,12,0.8,37.980,M,-12.684,M,3.0,0000*5A
$GPGGA,122230.00,3030.68640937,N,11424.10496559,E,4,13,0.8,37.970,M,-12.684,M,2.0,0000*51
$GPGGA,122231.00,3030.68641154,N,11424.10496706,E,4,12,0.8,37.981,M,-12.684,M,1.0,0000*58
