,11424.11418433,E,4,08,1.3,37.131,M,-12.683,M,1.0,0000*5A
$GPGGA,034139.00,3030.68767408,N,11424.11418707,E,4,09,1.3,37.117,M,-12.683,M,1.0,0000*5A
$GPGGA,034140.00,3030.68767434,N,11424.11419076,E,4,09,1.3,37.092,M,-12.683,M,1.0,0000*57
$GPGGA,034141.00,3030.68767303,N,11424.11419087,E,4,09,1.3,37.095,M,-12.683,M,1.0,0000*5C
$GPGGA,034142.00,3030.68767820,N,11424.11418872,E,4,09,1.3,37.098,M,-12.683,M,1.0,0000*5B
$GPGGA,034143.00,3030.68767666,N,11424.11419034,E,4,09,1.3,37.100,M,-12.683,M,1.0,0000*5D
$GPGGA,034144.00,3030.68767362,N,11424.11419042,E,4,09,1.3,37.093,M,-12.683,M,1.0,0000*51
$GPGGA,034145.00,3030.68767765,N,11424.11418956,E,4,08,1.3,37.087,M,-12.683,M,2.0,0000*59
$GPGGA,034146.00,3030.68767492,N,11424.11419252,E,4,09,1.3,37.096,M,-12.683,M,1.0,0000*5D
$GPGGA,034147.00,3030.68767564,N,11424.11418944,E,4,08,1.3,37.094,M,-12.683,M,1.0,0000*5A
$GPGGA,034148.00,3030.68767673,N,11424.11418879,E,4,09,1.3,37.103,M,-12.683,M,1.0,0000*51
$GPGGA,034149.00,3030.68767796,N,11424.11418985,E,4,09,1.3,37.100,M,-12.683,M,1.0,0000*5B
$GPGGA,034150.00,3030.68767629,N,11424.11419063,E,4,09,1.3,37.101,M,-12.683,M,1.0,0000*57
$GPGGA,034151.00,3030.68767758,N,11424.11419085,E,4,09,1.3,37.097,M,-12.683,M,1.0,0000*57
$GPGGA,034152.00,3030.68767346,N,11424.11418747,E,4,09,1.3,37.128,M,-12.683,M,1.0,0000*52
$GPGGA,034153.00,3030.68767191,N,11424.11418681,E,4,08,1.3,37.130,M,-12.683,M,1.0,0000*58
$GPGGA,034154.00,3030.68767885,N,11424.11419116,E,4,09,1.3,37.096,M,-12.683,M,1.0,0000*57
$GPGGA,034155.00,3030.68767562,N,11424.11419022,E,4,08,1.3,37.105,M,-12.683,M,1.0,0000*5E
$GPGGA,034156.00,3030.68767701,N,11424.11419602,E,4,08,1.3,37.079,M,-12.683,M,1.0,0000*54
$GPGGA,034157.00,3030.68767470,N,11424.11419550,E,4,08,1.3,37.077,M,-12.683,M,1.0,0000*5A
$GPGGA,034158.00,3030.68767758,N,11424.11419268,E,4,09,1.3,37.088,M,-12.683,M,1.0,0000*51
$GPGGA,034159.00,3030.68767919,N,11424.11420566,E,4,09,1.7,37.037,M,-12.683,M,1.0,0000*58
$GPGGA,034200.00,3030.68767844,N,11424.11420279,E,4,09,1.7,37.052,M,-12.683,M,1.0,0000*54
$GPGGA,034201.00,3030.68768169,N,11424.11420372,E,4,08,1.7,37.045,M,-12.683,M,1.0,0000*51
$GPGGA,034202.00,3030.68767512,N,11424.11420005,E,4,08,1.7,37.065,M,-12.683,M,1.0,0000*54
$GPGGA,034203.00,3030.68768506,N,11424.11420742,E,4,09,1.7,37.016,M,-12.683,M,1.0,0000*5E
$GPGGA,034204.00,3030.68768891,N,11424.11420457,E,4,09,1.7,37.021,M,-12.683,M,2.0,0000*5A
$GPGGA,034205.00,3030.68768646,N,11424.11420870,E,4,08,1.7,37.005,M,-12.683,M,3.0,0000*50
$GPGGA,034206.00,3030.68767644,N,11424.11420080,E,4,09,1.7,37.065,M,-12.683,M,2.0,0000*5F
$GPGGA,034207.00,3030.68768409,N,11424.11420010,E,4,08,1.7,37.057,M,-12.683,M,1.0,0000*50
$GPGGA,034208.00,3030.68767675,N,11424.11420214,E,4,09,1.7,37.043,M,-12.683,M,1.0,0000*5B
$GPGGA,034209.00,3030.68767482,N,11424.11420203,E,4,09,1.7,37.064,M,-12.683,M,1.0,0000*53
$GPGGA,034210.00,3030.68768213,N,11424.11420143,E,4,09,1.7,37.056,M,-12.683,M,1.0,0000*5C
$GPGGA,034211.00,3030.68767838,N,11424.11419924,E,4,09,1.7,37.068,M,-12.683,M,1.0,0000*5F
$GPGGA,034212.00,3030.68767834,N,11424.11420056,E,4,08,1.7,37.066,M,-12.683,M,1.0,0000*59
$GPGGA,034213.00,3030.68767947,N,11424.11420261,E,4,09,1.6,37.057,M,-12.683,M,2.0,0000*5A
$GPGGA,034214.00,3030.68767723,N,11424.11420871,E,4,08,1.6,37.028,M,-12.683,M,1.0,0000*50
$GPGGA,034215.00,3030.68768281,N,11424.11420695,E,4,09,1.6,37.036,M,-12.683,M,1.0,0000*59
$GPGGA,034216.00,3030.68767804,N,11424.11420084,E,4,10,1.6,37.069,M,-12.683,M,1.0,0000*56
$GPGGA,034217.00,3030.68767799,N,11424.11420728,E,4,10,1.6,37.050,M,-12.683,M,1.0,0000*57
$GPGGA,034218.00,3030.68767913,N,11424.11420212,E,4,10,1.6,37.076,M,-12.683,M,1.0,0000*5C
$GPGGA,034219.00,3030.68767794,N,11424.11420677,E,4,10,1.6,37.061,M,-12.683,M,1.0,0000*5D
$GPGGA,034220.00,3030.68767919,N,11424.11420639,E,4,09,1.6,37.044,M,-12.683,M,1.0,0000*59
$GPGGA,034221.00,3030.68767815,N,11424.11420475,E,4,10,1.6,37.058,M,-12.683,M,1.0,0000*5A
$GPGGA,034222.00,3030.68765675,N,11424.11421489,E,4,09,1.6,37.003,M,-12.683,M,1.0,0000*57
$GPGGA,034223.00,3030.68765774,N,11424.11421072,E,4,09,1.6,37.027,M,-12.683,M,1.0,0000*50
$GPGGA,034224.00,3030.68765215,N,11424.11421463,E,4,10,1.6,37.023,M,-12.683,M,1.0,0000*5D
$GPGGA,034225.00,3030.68766326,N,11424.11421176,E,4,10,1.6,37.022,M,-12.683,M,1.0,0000*5E
$GPGGA,034226.00,3030.68765119,N,11424.11421300,E,4,10,1.6,37.030,M,-12.683,M,1.0,0000*50
$GPGGA,034227.00,3030.68765933,N,11424.11421396,E,4,09,1.6,37.026,M,-12.683,M,1.0,0000*51
$GPGGA,034228.00,3030.68765509,N,11424.11421262,E,4,10,1.6,37.021,M,-12.683,M,1.0,0000*5E
$GPGGA,034229.00,3030.68765611,N,11424.11421462,E,4,10,1.6,37.025,M,-12.683,M,1.0,0000*57
$GPGGA,034230.00,3030.68766199,N,11424.11421480,E,4,10,1.6,37.023,M,-12.683,M,1.0,0000*51
$GPGGA,034231.00,3030.68765841,N,11424.11421508,E,4,09,1.6,37.020,M,-12.683,M,1.0,0000*55
$GPGGA,034232.00,3030.68766179,N,11424.11421067,E,4,10,1.6,37.041,M,-12.683,M,1.0,0000*54
$GPGGA,034233.00,3030.68765942,N,11424.11421035,E,4,08,1.6,37.044,M,-12.683,M,1.0,0000*5D
$GPGGA,034234.00,3030.68765869,N,11424.11421264,E,4,09,1.6,37.031,M,-12.683,M,1.0,0000*57
$GPGGA,034235.00,3030.68766666,N,11424.11420893,E,4,08,1.6,37.039,M,-12.683,M,1.0,0000*5E
$GPGGA,034236.00,3030.68766094,N,11424.11421380,E,4,10,1.6,37.028,M,-12.683,M,1.0,0000*57
$GPGGA,034237.00,3030.68766336,N,11424.11421399,E,4,10,1.6,37.029,M,-12.683,M,1.0,0000*54
$GPGGA,034238.00,3030.68766070,N,11424.11421261,E,4,09,1.6,37.033,M,-12.683,M,1.0,0000*5F
$GPGGA,034239.00,3030.68766006,N,11424.11421263,E,4,10,1.6,37.028,M,-12.683,M,1.0,0000*5F
$GPGGA,034240.00,3030.68766406,N,11424.11421129,E,4,09,1.6,37.038,M,-12.683,M,1.0,0000*51
$GPGGA,034241.00,3030.68765860,N,11424.11421339,E,4,10,1.6,37.033,M,-12.683,M,1.0,0000*5F
$GPGGA,034242.00,3030.68766005,N,11424.11421266,E,4,09,1.6,37.036,M,-12.683,M,1.0,0000*52
$GPGGA,034243.00,3030.68766406,N,11424.11420971,E,4,10,1.6,37.054,M,-12.683,M,1.0,0000*54
$GPGGA,034244.00,3030.68766092,N,11424.11421226,E,4,10,1.6,37.042,M,-12.683,M,1.0,0000*55
$GPGGA,034245.00,3030.68766032,N,11424.11421262,E,4,10,1.6,37.032,M,-12.683,M,1.0,0000*59
$GPGGA,034246.00,3030.68766198,N,11424.11420970,E,4,10,1.6,37.045,M,-12.683,M,1.0,0000*52
$GPGGA,034247.00,3030.68766185,N,11424.11421341,E,4,10,1.6,37.034,M,-12.683,M,1.0,0000*50
$GPGGA,034248.00,3030.68766518,N,11424.11421126,E,4,10,1.6,37.034,M,-12.683,M,1.0,0000*5C
$GPGGA,034249.00,3030.68766069,N,11424.11421339,E,4,09,1.6,37.036,M,-12.683,M,1.0,0000*58
$GPGGA,034250.00,3030.68766377,N,11424.11421354,E,4,10,1.6,37.032,M,-12.683,M,1.0,0000*5B
$GPGGA,034251.00,3030.68766110,N,11424.11420900,E,4,10,1.6,37.052,M,-12.683,M,1.0,0000*55
$GPGGA,034252.00,3030.68766282,N,11424.11420915,E,4,08,1.6,37.050,M,-12.683,M,1.0,0000*51
$GPGGA,034253.00,3030.68767166,N,11424.11420910,E,4,09,1.6,37.039,M,-12.683,M,1.0,0000*53
$GPGGA,034254.00,3030.68766744,N,11424.11421302,E,4,10,1.6,37.022,M,-12.683,M,1.0,0000*59
$GPGGA,034255.00,3030.68766383,N,11424.11421470,E,4,10,1.6,37.031,M,-12.683,M,1.0,0000*57
$GPGGA,034256.00,3030.68766637,N,11424.11421167,E,4,09,1.6,37.033,M,-12.683,M,1.0,0000*57
$GPGGA,034257.00,3030.68766777,N,11424.11421144,E,4,09,1.6,37.037,M,-12.683,M,1.0,0000*56
$GPGGA,034258.00,3030.68766826,N,11424.11421155,E,4,09,1.6,37.028,M,-12.683,M,1.0,0000*5C
$GPGGA,034259.00,3030.68766965,N,11424.11420959,E,4,09,1.6,37.053,M,-12.683,M,1.0,0000*52
$GPGGA,034300.00,3030.68766730,N,11424.11421133,E,4,09,1.6,37.047,M,-12.683,M,1.0,0000*51
$GPGGA,034301.00,3030.68766607,N,11424.11421360,E,4,10,1.6,37.034,M,-12.683,M,1.0,0000*5D
$GPGGA,034302.00,3030.68767138,N,11424.11420807,E,4,10,1.6,37.053,M,-12.683,M,1.0,0000*5E
$GPGGA,034303.00,3030.68766892,N,11424.11421177,E,4,10,1.6,37.045,M,-12.683,M,1.0,0000*5F
$GPGGA,034304.00,3030.68766970,N,11424.11421316,E,4,09,1.6,37.036,M,-12.683,M,1.0,0000*5C
$GPGGA,034305.00,3030.68766547,N,11424.11421253,E,4,09,1.6,37.044,M,-12.683,M,1.0,0000*50
$GPGGA,034306.00,3030.68766701,N,11424.11420855,E,4,10,1.6,37.063,M,-12.683,M,1.0,0000*53
$GPGGA,034307.00,3030.68766813,N,11424.11420880,E,4,10,1.6,37.058,M,-12.683,M,1.0,0000*5E
$GPGGA,034308.00,3030.68767057,N,11424.11421069,E,4,09,1.6,37.043,M,-12.683,M,1.0,0000*54
$GPGGA,034309.00,3030.68766443,N,11424.11421109,E,4,10,1.6,37.041,M,-12.683,M,1.0,0000*58
$GPGGA,034310.00,3030.68766682,N,11424.11420762,E,4,10,1.6,37.062,M,-12.683,M,1.0,0000*54
$GPGGA,034311.00,3030.68766298,N,11424.11421273,E,4,10,1.6,37.042,M,-12.683,M,1.0,0000*5C
$GPGGA,034312.00,3030.68766744,N,11424.11420922,E,4,09,1.6,37.048,M,-12.683,M,1.0,0000*57
$GPGGA,034313.00,3030.68766966,N,11424.11420943,E,4,10,1.6,37.046,M,-12.683,M,1.0,0000*59
$GPGGA,034314.00,3030.68766704,N,11424.11421119,E,4,09,1.6,37.041,M,-12.683,M,1.0,0000*5D
$GPGGA,034315.00,3030.68766673,N,11424.11420980,E,4,10,1.6,37.055,M,-12.683,M,1.0,0000*59
$GPGGA,034316.00,3030.68766091,N,11424.11421284,E,4,10,1.6,37.034,M,-12.683,M,1.0,0000*59
$GPGGA,034317.00,3030.68766320,N,11424.11421118,E,4,09,1.6,37.048,M,-12.683,M,1.0,0000*54
$GPGGA,034318.00,3030.68766619,N,11424.11420889,E,4,10,1.6,37.048,M,-12.683,M,1.0,0000*5C
$GPGGA,034319.00,3030.68766638,N,11424.11421377,E,4,09,1.6,37.028,M,-12.683,M,1.0,0000*5B
$GPGGA,034320.00,3030.68766875,N,11424.11421076,E,4,10,1.6,37.046,M,-12.683,M,1.0,0000*54
$GPGGA,034321.00,3030.68767148,N,11424.11420970,E,4,09,1.6,37.042,M,-12.683,M,1.0,0000*51
$GPGGA,034322.00,3030.68766616,N,11424.11421251,E,4,09,1.0,37.042,M,-12.683,M,1.0,0000*50
$GPGGA,034323.00,3030.68766820,N,11424.11421097,E,4,10,1.0,37.032,M,-12.683,M,1.0,0000*5D
$GPGGA,034324.00,3030.68766562,N,11424.11420979,E,4,10,1.0,37.045,M,-12.683,M,1.0,0000*59
$GPGGA,034325.00,3030.68767029,N,11424.11421178,E,4,10,1.0,37.037,M,-12.683,M,1.0,0000*5E
$GPGGA,034326.00,3030.68766996,N,11424.11420765,E,4,10,1.0,37.055,M,-12.683,M,1.0,0000*5E
$GPGGA,034327.00,3030.68766494,N,11424.11421457,E,4,10,1.0,37.029,M,-12.683,M,1.0,0000*58
$GPGGA,034328.00,3030.68766903,N,11424.11421136,E,4,09,1.0,37.045,M,-12.683,M,1.0,0000*54
$GPGGA,034329.00,3030.68766268,N,11424.11421236,E,4,09,1.0,37.039,M,-12.683,M,1.0,0000*5B
$GPGGA,034330.00,3030.68766737,N,11424.11421172,E,4,10,1.0,37.040,M,-12.683,M,1.0,0000*59
$GPGGA,034331.00,3030.68767292,N,11424.11421124,E,4,09,1.0,37.030,M,-12.683,M,1.0,0000*5F
$GPGGA,034332.00,3030.68766765,N,11424.11420962,E,4,09,1.0,37.050,M,-12.683,M,1.0,0000*5D
$GPGGA,034333.00,3030.68766740,N,11424.11421421,E,4,10,1.0,37.031,M,-12.683,M,1.0,0000*5F
$GPGGA,034334.00,3030.68766558,N,11424.11421153,E,4,09,1.0,37.033,M,-12.683,M,1.0,0000*59
$GPGGA,034335.00,3030.68767074,N,11424.11420953,E,4,09,1.0,37.038,M,-12.683,M,2.0,0000*53
$GPGGA,034336.00,3030.68766861,N,11424.11421117,E,4,10,1.0,37.039,M,-12.683,M,1.0,0000*5E
$GPGGA,034337.00,3030.68766977,N,11424.11420991,E,4,10,1.0,37.045,M,-12.683,M,2.0,0000*56
$GPGGA,034338.00,3030.68767413,N,11424.11420936,E,4,10,1.0,37.045,M,-12.683,M,1.0,0000*59
$GPGGA,034339.00,3030.68766823,N,11424.11421431,E,4,10,1.0,37.021,M,-12.683,M,1.0,0000*5F
$GPGGA,034340.00,3030.68766899,N,11424.11421315,E,4,09,1.0,37.028,M,-12.683,M,1.0,0000*50
$GPGGA,034341.00,3030.68767085,N,11424.11421289,E,4,09,1.0,37.023,M,-12.683,M,1.0,0000*5A
$GPGGA,034342.00,3030.68766883,N,11424.11421167,E,4,10,1.0,37.023,M,-12.683,M,1.0,0000*5D
$GPGGA,034343.00,3030.68767220,N,11424.11421179,E,4,09,1.0,37.033,M,-12.683,M,1.0,0000*58
$GPGGA,034344.00,3030.68767443,N,11424.11420706,E,4,10,1.0,37.045,M,-12.683,M,1.0,0000*5A
$GPGGA,034345.00,3030.68766766,N,11424.11421659,E,4,10,1.0,37.014,M,-12.683,M,1.0,0000*50
$GPGGA,034346.00,3030.68767551,N,11424.11420870,E,4,10,1.0,37.032,M,-12.683,M,1.0,0000*54
$GPGGA,034347.00,3030.68767454,N,11424.11421021,E,4,09,1.0,37.038,M,-12.683,M,1.0,0000*5E
$GPGGA,034348.00,3030.68767606,N,11424.11420665,E,4,10,1.0,37.055,M,-12.683,M,1.0,0000*50
$GPGGA,034349.00,3030.68767636,N,11424.11420850,E,4,09,1.0,37.056,M,-12.683,M,1.0,0000*51
$GPGGA,034350.00,3030.68767014,N,11424.11421317,E,4,09,1.0,37.027,M,-12.683,M,1.0,0000*50
$GPGGA,034351.00,3030.68767351,N,11424.11421174,E,4,10,1.0,37.025,M,-12.683,M,1.0,0000*5E
$GPGGA,034352.00,3030.68767417,N,11424.11421216,E,4,08,1.0,37.030,M,-12.683,M,1.0,0000*52
$GPGGA,034353.00,3030.68766346,N,11424.11421337,E,4,09,1.0,37.022,M,-12.683,M,1.0,0000*51
$GPGGA,034354.00,3030.68766689,N,11424.11421403,E,4,10,1.0,37.026,M,-12.683,M,1.0,0000*5C
$GPGGA,034355.00,3030.68767111,N,11424.11421189,E,4,09,1.0,37.035,M,-12.683,M,1.0,0000*57
$GPGGA,034356.00,3030.68767131,N,11424.11421319,E,4,09,1.1,37.024,M,-12.683,M,1.0,0000*5C
$GPGGA,034357.00,3030.68765917,N,11424.11420591,E,4,09,1.1,37.069,M,-12.683,M,1.0,0000*5D
$GPGGA,034358.00,3030.68766879,N,11424.11420783,E,4,08,1.1,37.073,M,-12.683,M,1.0,0000*53
$GPGGA,034359.00,3030.68766630,N,11424.11420815,E,4,09,1.1,37.058,M,-12.683,M,1.0,0000*59
$GPGGA,034400.00,3030.68766165,N,11424.11421501,E,4,09,1.1,37.035,M,-12.683,M,1.0,0000*57
$GPGGA,034401.00,3030.68766907,N,11424.11420471,E,4,08,1.1,37.079,M,-12.683,M,1.0,0000*54
$GPGGA,034402.00,3030.68766474,N,11424.11420824,E,4,09,1.1,37.077,M,-12.683,M,1.0,0000*5D
$GPGGA,034403.00,3030.68766948,N,11424.11420503,E,4,09,1.1,37.085,M,-12.683,M,1.0,0000*5B
$GPGGA,034404.00,3030.68766522,N,11424.11420510,E,4,08,1.1,37.085,M,-12.683,M,1.0,0000*5F
$GPGGA,034405.00,3030.68766602,N,11424.11420808,E,4,08,1.1,37.073,M,-12.683,M,2.0,0000*51
$GPGGA,034406.00,3030.68766798,N,11424.11420608,E,4,08,1.1,37.073,M,-12.683,M,3.0,0000*5F
$GPGGA,034407.00,3030.68766026,N,11424.11420784,E,4,08,1.1,37.062,M,-12.683,M,2.0,0000*58
$GPGGA,034408.00,3030.68765680,N,11424.11421193,E,4,08,1.0,37.049,M,-12.683,M,1.0,0000*54
$GPGGA,034409.00,3030.68766295,N,11424.11420330,E,4,08,1.0,37.085,M,-12.683,M,1.0,0000*5C
$GPGGA,034410.00,3030.68766415,N,11424.11420524,E,4,09,1.0,37.074,M,-12.683,M,2.0,0000*55
$GPGGA,034411.00,3030.68766747,N,11424.11420764,E,4,09,1.0,37.068,M,-12.683,M,1.0,0000*58
$GPGGA,034412.00,3030.68766452,N,11424.11421140,E,4,09,1.0,37.061,M,-12.683,M,1.0,0000*54
$GPGGA,034413.00,3030.68766778,N,11424.11420899,E,4,08,1.0,37.075,M,-12.683,M,1.0,0000*56
$GPGGA,034414.00,3030.68767472,N,11424.11420878,E,4,08,1.0,37.072,M,-12.683,M,1.0,0000*51
$GPGGA,034415.00,3030.68766665,N,11424.11420821,E,4,09,1.0,37.072,M,-12.683,M,1.0,0000*58
$GPGGA,034416.00,3030.68766592,N,11424.11420921,E,4,08,1.0,37.057,M,-12.683,M,1.0,0000*57
$GPGGA,034417.00,3030.68766880,N,11424.11420649,E,4,09,1.0,37.075,M,-12.683,M,1.0,0000*58
$GPGGA,034418.00,3030.68766726,N,11424.11420885,E,4,09,1.0,37.061,M,-12.683,M,1.0,0000*5F
$GPGGA,034419.00,3030.68767121,N,11424.11420763,E,4,08,1.0,37.073,M,-12.683,M,1.0,0000*5B
$GPGGA,034420.00,3030.68767235,N,11424.11420948,E,4,08,1.0,37.069,M,-12.683,M,1.0,0000*5B
$GPGGA,034421.00,3030.68766710,N,11424.11421014,E,4,09,1.0,37.065,M,-12.683,M,1.0,0000*55
$GPGGA,034422.00,3030.68766563,N,11424.11420955,E,4,09,1.0,37.067,M,-12.683,M,1.0,0000*5F
$GPGGA,034423.00,3030.68766323,N,11424.11420739,E,4,08,1.0,37.080,M,-12.683,M,1.0,0000*50
$GPGGA,034424.00,3030.68766874,N,11424.11420701,E,4,09,1.0,37.067,M,-12.683,M,1.0,0000*5D
$GPGGA,034425.00,3030.68767342,N,11424.11420581,E,4,08,1.0,37.084,M,-12.683,M,1.0,0000*55
$GPGGA,034426.00,3030.68767144,N,11424.11420356,E,4,09,1.0,37.092,M,-12.683,M,2.0,0000*5B
$GPGGA,034427.00,3030.68766865,N,11424.11419964,E,4,09,1.0,37.105,M,-12.683,M,1.0,0000*5C
$GPGGA,034428.00,3030.68766975,N,11424.11421000,E,4,08,1.0,37.066,M,-12.683,M,1.0,0000*56
$GPGGA,034429.00,3030.68766505,N,11424.11420819,E,4,09,1.0,37.065,M,-12.683,M,1.0,0000*5F
$GPGGA,034430.00,3030.68767470,N,11424.11420092,E,4,09,1.0,37.093,M,-12.683,M,1.0,0000*57
$GPGGA,034431.00,3030.68766657,N,11424.11420315,E,4,09,1.0,37.092,M,-12.683,M,1.0,0000*5D
$GPGGA,034432.00,3030.68767692,N,11424.11420206,E,4,08,1.0,37.089,M,-12.683,M,1.0,0000*5E
$GPGGA,034433.00,3030.68767206,N,11424.11420329,E,4,09,1.0,37.081,M,-12.683,M,1.0,0000*53
$GPGGA,034434.00,3030.68767193,N,11424.11420894,E,4,09,1.0,37.056,M,-12.683,M,1.0,0000*5C
$GPGGA,034435.00,3030.68766701,N,11424.11420727,E,4,09,1.0,37.080,M,-12.683,M,1.0,0000*5D
$GPGGA,034436.00,3030.68767288,N,11424.11420762,E,4,09,1.0,37.079,M,-12.683,M,1.0,0000*5C
$GPGGA,034437.00,3030.68767509,N,11424.11420665,E,4,09,1.0,37.089,M,-12.683,M,1.0,0000*5A
$GPGGA,034438.00,3030.68767005,N,11424.11420708,E,4,09,1.0,37.073,M,-12.683,M,1.0,0000*53
$GPGGA,034439.00,3030.68767389,N,11424.11420890,E,4,09,1.0,37.069,M,-12.683,M,1.0,0000*50
$GPGGA,034440.00,3030.68767491,N,11424.11420795,E,4,08,1.1,37.072,M,-12.683,M,1.0,0000*50
$GPGGA,034441.00,3030.68766945,N,11424.11421115,E,4,08,1.1,37.052,M,-12.683,M,1.0,0000*59
$GPGGA,034442.00,3030.68767009,N,11424.11421029,E,4,09,1.1,37.070,M,-12.683,M,1.0,0000*55
$GPGGA,034443.00,3030.68767584,N,11424.11420695,E,4,08,1.1,37.066,M,-12.683,M,1.0,0000*52
$GPGGA,034444.00,3030.68767752,N,11424.11421279,E,4,08,1.1,37.051,M,-12.683,M,2.0,0000*5C
$GPGGA,034445.00,3030.68767029,N,11424.11421004,E,4,09,1.1,37.065,M,-12.683,M,1.0,0000*5B
$GPGGA,034446.00,3030.68767977,N,11424.11420556,E,4,08,1.1,37.088,M,-12.683,M,1.0,0000*5B
$GPGGA,034447.00,3030.68767673,N,11424.11420983,E,4,08,1.1,37.073,M,-12.683,M,1.0,0000*51
$GPGGA,034448.00,3030.68767895,N,11424.11420672,E,4,09,1.1,37.079,M,-12.683,M,2.0,0000*51
$GPGGA,034449.00,3030.68767237,N,11424.11420848,E,4,09,1.1,37.080,M,-12.683,M,1.0,0000*50
$GPGGA,034450.00,3030.68767104,N,11424.11420900,E,4,09,1.1,37.080,M,-12.683,M,1.0,0000*56
$GPGGA,034451.00,3030.68767709,N,11424.11420846,E,4,09,1.1,37.078,M,-12.683,M,1.0,0000*58
$GPGGA,034452.00,3030.68767449,N,11424.11421003,E,4,09,1.1,37.071,M,-12.683,M,1.0,0000*5D
$GPGGA,034453.00,3030.68767318,N,11424.11420599,E,4,08,1.2,37.096,M,-12.683,M,1.0,0000*53
$GPGGA,034454.00,3030.68767249,N,11424.11420792,E,4,08,1.1,37.084,M,-12.683,M,1.0,0000*58
$GPGGA,034455.00,3030.68767467,N,11424.11420928,E,4,07,1.1,37.082,M,-12.683,M,1.0,0000*55
$GPGGA,034456.00,3030.68767273,N,11424.11420666,E,4,07,1.1,37.097,M,-12.683,M,1.0,0000*54
$GPGGA,034457.00,3030.68767208,N,11424.11420429,E,4,08,1.1,37.103,M,-12.683,M,1.0,0000*53
$GPGGA,034458.00,3030.68766799,N,11424.11421213,E,4,07,1.1,37.073,M,-12.683,M,1.0,0000*57
$GPGGA,034459.00,3030.68767560,N,11424.11420825,E,4,08,1.1,37.085,M,-12.683,M,1.0,0000*5B
$GPGGA,034500.00,3030.68767518,N,11424.11420901,E,4,08,1.1,37.080,M,-12.683,M,1.0,0000*5B
$GPGGA,034501.00,3030.68767479,N,11424.11420524,E,4,07,1.1,37.100,M,-12.683,M,1.0,0000*51
$GPGGA,034502.00,3030.68767427,N,11424.11420475,E,4,07,1.1,37.094,M,-12.683,M,1.0,0000*50
$GPGGA,034503.00,3030.68767488,N,11424.11420525,E,4,08,1.1,37.102,M,-12.683,M,1.0,0000*51
$GPGGA,034504.00,3030.68767603,N,11424.11421080,E,4,08,1.1,37.070,M,-12.683,M,1.0,0000*58
$GPGGA,034505.00,3030.68767280,N,11424.11421010,E,4,07,1.1,37.077,M,-12.683,M,1.0,0000*57
$GPGGA,034506.00,3030.68767183,N,11424.11420775,E,4,07,1.1,37.086,M,-12.683,M,1.0,0000*5F
$GPGGA,034507.00,3030.68767348,N,11424.11420505,E,4,07,1.1,37.109,M,-12.683,M,1.0,0000*58
$GPGGA,034508.00,3030.68767081,N,11424.11421166,E,4,08,1.1,37.063,M,-12.683,M,1.0,0000*53
$GPGGA,034509.00,3030.68767461,N,11424.11421224,E,4,08,1.1,37.054,M,-12.683,M,1.0,0000*59
$GPGGA,034510.00,3030.68766894,N,11424.11421356,E,4,08,1.1,37.064,M,-12.683,M,1.0,0000*51
$GPGGA,034511.00,3030.68767035,N,11424.11421263,E,4,08,1.1,37.066,M,-12.683,M,1.0,0000*57
$GPGGA,034512.00,3030.68767034,N,11424.11421439,E,4,08,1.1,37.048,M,-12.683,M,1.0,0000*50
$GPGGA,034513.00,3030.68767992,N,11424.11420753,E,4,08,1.1,37.095,M,-12.683,M,1.0,0000*5A
$GPGGA,034514.00,3030.68767338,N,11424.11421271,E,4,08,1.1,37.068,M,-12.683,M,1.0,0000*51
$GPGGA,034515.00,3030.68767236,N,11424.11421345,E,4,07,1.1,37.067,M,-12.683,M,1.0,0000*59
$GPGGA,034516.00,3030.68767128,N,11424.11421880,E,4,07,1.1,37.035,M,-12.683,M,1.0,0000*53
$GPGGA,034517.00,3030.68766913,N,11424.11421116,E,4,08,1.1,37.077,M,-12.683,M,1.0,0000*5C
$GPGGA,034518.00,3030.68767650,N,11424.11420485,E,4,08,1.1,37.104,M,-12.683,M,1.0,0000*51
$GPGGA,034519.00,3030.68767565,N,11424.11421137,E,4,08,1.1,37.081,M,-12.683,M,1.0,0000*54
$GPGGA,034520.00,3030.68767455,N,11424.11420702,E,4,08,1.2,37.095,M,-12.683,M,1.0,0000*5B
$GPGGA,034521.00,3030.68767251,N,11424.11420883,E,4,08,1.2,37.091,M,-12.683,M,1.0,0000*5A
$GPGGA,034522.00,3030.68767918,N,11424.11420415,E,4,08,1.2,37.099,M,-12.683,M,1.0,0000*54
$GPGGA,034523.00,3030.68767567,N,11424.11420332,E,4,07,1.2,37.109,M,-12.683,M,1.0,0000*54
$GPGGA,034524.00,3030.68767175,N,11424.11421148,E,4,08,1.2,37.071,M,-12.683,M,1.0,0000*5B
$GPGGA,034525.00,3030.68767683,N,11424.11421166,E,4,07,1.2,37.070,M,-12.683,M,1.0,0000*56
$GPGGA,034526.00,3030.68767483,N,11424.11420923,E,4,08,1.2,37.079,M,-12.683,M,1.0,0000*59
$GPGGA,034527.00,3030.68767486,N,11424.11420943,E,4,08,1.2,37.075,M,-12.683,M,1.0,0000*57
$GPGGA,034528.00,3030.68767460,N,11424.11420877,E,4,08,1.2,37.095,M,-12.683,M,1.0,0000*58
$GPGGA,034529.00,3030.68767220,N,11424.11420785,E,4,08,1.2,37.089,M,-12.683,M,1.0,0000*54
$GPGGA,034530.00,3030.68767239,N,11424.11420966,E,4,08,1.2,37.082,M,-12.683,M,1.0,0000*5C
$GPGGA,034531.00,3030.68767807,N,11424.11420707,E,4,07,1.1,37.087,M,-12.683,M,1.0,0000*5A
$GPGGA,034532.00,3030.68767873,N,11424.11420992,E,4,07,1.1,37.078,M,-12.683,M,1.0,0000*58
$GPGGA,034533.00,3030.68767484,N,11424.11420507,E,4,07,1.1,37.100,M,-12.683,M,1.0,0000*53
$GPGGA,034534.00,3030.68768013,N,11424.11420722,E,4,08,1.1,37.083,M,-12.683,M,1.0,0000*51
$GPGGA,034535.00,3030.68767732,N,11424.11420933,E,4,09,1.1,37.073,M,-12.683,M,2.0,0000*58
$GPGGA,034536.00,3030.68767422,N,11424.11421213,E,4,09,1.1,37.072,M,-12.683,M,1.0,0000*53
$GPGGA,034537.00,3030.68767553,N,11424.11420790,E,4,09,1.1,37.098,M,-12.683,M,1.0,0000*5E
$GPGGA,034538.00,3030.68767840,N,11424.11420428,E,4,08,1.1,37.109,M,-12.683,M,1.0,0000*56
$GPGGA,034539.00,3030.68767439,N,11424.11421160,E,4,09,1.1,37.081,M,-12.683,M,1.0,0000*5D
$GPGGA,034540.00,3030.68768264,N,11424.11420688,E,4,08,1.1,37.092,M,-12.683,M,1.0,0000*51
$GPGGA,034541.00,3030.68768050,N,11424.11420644,E,4,08,1.1,37.091,M,-12.683,M,1.0,0000*56
$GPGGA,034542.00,3030.68767447,N,11424.11420912,E,4,09,1.1,37.086,M,-12.683,M,1.0,0000*53
$GPGGA,034543.00,3030.68767702,N,11424.11421341,E,4,08,1.1,37.062,M,-12.683,M,1.0,0000*56
$GPGGA,034544.00,3030.68767685,N,11424.11421244,E,4,08,1.1,37.066,M,-12.683,M,2.0,0000*5C
$GPGGA,034545.00,3030.68767528,N,11424.11420971,E,4,08,1.1,37.076,M,-12.683,M,1.0,0000*57
$GPGGA,034546.00,3030.68766984,N,11424.11421917,E,4,09,1.1,37.042,M,-12.683,M,1.0,0000*58
$GPGGA,034547.00,3030.68766850,N,11424.11421743,E,4,09,1.1,37.056,M,-12.683,M,1.0,0000*5B
$GPGGA,034548.00,3030.68767086,N,11424.11420919,E,4,08,1.1,37.088,M,-12.683,M,1.0,0000*54
$GPGGA,034549.00,3030.68767088,N,11424.11421596,E,4,08,1.1,37.050,M,-12.683,M,1.0,0000*54
$GPGGA,034550.00,3030.68767632,N,11424.11420879,E,4,09,1.1,37.074,M,-12.683,M,1.0,0000*51
$GPGGA,034551.00,3030.68767577,N,11424.11421575,E,4,09,1.1,37.053,M,-12.683,M,1.0,0000*57
$GPGGA,034552.00,3030.68767357,N,11424.11421584,E,4,09,1.1,37.066,M,-12.683,M,1.0,0000*58
$GPGGA,034553.00,3030.68767247,N,11424.11421585,E,4,09,1.1,37.060,M,-12.683,M,1.0,0000*5E
$GPGGA,034554.00,3030.68767607,N,11424.11421392,E,4,09,1.1,37.074,M,-12.683,M,1.0,0000*5C
$GPGGA,034555.00,3030.68767493,N,11424.11421492,E,4,09,1.0,37.077,M,-12.683,M,1.0,0000*57
$GPGGA,034556.00,3030.68767370,N,11424.11421419,E,4,08,1.0,37.068,M,-12.683,M,1.0,0000*52
$GPGGA,034557.00,3030.68767472,N,11424.11421389,E,4,09,1.0,37.078,M,-12.683,M,1.0,0000*58
$GPGGA,034558.00,3030.68767651,N,11424.11421242,E,4,10,1.0,37.076,M,-12.683,M,1.0,0000*54
$GPGGA,034559.00,3030.68767421,N,11424.11421694,E,4,10,1.0,37.067,M,-12.683,M,1.0,0000*5F
$GPGGA,034600.00,3030.68767905,N,11424.11421181,E,4,10,1.0,37.078,M,-12.683,M,1.0,0000*56
$GPGGA,034601.00,3030.68767773,N,11424.11421221,E,4,09,1.0,37.079,M,-12.683,M,1.0,0000*58
$GPGGA,034602.00,3030.68767696,N,11424.11421280,E,4,10,1.0,37.087,M,-12.683,M,1.0,0000*53
$GPGGA,034603.00,3030.68767394,N,11424.11421138,E,4,10,1.0,37.102,M,-12.683,M,1.0,0000*59
$GPGGA,034604.00,3030.68766863,N,11424.11420995,E,4,09,1.0,37.101,M,-12.683,M,1.0,0000*59
$GPGGA,034605.00,3030.68766189,N,11424.11421835,E,4,10,1.0,37.066,M,-12.683,M,1.0,0000*57
$GPGGA,034606.00,3030.68766446,N,11424.11421803,E,4,10,1.0,37.066,M,-12.683,M,2.0,0000*54
$GPGGA,034607.00,3030.68766366,N,11424.11421938,E,4,09,1.0,37.058,M,-12.683,M,3.0,0000*5D
$GPGGA,034608.00,3030.68766753,N,11424.11421584,E,4,10,1.0,37.064,M,-12.683,M,2.0,0000*5D
$GPGGA,034609.00,3030.68766567,N,11424.11421169,E,4,09,1.0,37.080,M,-12.683,M,1.0,0000*5F
$GPGGA,034610.00,3030.68767850,N,11424.11421445,E,4,08,1.0,37.072,M,-12.683,M,1.0,0000*58
$GPGGA,034611.00,3030.68768726,N,11424.11420852,E,4,09,1.0,37.084,M,-12.683,M,1.0,0000*5B
$GPGGA,034612.00,3030.68768507,N,11424.11421128,E,4,09,1.0,37.070,M,-12.683,M,1.0,0000*57
$GPGGA,034613.00,3030.68767867,N,11424.11421425,E,4,09,1.0,37.070,M,-12.683,M,1.0,0000*5A
$GPGGA,034614.00,3030.68768253,N,11424.11421027,E,4,09,1.0,37.082,M,-12.683,M,1.0,0000*54
$GPGGA,034615.00,3030.68768004,N,11424.11421036,E,4,08,1.0,37.081,M,-12.683,M,1.0,0000*57
$GPGGA,034616.00,3030.68768175,N,11424.11420924,E,4,09,1.0,37.088,M,-12.683,M,1.0,0000*50
$GPGGA,034617.00,3030.68768481,N,11424.11420068,E,4,08,1.0,37.120,M,-12.683,M,1.0,0000*5C
$GPGGA,034618.00,3030.68767931,N,11424.11420717,E,4,09,1.0,37.094,M,-12.683,M,1.0,0000*5A
$GPGGA,034619.00,3030.68767909,N,11424.11421180,E,4,08,1.0,37.071,M,-12.683,M,1.0,0000*53
$GPGGA,034620.00,3030.68768098,N,11424.11421019,E,4,08,1.0,37.079,M,-12.683,M,1.0,0000*5E
$GPGGA,034621.00,3030.68767978,N,11424.11421083,E,4,09,1.0,37.083,M,-12.683,M,1.0,0000*50
$GPGGA,034622.00,3030.68767820,N,11424.11420815,E,4,09,1.0,37.098,M,-12.683,M,1.0,0000*53
$GPGGA,034623.00,3030.68767542,N,11424.11421162,E,4,09,1.0,37.086,M,-12.683,M,1.0,0000*5C
$GPGGA,034624.00,3030.68767608,N,11424.11421166,E,4,08,1.0,37.097,M,-12.683,M,1.0,0000*53
$GPGGA,034625.00,3030.68767957,N,11424.11420996,E,4,08,1.0,37.096,M,-12.683,M,1.0,0000*50
$GPGGA,034626.00,3030.68766862,N,11424.11421499,E,4,08,1.0,37.075,M,-12.683,M,1.0,0000*5B
$GPGGA,034627.00,3030.68767713,N,11424.11420395,E,4,09,1.0,37.118,M,-12.683,M,1.0,0000*53
$GPGGA,034628.00,3030.68767508,N,11424.11421138,E,4,08,1.0,37.084,M,-12.683,M,1.0,0000*55
$GPGGA,034629.00,3030.68767817,N,11424.11420838,E,4,08,1.0,37.100,M,-12.683,M,1.0,0000*52
$GPGGA,034630.00,3030.68767621,N,11424.11421054,E,4,09,1.0,37.099,M,-12.683,M,1.0,0000*52
$GPGGA,034631.00,3030.68768429,N,11424.11420692,E,4,09,1.0,37.095,M,-12.683,M,1.0,0000*57
$GPGGA,034632.00,3030.68767637,N,11424.11421091,E,4,09,1.0,37.079,M,-12.683,M,1.0,0000*50
$GPGGA,034633.00,3030.68767438,N,11424.11421220,E,4,09,1.0,37.090,M,-12.683,M,1.0,0000*53
$GPGGA,034634.00,3030.68767848,N,11424.11420648,E,4,08,1.0,37.117,M,-12.683,M,1.0,0000*5B
$GPGGA,034635.00,3030.68767721,N,11424.11421208,E,4,09,1.0,37.082,M,-12.683,M,1.0,0000*57
$GPGGA,034636.00,3030.68767952,N,11424.11421430,E,4,09,1.0,37.073,M,-12.683,M,1.0,0000*5D
$GPGGA,034637.00,3030.68768001,N,11424.11420794,E,4,09,1.0,37.094,M,-12.683,M,1.0,0000*59
$GPGGA,034638.00,3030.68767708,N,11424.11420509,E,4,09,1.0,37.117,M,-12.683,M,1.0,0000*5B
$GPGGA,034639.00,3030.68767674,N,11424.11420350,E,4,09,1.0,37.117,M,-12.683,M,1.0,0000*5A
$GPGGA,034640.00,3030.68767727,N,11424.11420503,E,4,09,1.0,37.126,M,-12.683,M,1.0,0000*51
$GPGGA,034641.00,3030.68767690,N,11424.11420129,E,4,08,1.0,37.128,M,-12.683,M,1.0,0000*5E
$GPGGA,034642.00,3030.68767412,N,11424.11420661,E,4,09,1.0,37.113,M,-12.683,M,1.0,0000*57
$GPGGA,034643.00,3030.68768086,N,11424.11420285,E,4,09,1.0,37.128,M,-12.683,M,1.0,0000*56
$GPGGA,034644.00,3030.68767289,N,11424.11420921,E,4,07,1.0,37.104,M,-12.683,M,1.0,0000*56
$GPGGA,034645.00,3030.68768141,N,11424.11420105,E,4,09,1.0,37.131,M,-12.683,M,1.0,0000*59
$GPGGA,034646.00,3030.68767836,N,11424.11420749,E,4,08,1.0,37.097,M,-12.683,M,1.0,0000*5E
$GPGGA,034647.00,3030.68768007,N,11424.11420203,E,4,09,1.0,37.128,M,-12.683,M,1.0,0000*55
$GPGGA,034648.00,3030.68767632,N,11424.11421501,E,4,09,1.0,37.059,M,-12.683,M,1.0,0000*56
$GPGGA,034649.00,3030.68767644,N,11424.11421049,E,4,08,1.0,37.094,M,-12.683,M,1.0,0000*5F
$GPGGA,034650.00,3030.68767776,N,11424.11420759,E,4,08,1.0,37.100,M,-12.683,M,1.0,0000*5C
$GPGGA,034651.00,3030.68767803,N,11424.11421126,E,4,08,1.0,37.074,M,-12.683,M,1.0,0000*5D
$GPGGA,034652.00,3030.68767865,N,11424.11420896,E,4,09,1.0,37.090,M,-12.683,M,1.0,0000*56
$GPGGA,034653.00,3030.68767927,N,11424.11421007,E,4,10,1.0,37.088,M,-12.683,M,1.0,0000*50
$GPGGA,034654.00,3030.68767994,N,11424.11420966,E,4,10,1.0,37.099,M,-12.683,M,1.0,0000*50
$GPGGA,034655.00,3030.68768258,N,11424.11421279,E,4,09,1.0,37.088,M,-12.683,M,1.0,0000*59
$GPGGA,034656.00,3030.68767988,N,11424.11421392,E,4,10,1.0,37.080,M,-12.683,M,1.0,0000*57
$GPGGA,034657.00,3030.68767407,N,11424.11421318,E,4,09,1.1,37.090,M,-12.683,M,1.0,0000*56
$GPGGA,034658.00,3030.68767739,N,11424.11421453,E,4,08,1.1,37.069,M,-12.683,M,1.0,0000*58
$GPGGA,034659.00,3030.68767882,N,11424.11421026,E,4,09,1.1,37.099,M,-12.683,M,1.0,0000*5E
$GPGGA,034700.00,3030.68768719,N,11424.11421034,E,4,09,1.1,37.105,M,-12.683,M,1.0,0000*56
$GPGGA,034701.00,3030.68768756,N,11424.11421086,E,4,08,1.1,37.098,M,-12.683,M,1.0,0000*51
$GPGGA,034702.00,3030.68768404,N,11424.11421642,E,4,09,1.1,37.072,M,-12.683,M,1.0,0000*5D
$GPGGA,034703.00,3030.68768201,N,11424.11421165,E,4,08,1.1,37.100,M,-12.683,M,1.0,0000*58
$GPGGA,034704.00,3030.68768785,N,11424.11420956,E,4,08,1.1,37.116,M,-12.683,M,1.0,0000*58
$GPGGA,034705.00,3030.68768694,N,11424.11421393,E,4,09,1.1,37.077,M,-12.683,M,1.0,0000*5D
$GPGGA,034706.00,3030.68768670,N,11424.11421544,E,4,09,1.1,37.073,M,-12.683,M,1.0,0000*5C
$GPGGA,034707.00,3030.68769528,N,11424.11420637,E,4,10,1.1,37.117,M,-12.683,M,1.0,0000*5F
$GPGGA,034708.00,3030.68769377,N,11424.11420781,E,4,09,1.1,37.102,M,-12.683,M,1.0,0000*5C
$GPGGA,034709.00,3030.68769048,N,11424.11420494,E,4,10,1.1,37.134,M,-12.683,M,1.0,0000*58
$GPGGA,034710.00,3030.68769040,N,11424.11421256,E,4,10,1.1,37.092,M,-12.683,M,1.0,0000*5C
$GPGGA,034711.00,3030.68767515,N,11424.11421908,E,4,10,1.0,37.046,M,-12.683,M,1.0,0000*5E
$GPGGA,034712.00,3030.68768091,N,11424.11421727,E,4,10,1.0,37.059,M,-12.683,M,1.0,0000*56
$GPGGA,034713.00,3030.68767687,N,11424.11422075,E,4,09,1.0,37.052,M,-12.683,M,1.0,0000*59
$GPGGA,034714.00,3030.68768153,N,11424.11421735,E,4,10,1.0,37.056,M,-12.683,M,1.0,0000*53
$GPGGA,034715.00,3030.68767714,N,11424.11421833,E,4,10,1.0,37.046,M,-12.683,M,1.0,0000*50
$GPGGA,034716.00,3030.68767990,N,11424.11421567,E,4,10,1.0,37.065,M,-12.683,M,1.0,0000*5C
$GPGGA,034717.00,3030.68767671,N,11424.11421948,E,4,11,1.0,37.060,M,-12.683,M,1.0,0000*58
$GPGGA,034718.00,3030.68767604,N,11424.11422348,E,4,10,1.0,37.042,M,-12.683,M,1.0,0000*5D
$GPGGA,034719.00,3030.68768313,N,11424.11421457,E,4,10,1.0,37.078,M,-12.683,M,1.0,0000*53
$GPGGA,034720.00,3030.68767849,N,11424.11421958,E,4,10,1.0,37.053,M,-12.683,M,1.0,0000*59
$GPGGA,034721.00,3030.68767794,N,11424.11421822,E,4,11,1.0,37.059,M,-12.683,M,1.0,0000*50
$GPGGA,034722.00,3030.68768068,N,11424.11421567,E,4,10,1.0,37.065,M,-12.683,M,1.0,0000*5A
$GPGGA,034723.00,3030.68768060,N,11424.11421838,E,4,10,1.0,37.052,M,-12.683,M,1.0,0000*50
$GPGGA,034724.00,3030.68767914,N,11424.11421710,E,4,11,1.0,37.068,M,-12.683,M,1.0,0000*5F
$GPGGA,034725.00,3030.68767930,N,11424.11421896,E,4,10,1.0,37.050,M,-12.683,M,1.0,0000*53
$GPGGA,034726.00,3030.68767978,N,11424.11421639,E,4,10,1.0,37.063,M,-12.683,M,1.0,0000*57
$GPGGA,034727.00,3030.68768397,N,11424.11421681,E,4,11,1.0,37.068,M,-12.683,M,1.0,0000*5B
$GPGGA,034728.00,3030.68766195,N,11424.11421795,E,4,10,1.0,37.079,M,-12.683,M,1.0,0000*5F
$GPGGA,034729.00,3030.68766399,N,11424.11421577,E,4,11,1.0,37.071,M,-12.683,M,1.0,0000*57
$GPGGA,034730.00,3030.68766602,N,11424.11421836,E,4,10,1.0,37.067,M,-12.683,M,1.0,0000*56
$GPGGA,034731.00,3030.68766648,N,11424.11421748,E,4,10,1.0,37.067,M,-12.683,M,1.0,0000*5F
$GPGGA,034732.00,3030.68766444,N,11424.11421758,E,4,10,1.0,37.073,M,-12.683,M,1.0,0000*56
$GPGGA,034733.00,3030.68766683,N,11424.11421354,E,4,10,1.0,37.082,M,-12.683,M,1.0,0000*58
$GPGGA,034734.00,3030.68766267,N,11424.11421626,E,4,11,1.0,37.082,M,-12.683,M,1.0,0000*50
$GPGGA,034735.00,3030.68767111,N,11424.11421475,E,4,11,1.0,37.085,M,-12.683,M,1.0,0000*51
$GPGGA,034736.00,3030.68766764,N,11424.11421724,E,4,11,1.0,37.063,M,-12.683,M,1.0,0000*58
$GPGGA,034737.00,3030.68766862,N,11424.11421768,E,4,10,1.0,37.080,M,-12.683,M,1.0,0000*54
$GPGGA,034738.00,3030.68766233,N,11424.11421799,E,4,10,1.0,37.079,M,-12.683,M,1.0,0000*5D
$GPGGA,034739.00,3030.68766767,N,11424.11421510,E,4,11,1.0,37.086,M,-12.683,M,1.0,0000*5A
$GPGGA,034740.00,3030.68766911,N,11424.11421528,E,4,10,1.0,37.082,M,-12.683,M,1.0,0000*55
$GPGGA,034741.00,3030.68766697,N,11424.11421720,E,4,10,1.0,37.072,M,-12.683,M,1.0,0000*50
$GPGGA,034742.00,3030.68766845,N,11424.11421294,E,4,10,1.0,37.088,M,-12.683,M,1.0,0000*5D
$GPGGA,034743.00,3030.68766683,N,11424.11421638,E,4,10,1.0,37.083,M,-12.683,M,1.0,0000*51
$GPGGA,034744.00,3030.68767144,N,11424.11421722,E,4,10,1.0,37.069,M,-12.683,M,1.0,0000*55
$GPGGA,034745.00,3030.68766470,N,11424.11421847,E,4,11,1.0,37.065,M,-12.683,M,1.0,0000*56
$GPGGA,034746.00,3030.68766683,N,11424.11421681,E,4,10,1.0,37.079,M,-12.683,M,1.0,0000*53
$GPGGA,034747.00,3030.68766266,N,11424.11421345,E,4,10,1.0,37.093,M,-12.683,M,1.0,0000*54
$GPGGA,034748.00,3030.68767151,N,11424.11421537,E,4,11,1.0,37.082,M,-12.683,M,1.0,0000*5F
$GPGGA,034749.00,3030.68766568,N,11424.11421770,E,4,10,1.0,37.075,M,-12.683,M,1.0,0000*59
$GPGGA,034750.00,3030.68767129,N,11424.11421482,E,4,10,1.0,37.088,M,-12.683,M,1.0,0000*5D
$GPGGA,034751.00,3030.68766524,N,11424.11421451,E,4,11,1.0,37.087,M,-12.683,M,1.0,0000*54
$GPGGA,034752.00,3030.68767390,N,11424.11421141,E,4,11,1.0,37.101,M,-12.683,M,1.0,0000*54
$GPGGA,034753.00,3030.68766900,N,11424.11421486,E,4,11,1.0,37.089,M,-12.683,M,1.0,0000*58
$GPGGA,034754.00,3030.68766897,N,11424.11421430,E,4,11,1.0,37.092,M,-12.683,M,1.0,0000*57
$GPGGA,034755.00,3030.68767259,N,11424.11421446,E,4,10,1.0,37.099,M,-12.683,M,1.0,0000*54
$GPGGA,034756.00,3030.68766018,N,11424.11421623,E,4,10,1.0,37.096,M,-12.683,M,1.0,0000*5F
$GPGGA,034757.00,3030.68766749,N,11424.11421710,E,4,10,1.0,37.096,M,-12.683,M,1.0,0000*5C
$GPGGA,034758.00,3030.68766798,N,11424.11421372,E,4,09,1.0,37.096,M,-12.683,M,1.0,0000*57
$GPGGA,034759.00,3030.68767235,N,11424.11421502,E,4,09,1.0,37.093,M,-12.683,M,1.0,0000*51
$GPGGA,034800.00,3030.68766398,N,11424.11421639,E,4,10,1.0,37.093,M,-12.683,M,1.0,0000*56
$GPGGA,034801.00,3030.68766706,N,11424.11421768,E,4,09,1.0,37.090,M,-12.683,M,1.0,0000*5A
$GPGGA,034802.00,3030.68766368,N,11424.11421603,E,4,09,1.0,37.094,M,-12.683,M,1.0,0000*5D
$GPGGA,034803.00,3030.68766743,N,11424.11421764,E,4,10,1.0,37.077,M,-12.683,M,1.0,0000*54
$GPGGA,034804.00,3030.68766672,N,11424.11421609,E,4,10,1.0,37.105,M,-12.683,M,1.0,0000*5E
$GPGGA,034805.00,3030.68765934,N,11424.11421690,E,4,10,1.0,37.100,M,-12.683,M,1.0,0000*54
$GPGGA,034806.00,3030.68766923,N,11424.11421335,E,4,10,1.0,37.109,M,-12.683,M,1.0,0000*51
$GPGGA,034807.00,3030.68765337,N,11424.11422409,E,4,08,1.0,37.137,M,-12.683,M,2.0,0000*50
$GPGGA,034808.00,3030.68765397,N,11424.11422688,E,4,10,1.0,37.129,M,-12.683,M,3.0,0000*59
$GPGGA,034809.00,3030.68766321,N,11424.11421922,E,4,10,1.0,37.103,M,-12.683,M,2.0,0000*53
$GPGGA,034810.00,3030.68765481,N,11424.11422405,E,4,09,1.0,37.077,M,-12.683,M,1.0,0000*57
$GPGGA,034811.00,3030.68766628,N,11424.11421593,E,4,10,1.0,37.107,M,-12.683,M,1.0,0000*57
$GPGGA,034812.00,3030.68766083,N,11424.11421764,E,4,10,1.0,37.106,M,-12.683,M,1.0,0000*58
$GPGGA,034813.00,3030.68765923,N,11424.11421745,E,4,10,1.0,37.097,M,-12.683,M,1.0,0000*53
$GPGGA,034814.00,3030.68766132,N,11424.11421591,E,4,09,1.0,37.093,M,-12.683,M,1.0,0000*58
$GPGGA,034815.00,3030.68765847,N,11424.11421530,E,4,10,1.0,37.094,M,-12.683,M,1.0,0000*55
$GPGGA,034816.00,3030.68766321,N,11424.11421157,E,4,10,1.0,37.119,M,-12.683,M,2.0,0000*5C
$GPGGA,034817.00,3030.68766075,N,11424.11421919,E,4,09,1.0,37.084,M,-12.683,M,1.0,0000*53
$GPGGA,034818.00,3030.68766358,N,11424.11422040,E,4,10,1.0,37.079,M,-12.683,M,1.0,0000*5C
$GPGGA,034819.00,3030.68765812,N,11424.11421739,E,4,09,1.0,37.091,M,-12.683,M,1.0,0000*5F
$GPGGA,034820.00,3030.68766798,N,11424.11421428,E,4,10,1.0,37.096,M,-12.683,M,1.0,0000*57
$GPGGA,034821.00,3030.68766838,N,11424.11421780,E,4,10,1.0,37.083,M,-12.683,M,1.0,0000*56
$GPGGA,034822.00,3030.68766019,N,11424.11422127,E,4,09,1.0,37.071,M,-12.683,M,1.0,0000*53
$GPGGA,034823.00,3030.68766508,N,11424.11422025,E,4,10,1.0,37.077,M,-12.683,M,1.0,0000*5A
$GPGGA,034824.00,3030.68766482,N,11424.11421672,E,4,10,1.0,37.077,M,-12.683,M,1.0,0000*59
$GPGGA,034825.00,3030.68765735,N,11424.11422520,E,4,09,1.0,37.049,M,-12.683,M,1.0,0000*56
$GPGGA,034826.00,3030.68765558,N,11424.11421972,E,4,09,1.0,37.077,M,-12.683,M,1.0,0000*59
$GPGGA,034827.00,3030.68766172,N,11424.11421455,E,4,10,1.0,37.088,M,-12.683,M,1.0,0000*57
$GPGGA,034828.00,3030.68766412,N,11424.11421811,E,4,10,1.0,37.075,M,-12.683,M,1.0,0000*55
$GPGGA,034829.00,3030.68766318,N,11424.11421756,E,4,10,1.0,37.082,M,-12.683,M,1.0,0000*5D
$GPGGA,034830.00,3030.68766013,N,11424.11421837,E,4,10,1.0,37.066,M,-12.683,M,1.0,0000*5F
$GPGGA,034831.00,3030.68766052,N,11424.11422572,E,4,09,1.0,37.050,M,-12.683,M,1.0,0000*59
$GPGGA,034832.00,3030.68765684,N,11424.11421840,E,4,10,1.0,37.076,M,-12.683,M,1.0,0000*57
$GPGGA,034833.00,3030.68766430,N,11424.11421240,E,4,10,1.0,37.108,M,-12.683,M,1.0,0000*5A
$GPGGA,034834.00,3030.68765993,N,11424.11422070,E,4,10,1.0,37.064,M,-12.683,M,1.0,0000*53
$GPGGA,034835.00,3030.68766055,N,11424.11421753,E,4,10,1.0,37.090,M,-12.683,M,1.0,0000*5C
$GPGGA,034836.00,3030.68765939,N,11424.11421829,E,4,10,1.0,37.076,M,-12.683,M,1.0,0000*55
$GPGGA,034837.00,3030.68766442,N,11424.11421822,E,4,10,1.0,37.070,M,-12.683,M,1.0,0000*5B
$GPGGA,034838.00,3030.68766455,N,11424.11422088,E,4,09,1.0,37.063,M,-12.683,M,1.0,0000*53
$GPGGA,034839.00,3030.68765894,N,11424.11421301,E,4,10,1.0,37.106,M,-12.683,M,1.0,0000*5B
$GPGGA,034840.00,3030.68766144,N,11424.11422171,E,4,10,1.0,37.059,M,-12.683,M,1.0,0000*5F
$GPGGA,034841.00,3030.68766193,N,11424.11421894,E,4,10,1.0,37.060,M,-12.683,M,1.0,0000*5F
$GPGGA,034842.00,3030.68766323,N,11424.11421602,E,4,10,1.0,37.078,M,-12.683,M,1.0,0000*5D
$GPGGA,034843.00,3030.68766562,N,11424.11421924,E,4,09,1.0,37.076,M,-12.683,M,1.0,0000*52
$GPGGA,034844.00,3030.68765675,N,11424.11422463,E,4,10,1.0,37.043,M,-12.683,M,1.0,0000*50
$GPGGA,034845.00,3030.68766802,N,11424.11421633,E,4,10,1.0,37.085,M,-12.683,M,1.0,0000*52
$GPGGA,034846.00,3030.68765980,N,11424.11422362,E,4,10,1.0,37.049,M,-12.683,M,1.0,0000*5B
$GPGGA,034847.00,3030.68766290,N,11424.11421253,E,4,10,1.0,37.093,M,-12.683,M,1.0,0000*54
$GPGGA,034848.00,3030.68766657,N,11424.11422123,E,4,10,1.0,37.069,M,-12.683,M,1.0,0000*56
$GPGGA,034849.00,3030.68766347,N,11424.11421790,E,4,09,1.0,37.074,M,-12.683,M,1.0,0000*5A
$GPGGA,034850.00,3030.68766815,N,11424.11421798,E,4,09,1.0,37.072,M,-12.683,M,1.0,0000*50
$GPGGA,034851.00,3030.68766688,N,11424.11421379,E,4,10,1.0,37.094,M,-12.683,M,1.0,0000*50
$GPGGA,034852.00,3030.68766578,N,11424.11421762,E,4,09,1.0,37.077,M,-12.683,M,1.0,0000*54
$GPGGA,034853.00,3030.68766587,N,11424.11421236,E,4,10,1.0,37.101,M,-12.683,M,1.0,0000*59
$GPGGA,034854.00,3030.68767175,N,11424.11421519,E,4,10,1.0,37.071,M,-12.683,M,1.0,0000*5A
$GPGGA,034855.00,3030.68767266,N,11424.11421089,E,4,09,1.0,37.100,M,-12.683,M,1.0,0000*59
$GPGGA,034856.00,3030.68766576,N,11424.11421682,E,4,10,1.0,37.086,M,-12.683,M,1.0,0000*57
$GPGGA,034857.00,3030.68766643,N,11424.11421600,E,4,10,1.0,37.096,M,-12.683,M,1.0,0000*58
$GPGGA,034858.00,3030.68767136,N,11424.11421586,E,4,09,1.0,37.083,M,-12.683,M,1.0,0000*52
$GPGGA,034859.00,3030.68767239,N,11424.11421417,E,4,09,1.0,37.092,M,-12.683,M,1.0,0000*56
$GPGGA,034900.00,3030.68766755,N,11424.11421393,E,4,10,1.0,37.093,M,-12.683,M,1.0,0000*57
$GPGGA,034901.00,3030.68767125,N,11424.11422004,E,4,09,1.0,37.060,M,-12.683,M,1.0,0000*5C
$GPGGA,034902.00,3030.68767030,N,11424.11421681,E,4,10,1.0,37.077,M,-12.683,M,1.0,0000*5C
$GPGGA,034903.00,3030.68766787,N,11424.11421547,E,4,10,1.0,37.083,M,-12.683,M,1.0,0000*55
$GPGGA,034904.00,3030.68767119,N,11424.11421607,E,4,09,1.0,37.083,M,-12.683,M,1.0,0000*5D
$GPGGA,034905.00,3030.68767139,N,11424.11421681,E,4,09,1.0,37.085,M,-12.683,M,1.0,0000*56
$GPGGA,034906.00,3030.68767411,N,11424.11421286,E,4,10,1.0,37.110,M,-12.683,M,1.0,0000*5C
$GPGGA,034907.00,3030.68767618,N,11424.11421850,E,4,09,1.0,37.069,M,-12.683,M,1.0,0000*50
$GPGGA,034908.00,3030.68767208,N,11424.11421428,E,4,09,1.0,37.095,M,-12.683,M,1.0,0000*5A
$GPGGA,034909.00,3030.68767486,N,11424.11421267,E,4,10,1.0,37.101,M,-12.683,M,1.0,0000*52
$GPGGA,034910.00,3030.68767383,N,11424.11421329,E,4,09,1.0,37.105,M,-12.683,M,1.0,0000*5F
$GPGGA,034911.00,3030.68767096,N,11424.11421331,E,4,10,1.0,37.099,M,-12.683,M,1.0,0000*5C
$GPGGA,034912.00,3030.68767853,N,11424.11421418,E,4,10,1.0,37.094,M,-12.683,M,1.0,0000*5F
$GPGGA,034913.00,3030.68767314,N,11424.11421502,E,4,09,1.0,37.094,M,-12.683,M,1.0,0000*54
$GPGGA,034914.00,3030.68767896,N,11424.11419812,E,4,13,1.0,37.156,M,-12.683,M,1.0,0000*51
$GPGGA,034915.00,3030.68767290,N,11424.11420412,E,4,12,1.0,37.152,M,-12.683,M,1.0,0000*5F
$GPGGA,034916.00,3030.68767242,N,11424.11420305,E,4,13,1.0,37.151,M,-12.683,M,2.0,0000*53
$GPGGA,034917.00,3030.68767605,N,11424.11421063,E,4,12,1.0,37.095,M,-12.683,M,1.0,0000*5C
$GPGGA,034918.00,3030.68767141,N,11424.11421163,E,4,13,1.0,37.108,M,-12.683,M,1.0,0000*51
$GPGGA,034919.00,3030.68767584,N,11424.11421333,E,4,12,1.0,37.100,M,-12.683,M,1.0,0000*53
$GPGGA,034920.00,3030.68767545,N,11424.11421304,E,4,12,1.0,37.080,M,-12.683,M,1.0,0000*59
$GPGGA,034921.00,3030.68766980,N,11424.11421435,E,4,13,1.0,37.087,M,-12.683,M,1.0,0000*5F
$GPGGA,034922.00,3030.68767669,N,11424.11419819,E,4,13,1.0,37.175,M,-12.683,M,1.0,0000*50
$GPGGA,034923.00,3030.68767977,N,11424.11419459,E,4,13,1.0,37.200,M,-12.683,M,1.0,0000*58
$GPGGA,034924.00,3030.68767502,N,11424.11419939,E,4,13,1.0,37.160,M,-12.683,M,1.0,0000*5F
$GPGGA,034925.00,3030.68767871,N,11424.11420085,E,4,12,1.0,37.149,M,-12.683,M,2.0,0000*5A
$GPGGA,034926.00,3030.68767368,N,11424.11420564,E,4,13,1.0,37.138,M,-12.683,M,1.0,0000*54
$GPGGA,034927.00,3030.68767565,N,11424.11420180,E,4,12,1.0,37.155,M,-12.683,M,1.0,0000*5A
$GPGGA,034928.00,3030.68767247,N,11424.11421308,E,4,13,1.0,37.090,M,-12.683,M,1.0,0000*58
$GPGGA,034929.00,3030.68767903,N,11424.11420365,E,4,12,1.0,37.138,M,-12.683,M,1.0,0000*5A
$GPGGA,034930.00,3030.68767394,N,11424.11420213,E,4,13,1.0,37.148,M,-12.683,M,1.0,0000*50
$GPGGA,034931.00,3030.68768004,N,11424.11420576,E,4,12,1.0,37.129,M,-12.683,M,1.0,0000*56
$GPGGA,034932.00,3030.68767936,N,11424.11420117,E,4,13,1.0,37.147,M,-12.683,M,1.0,0000*58
$GPGGA,034933.00,3030.68767396,N,11424.11420535,E,4,13,1.0,37.135,M,-12.683,M,1.0,0000*58
$GPGGA,034934.00,3030.68767766,N,11424.11420073,E,4,12,1.0,37.136,M,-12.683,M,1.0,0000*51
$GPGGA,034935.00,3030.68767428,N,11424.11420637,E,4,13,1.0,37.113,M,-12.683,M,1.0,0000*59
$GPGGA,034936.00,3030.68767464,N,11424.11420608,E,4,13,1.0,37.108,M,-12.683,M,1.0,0000*54
$GPGGA,034937.00,3030.68767854,N,11424.11420456,E,4,12,1.0,37.130,M,-12.683,M,1.0,0000*59
$GPGGA,034938.00,3030.68767638,N,11424.11420270,E,4,13,1.0,37.128,M,-12.683,M,1.0,0000*58
$GPGGA,034939.00,3030.68767690,N,11424.11420279,E,4,13,1.0,37.135,M,-12.683,M,1.0,0000*5E
$GPGGA,034940.00,3030.68767193,N,11424.11420290,E,4,13,1.0,37.145,M,-12.683,M,1.0,0000*54
$GPGGA,034941.00,3030.68767402,N,11424.11420284,E,4,13,1.0,37.136,M,-12.683,M,1.0,0000*59
$GPGGA,034942.00,3030.68766778,N,11424.11420469,E,4,13,1.0,37.126,M,-12.683,M,1.0,0000*51
$GPGGA,034943.00,3030.68767523,N,11424.11420338,E,4,13,1.0,37.130,M,-12.683,M,1.0,0000*59
$GPGGA,034944.00,3030.68767169,N,11424.11420172,E,4,12,1.0,37.144,M,-12.683,M,1.0,0000*5A
$GPGGA,034945.00,3030.68767286,N,11424.11420650,E,4,10,1.0,37.120,M,-12.683,M,1.0,0000*5E
$GPGGA,034946.00,3030.68767026,N,11424.11420428,E,4,09,1.0,37.136,M,-12.683,M,1.0,0000*57
$GPGGA,034947.00,3030.68766825,N,11424.11420570,E,4,10,1.0,37.127,M,-12.683,M,1.0,0000*58
$GPGGA,034948.00,3030.68766613,N,11424.11420782,E,4,10,1.0,37.121,M,-12.683,M,1.0,0000*55
$GPGGA,034949.00,3030.68767087,N,11424.11420581,E,4,10,1.0,37.126,M,-12.683,M,1.0,0000*58
$GPGGA,034950.00,3030.68767362,N,11424.11420607,E,4,10,1.0,37.125,M,-12.683,M,1.0,0000*56
$GPGGA,034951.00,3030.68767215,N,11424.11420794,E,4,10,1.0,37.115,M,-12.683,M,1.0,0000*5E
$GPGGA,034952.00,3030.68767440,N,11424.11420401,E,4,09,1.0,37.131,M,-12.683,M,1.0,0000*5A
$GPGGA,034953.00,3030.68767458,N,11424.11420241,E,4,10,1.0,37.145,M,-12.683,M,1.0,0000*5B
$GPGGA,034954.00,3030.68767042,N,11424.11420446,E,4,10,1.0,37.145,M,-12.683,M,1.0,0000*52
$GPGGA,034955.00,3030.68766718,N,11424.11420635,E,4,10,1.0,37.109,M,-12.683,M,1.0,0000*54
$GPGGA,034956.00,3030.68767282,N,11424.11420771,E,4,09,1.0,37.112,M,-12.683,M,1.0,0000*53
$GPGGA,034957.00,3030.68767431,N,11424.11420327,E,4,09,1.0,37.130,M,-12.683,M,1.0,0000*5B
$GPGGA,034958.00,3030.68766991,N,11424.11420450,E,4,10,1.0,37.113,M,-12.683,M,2.0,0000*5F
$GPGGA,034959.00,3030.68767106,N,11424.11420536,E,4,10,1.0,37.129,M,-12.683,M,1.0,0000*52
$GPGGA,035000.00,3030.68766742,N,11424.11420391,E,4,09,1.0,37.124,M,-12.683,M,1.0,0000*5F
$GPGGA,035001.00,3030.68766879,N,11424.11420302,E,4,09,1.0,37.127,M,-12.683,M,1.0,0000*50
$GPGGA,035002.00,3030.68767017,N,11424.11420715,E,4,09,1.0,37.118,M,-12.683,M,1.0,0000*5C
$GPGGA,035003.00,3030.68766712,N,11424.11420570,E,4,10,1.0,37.125,M,-12.683,M,1.0,0000*59
$GPGGA,035004.00,3030.68766597,N,11424.11420383,E,4,09,1.0,37.133,M,-12.683,M,1.0,0000*54
$GPGGA,035005.00,3030.68767235,N,11424.11420508,E,4,10,1.0,37.126,M,-12.683,M,1.0,0000*52
$GPGGA,035006.00,3030.68766172,N,11424.11420691,E,4,09,1.0,37.137,M,-12.683,M,1.0,0000*5B
$GPGGA,035007.00,3030.68766579,N,11424.11420892,E,4,09,0.9,37.130,M,-12.683,M,1.0,0000*57
$GPGGA,035008.00,3030.68766375,N,11424.11420932,E,4,09,0.9,37.130,M,-12.683,M,2.0,0000*5A
$GPGGA,035009.00,3030.68766330,N,11424.11421089,E,4,09,0.9,37.129,M,-12.683,M,3.0,0000*5B
$GPGGA,035010.00,3030.68766608,N,11424.11420879,E,4,09,0.9,37.123,M,-12.683,M,2.0,0000*50
$GPGGA,035011.00,3030.68766600,N,11424.11420559,E,4,10,0.9,37.136,M,-12.683,M,1.0,0000*59
$GPGGA,035012.00,3030.68766817,N,11424.11420394,E,4,10,0.9,37.143,M,-12.683,M,1.0,0000*57
$GPGGA,035013.00,3030.68766913,N,11424.11420298,E,4,10,0.9,37.140,M,-12.683,M,1.0,0000*5D
$GPGGA,035014.00,3030.68767248,N,11424.11420532,E,4,09,0.9,37.131,M,-12.683,M,1.0,0000*57
$GPGGA,035015.00,3030.68767230,N,11424.11420601,E,4,10,0.9,37.129,M,-12.683,M,1.0,0000*5B
$GPGGA,035016.00,3030.68767470,N,11424.11420524,E,4,09,0.9,37.132,M,-12.683,M,2.0,0000*5F
$GPGGA,035017.00,3030.68767519,N,11424.11419859,E,4,10,0.9,37.153,M,-12.683,M,1.0,0000*51
$GPGGA,035018.00,3030.68766747,N,11424.11420814,E,4,10,0.9,37.116,M,-12.683,M,1.0,0000*54
$GPGGA,035019.00,3030.68767547,N,11424.11420388,E,4,10,0.9,37.131,M,-12.683,M,1.0,0000*5D
$GPGGA,035020.00,3030.68767456,N,11424.11419839,E,4,10,0.9,37.146,M,-12.683,M,1.0,0000*5D
$GPGGA,035021.00,3030.68767005,N,11424.11419843,E,4,09,0.9,37.151,M,-12.683,M,1.0,0000*5D
$GPGGA,035022.00,3030.68767189,N,11424.11420384,E,4,09,0.9,37.137,M,-12.683,M,1.0,0000*51
$GPGGA,035023.00,3030.68767082,N,11424.11420297,E,4,09,0.9,37.141,M,-12.683,M,1.0,0000*58
$GPGGA,035024.00,3030.68767245,N,11424.11420239,E,4,09,0.9,37.146,M,-12.683,M,1.0,0000*55
$GPGGA,035025.00,3030.68767304,N,11424.11420239,E,4,10,0.9,37.139,M,-12.683,M,2.0,0000*53
$GPGGA,035026.00,3030.68767112,N,11424.11420039,E,4,11,0.9,37.144,M,-12.683,M,1.0,0000*5F
$GPGGA,035027.00,3030.68767326,N,11424.11419986,E,4,13,0.9,37.144,M,-12.683,M,1.0,0000*5E
$GPGGA,035028.00,3030.68767544,N,11424.11419548,E,4,13,0.9,37.168,M,-12.683,M,1.0,0000*53
$GPGGA,035029.00,3030.68767699,N,11424.11419499,E,4,13,0.9,37.172,M,-12.683,M,1.0,0000*57
$GPGGA,035030.00,3030.68767420,N,11424.11419470,E,4,13,0.9,37.168,M,-12.683,M,1.0,0000*53
$GPGGA,035031.00,3030.68767881,N,11424.11419702,E,4,13,0.9,37.165,M,-12.683,M,1.0,0000*5E
$GPGGA,035032.00,3030.68767569,N,11424.11419613,E,4,14,0.9,37.179,M,-12.683,M,1.0,0000*5D
$GPGGA,035033.00,3030.68767649,N,11424.11419461,E,4,13,0.9,37.153,M,-12.683,M,1.0,0000*55
$GPGGA,035034.00,3030.68767474,N,11424.11420146,E,4,13,0.9,37.144,M,-12.683,M,1.0,0000*52
$GPGGA,035035.00,3030.68767736,N,11424.11419727,E,4,14,0.9,37.156,M,-12.683,M,1.0,0000*59
$GPGGA,035036.00,3030.68767786,N,11424.11419512,E,4,14,0.9,37.173,M,-12.683,M,1.0,0000*52
$GPGGA,035037.00,3030.68767439,N,11424.11419884,E,4,13,0.9,37.157,M,-12.683,M,1.0,0000*57
$GPGGA,035038.00,3030.68768292,N,11424.11419472,E,4,12,0.9,37.174,M,-12.683,M,1.0,0000*55
$GPGGA,035039.00,3030.68767345,N,11424.11419822,E,4,14,0.9,37.165,M,-12.683,M,1.0,0000*5F
$GPGGA,035040.00,3030.68768450,N,11424.11419355,E,4,13,1.0,37.173,M,-12.683,M,1.0,0000*5E
$GPGGA,035041.00,3030.68767629,N,11424.11419624,E,4,12,1.0,37.163,M,-12.683,M,1.0,0000*5F
$GPGGA,035042.00,3030.68768111,N,11424.11419761,E,4,13,1.0,37.155,M,-12.683,M,1.0,0000*5B
$GPGGA,035043.00,3030.68768055,N,11424.11419229,E,4,12,1.0,37.185,M,-12.683,M,1.0,0000*5E
$GPGGA,035044.00,3030.68767988,N,11424.11419294,E,4,12,1.0,37.179,M,-12.683,M,1.0,0000*5A
$GPGGA,035045.00,3030.68768156,N,11424.11419490,E,4,13,1.0,37.173,M,-12.683,M,1.0,0000*56
$GPGGA,035046.00,3030.68768221,N,11424.11419529,E,4,12,1.0,37.181,M,-12.683,M,1.0,0000*59
$GPGGA,035047.00,3030.68768037,N,11424.11419424,E,4,12,1.0,37.182,M,-12.683,M,1.0,0000*52
$GPGGA,035048.00,3030.68767898,N,11424.11419352,E,4,13,1.0,37.174,M,-12.683,M,1.0,0000*51
$GPGGA,035049.00,3030.68768534,N,11424.11418940,E,4,12,1.0,37.196,M,-12.683,M,1.0,0000*51
$GPGGA,035050.00,3030.68768169,N,11424.11419231,E,4,13,1.0,37.185,M,-12.683,M,1.0,0000*5A
$GPGGA,035051.00,3030.68768400,N,11424.11419405,E,4,13,1.0,37.180,M,-12.683,M,1.0,0000*55
$GPGGA,035052.00,3030.68767833,N,11424.11419102,E,4,12,1.0,37.211,M,-12.683,M,1.0,0000*5D
$GPGGA,035053.00,3030.68768095,N,11424.11419091,E,4,13,1.0,37.213,M,-12.683,M,1.0,0000*5F
$GPGGA,035054.00,3030.68767665,N,11424.11419205,E,4,13,1.0,37.202,M,-12.683,M,1.0,0000*51
$GPGGA,035055.00,3030.68768150,N,11424.11418975,E,4,12,1.0,37.228,M,-12.683,M,1.0,0000*5A
$GPGGA,035056.00,3030.68767303,N,11424.11419273,E,4,13,1.0,37.209,M,-12.683,M,1.0,0000*5C
$GPGGA,035057.00,3030.68768080,N,11424.11418769,E,4,13,1.0,37.222,M,-12.683,M,1.0,0000*5C
$GPGGA,035058.00,3030.68768026,N,11424.11419004,E,4,11,1.0,37.216,M,-12.683,M,1.0,0000*57
$GPGGA,035059.00,3030.68767051,N,11424.11419696,E,4,09,1.0,37.185,M,-12.683,M,1.0,0000*54
$GPGGA,035100.00,3030.68767778,N,11424.11419204,E,4,09,1.0,37.207,M,-12.683,M,1.0,0000*53
$GPGGA,035101.00,3030.68768321,N,11424.11418752,E,4,09,1.0,37.237,M,-12.683,M,1.0,0000*51
$GPGGA,035102.00,3030.68767706,N,11424.11419021,E,4,10,1.0,37.233,M,-12.683,M,1.0,0000*52
$GPGGA,035103.00,3030.68767790,N,11424.11419058,E,4,10,1.0,37.221,M,-12.683,M,1.0,0000*51
$GPGGA,035104.00,3030.68767258,N,11424.11419593,E,4,09,1.0,37.199,M,-12.683,M,1.0,0000*5D
$GPGGA,035105.00,3030.68768052,N,11424.11418484,E,4,10,1.0,37.239,M,-12.683,M,1.0,0000*5C
$GPGGA,035106.00,3030.68767749,N,11424.11419160,E,4,10,1.0,37.206,M,-12.683,M,1.0,0000*5F
$GPGGA,035107.00,3030.68767257,N,11424.11419268,E,4,09,1.0,37.207,M,-12.683,M,1.0,0000*56
$GPGGA,035108.00,3030.68768099,N,11424.11419238,E,4,09,1.0,37.217,M,-12.683,M,1.0,0000*52
$GPGGA,035109.00,3030.68767092,N,11424.11419407,E,4,10,1.0,37.208,M,-12.683,M,1.0,0000*5B
$GPGGA,035110.00,3030.68767436,N,11424.11419114,E,4,08,1.1,37.225,M,-12.683,M,1.0,0000*59
$GPGGA,035111.00,3030.68766623,N,11424.11420398,E,4,09,1.1,37.157,M,-12.683,M,1.0,0000*54
$GPGGA,035112.00,3030.68766475,N,11424.11420274,E,4,09,1.1,37.149,M,-12.683,M,1.0,0000*5A
$GPGGA,035113.00,3030.68766620,N,11424.11420407,E,4,09,1.1,37.155,M,-12.683,M,1.0,0000*56
$GPGGA,035114.00,3030.68767491,N,11424.11420085,E,4,09,1.1,37.173,M,-12.683,M,1.0,0000*52
$GPGGA,035115.00,3030.68767131,N,11424.11420319,E,4,09,1.1,37.166,M,-12.683,M,1.0,0000*5E
$GPGGA,035116.00,3030.68766845,N,11424.11420301,E,4,09,1.1,37.157,M,-12.683,M,1.0,0000*5D
$GPGGA,035117.00,3030.68766689,N,11424.11420314,E,4,09,1.1,37.165,M,-12.683,M,1.0,0000*57
$GPGGA,035118.00,3030.68766418,N,11424.11420362,E,4,09,1.1,37.161,M,-12.683,M,1.0,0000*57
$GPGGA,035119.00,3030.68766734,N,11424.11420280,E,4,09,1.0,37.170,M,-12.683,M,1.0,0000*57
$GPGGA,035120.00,3030.68766311,N,11424.11420770,E,4,10,1.0,37.145,M,-12.683,M,1.0,0000*5A
$GPGGA,035121.00,3030.68766122,N,11424.11420997,E,4,10,1.0,37.125,M,-12.683,M,1.0,0000*58
$GPGGA,035122.00,3030.68766420,N,11424.11420372,E,4,10,1.0,37.165,M,-12.683,M,1.0,0000*59
$GPGGA,035123.00,3030.68766609,N,11424.11420493,E,4,10,1.0,37.152,M,-12.683,M,1.0,0000*5D
$GPGGA,035124.00,3030.68766406,N,11424.11420563,E,4,10,1.0,37.153,M,-12.683,M,1.0,0000*58
$GPGGA,035125.00,3030.68766657,N,11424.11420724,E,4,09,1.0,37.153,M,-12.683,M,1.0,0000*56
$GPGGA,035126.00,3030.68766790,N,11424.11420425,E,4,09,1.0,37.160,M,-12.683,M,1.0,0000*5D
$GPGGA,035127.00,3030.68766988,N,11424.11420154,E,4,10,1.0,37.163,M,-12.683,M,1.0,0000*53
$GPGGA,035128.00,3030.68766582,N,11424.11420488,E,4,10,1.0,37.158,M,-12.683,M,1.0,0000*56
$GPGGA,035129.00,3030.68766931,N,11424.11420460,E,4,10,1.0,37.158,M,-12.683,M,1.0,0000*55
$GPGGA,035130.00,3030.68766310,N,11424.11420636,E,4,10,1.0,37.152,M,-12.683,M,1.0,0000*5F
$GPGGA,035131.00,3030.68766404,N,11424.11420796,E,4,10,1.0,37.148,M,-12.683,M,1.0,0000*5C
$GPGGA,035132.00,3030.68766780,N,11424.11420558,E,4,10,1.0,37.151,M,-12.683,M,1.0,0000*58
$GPGGA,035133.00,3030.68766759,N,11424.11420797,E,4,10,1.0,37.142,M,-12.683,M,1.0,0000*5E
$GPGGA,035134.00,3030.68766499,N,11424.11420687,E,4,09,1.0,37.140,M,-12.683,M,1.0,0000*5C
$GPGGA,035135.00,3030.68766840,N,11424.11420408,E,4,09,1.0,37.168,M,-12.683,M,1.0,0000*5A
$GPGGA,035136.00,3030.68766679,N,11424.11420093,E,4,10,1.0,37.174,M,-12.683,M,1.0,0000*5E
$GPGGA,035137.00,3030.68766891,N,11424.11419890,E,4,09,1.0,37.178,M,-12.683,M,1.0,0000*52
$GPGGA,035138.00,3030.68766627,N,11424.11419737,E,4,10,1.0,37.179,M,-12.683,M,1.0,0000*55
$GPGGA,035139.00,3030.68766803,N,11424.11419360,E,4,10,1.0,37.201,M,-12.683,M,1.0,0000*56
$GPGGA,035140.00,3030.68766752,N,11424.11420235,E,4,10,1.0,37.160,M,-12.683,M,1.0,0000*5C
$GPGGA,035141.00,3030.68766990,N,11424.11420336,E,4,10,1.0,37.160,M,-12.683,M,1.0,0000*5F
$GPGGA,035142.00,3030.68766702,N,11424.11419995,E,4,09,1.0,37.175,M,-12.683,M,1.0,0000*5C
$GPGGA,035143.00,3030.68767180,N,11424.11419827,E,4,09,1.0,37.183,M,-12.683,M,1.0,0000*51
$GPGGA,035144.00,3030.68766908,N,11424.11419565,E,4,09,1.0,37.193,M,-12.683,M,1.0,0000*55
$GPGGA,035145.00,3030.68767083,N,11424.11419091,E,4,09,1.0,37.224,M,-12.683,M,1.0,0000*5E
$GPGGA,035146.00,3030.68766927,N,11424.11419135,E,4,10,1.0,37.209,M,-12.683,M,1.0,0000*53
$GPGGA,035147.00,3030.68767417,N,11424.11418678,E,4,10,1.0,37.225,M,-12.683,M,1.0,0000*5C
