$GPGGA,032511.00,3030.68420118,N,11424.08911253,E,4,09,1.1,37.169,M,-12.685,M,1.0,0000*53
$GPGGA,032512.00,3030.68420607,N,11424.08911107,E,4,09,1.1,37.158,M,-12.685,M,1.0,0000*59
$GPGGA,032513.00,3030.68420089,N,11424.08911905,E,4,08,1.1,37.182,M,-12.685,M,1.0,0000*54
$GPGGA,032514.00,3030.68420542,N,11424.08910775,E,4,09,1.1,37.151,M,-12.685,M,1.0,0000*56
$GPGGA,032515.00,3030.68420861,N,11424.08911237,E,4,09,1.1,37.164,M,-12.685,M,1.0,0000*5F
$GPGGA,032516.00,3030.68420539,N,11424.08911042,E,4,09,1.1,37.152,M,-12.685,M,1.0,0000*59
$GPGGA,032517.00,3030.68420668,N,11424.08911172,E,4,09,1.1,37.161,M,-12.685,M,1.0,0000*5D
$GPGGA,032518.00,3030.68420140,N,11424.08911116,E,4,09,1.1,37.151,M,-12.685,M,1.0,0000*5E
$GPGGA,032519.00,3030.68420423,N,11424.08911543,E,4,09,1.1,37.174,M,-12.685,M,1.0,0000*5C
$GPGGA,032520.00,3030.68420525,N,11424.08911468,E,4,09,1.1,37.163,M,-12.685,M,1.0,0000*5F
$GPGGA,032521.00,3030.68419848,N,11424.08911128,E,4,09,1.1,37.153,M,-12.685,M,1.0,0000*50
$GPGGA,032522.00,3030.68421034,N,11424.08910746,E,4,09,1.1,37.148,M,-12.685,M,1.0,0000*5E
$GPGGA,032523.00,3030.68420495,N,11424.08911096,E,4,09,1.1,37.155,M,-12.685,M,1.0,0000*56
$GPGGA,032524.00,3030.68420757,N,11424.08911006,E,4,09,1.1,37.158,M,-12.685,M,1.0,0000*58
$GPGGA,032525.00,3030.68420373,N,11424.08911322,E,4,09,1.1,37.157,M,-12.685,M,1.0,0000*51
$GPGGA,032526.00,3030.68420238,N,11424.08911454,E,4,09,1.1,37.164,M,-12.685,M,1.0,0000*5A
$GPGGA,032527.00,3030.68420732,N,11424.08910880,E,4,09,1.0,37.145,M,-12.685,M,1.0,0000*52
$GPGGA,032528.00,3030.68420115,N,11424.08911182,E,4,11,1.0,37.161,M,-12.685,M,1.0,0000*5B
$GPGGA,032529.00,3030.68419883,N,11424.08911598,E,4,11,1.0,37.171,M,-12.685,M,1.0,0000*58
$GPGGA,032530.00,3030.68419951,N,11424.08911267,E,4,11,1.0,37.161,M,-12.685,M,1.0,0000*58
$GPGGA,032531.00,3030.68417405,N,11424.08913072,E,4,11,1.0,37.307,M,-12.685,M,1.0,0000*5D
$GPGGA,032532.00,3030.68419165,N,11424.08911564,E,4,11,1.0,37.222,M,-12.685,M,1.0,0000*55
$GPGGA,032533.00,3030.68419876,N,11424.08910960,E,4,10,1.0,37.183,M,-12.685,M,1.0,0000*5F
$GPGGA,032534.00,3030.68420148,N,11424.08910811,E,4,11,1.0,37.168,M,-12.685,M,1.0,0000*55
$GPGGA,032535.00,3030.68420008,N,11424.08911016,E,4,11,1.0,37.167,M,-12.685,M,1.0,0000*50
$GPGGA,032536.00,3030.68420625,N,11424.08910699,E,4,11,1.0,37.166,M,-12.685,M,1.0,0000*5B
$GPGGA,032537.00,3030.68419851,N,11424.08911239,E,4,11,1.0,37.188,M,-12.685,M,1.0,0000*52
$GPGGA,032538.00,3030.68420034,N,11424.08910957,E,4,10,1.0,37.178,M,-12.685,M,1.0,0000*50
$GPGGA,032539.00,3030.68420363,N,11424.08910555,E,4,11,1.0,37.160,M,-12.685,M,1.0,0000*56
$GPGGA,032540.00,3030.68420193,N,11424.08910707,E,4,10,1.0,37.172,M,-12.685,M,1.0,0000*52
$GPGGA,032541.00,3030.68420044,N,11424.08911096,E,4,11,1.0,37.183,M,-12.685,M,1.0,0000*59
$GPGGA,032542.00,3030.68420187,N,11424.08911095,E,4,12,1.0,37.182,M,-12.685,M,2.0,0000*56
$GPGGA,032543.00,3030.68420071,N,11424.08911463,E,4,11,1.0,37.196,M,-12.685,M,2.0,0000*54
$GPGGA,032544.00,3030.68420112,N,11424.08911384,E,4,12,1.0,37.186,M,-12.685,M,2.0,0000*5B
$GPGGA,032545.00,3030.68419935,N,11424.08911390,E,4,12,1.1,37.187,M,-12.685,M,1.0,0000*5B
$GPGGA,032546.00,3030.68420035,N,11424.08911379,E,4,12,1.1,37.193,M,-12.685,M,1.0,0000*59
$GPGGA,032547.00,3030.68419903,N,11424.08911556,E,4,12,1.1,37.195,M,-12.685,M,1.0,0000*53
$GPGGA,032548.00,3030.68420270,N,11424.08911252,E,4,12,1.1,37.179,M,-12.685,M,1.0,0000*58
$GPGGA,032549.00,3030.68419925,N,11424.08911689,E,4,12,1.1,37.205,M,-12.685,M,1.0,0000*52
$GPGGA,032550.00,3030.68419914,N,11424.08911380,E,4,12,1.1,37.199,M,-12.685,M,1.0,0000*52
$GPGGA,032551.00,3030.68419855,N,11424.08911611,E,4,11,1.1,37.199,M,-12.685,M,1.0,0000*59
$GPGGA,032552.00,3030.68419534,N,11424.08911810,E,4,12,1.1,37.212,M,-12.685,M,1.0,0000*5C
$GPGGA,032553.00,3030.68419282,N,11424.08912172,E,4,12,1.1,37.221,M,-12.685,M,1.0,0000*59
$GPGGA,032554.00,3030.68419883,N,11424.08911878,E,4,12,0.9,37.210,M,-12.685,M,1.0,0000*5E
$GPGGA,032555.00,3030.68419747,N,11424.08912156,E,4,11,0.9,37.212,M,-12.685,M,1.0,0000*5F
$GPGGA,032556.00,3030.68420314,N,11424.08911272,E,4,12,0.9,37.231,M,-12.685,M,2.0,0000*53
$GPGGA,032557.00,3030.68419542,N,11424.08911828,E,4,12,0.9,37.236,M,-12.685,M,3.0,0000*5E
$GPGGA,032558.00,3030.68419350,N,11424.08912349,E,4,12,0.9,37.224,M,-12.685,M,2.0,0000*59
$GPGGA,032559.00,3030.68419925,N,11424.08911814,E,4,12,0.9,37.219,M,-12.685,M,1.0,0000*5D
$GPGGA,032600.00,3030.68419648,N,11424.08912041,E,4,12,0.9,37.219,M,-12.685,M,1.0,0000*5D
$GPGGA,032601.00,3030.68420349,N,11424.08911821,E,4,11,0.9,37.225,M,-12.685,M,1.0,0000*53
$GPGGA,032602.00,3030.68420161,N,11424.08911943,E,4,12,0.9,37.223,M,-12.685,M,1.0,0000*58
$GPGGA,032603.00,3030.68420123,N,11424.08911966,E,4,11,0.9,37.226,M,-12.685,M,1.0,0000*5E
$GPGGA,032604.00,3030.68419988,N,11424.08911839,E,4,12,0.9,37.222,M,-12.685,M,1.0,0000*56
$GPGGA,032605.00,3030.68420150,N,11424.08911863,E,4,13,0.9,37.210,M,-12.685,M,1.0,0000*5F
$GPGGA,032606.00,3030.68420081,N,11424.08911305,E,4,13,1.1,37.212,M,-12.685,M,1.0,0000*51
$GPGGA,032607.00,3030.68420528,N,11424.08913242,E,4,16,1.1,37.193,M,-12.685,M,1.0,0000*59
$GPGGA,032608.00,3030.68420303,N,11424.08912957,E,4,15,1.1,37.187,M,-12.685,M,1.0,0000*51
$GPGGA,032609.00,3030.68420608,N,11424.08913027,E,4,15,1.1,37.192,M,-12.685,M,1.0,0000*55
$GPGGA,032610.00,3030.68420711,N,11424.08912766,E,4,15,1.1,37.184,M,-12.685,M,1.0,0000*50
$GPGGA,032611.00,3030.68419960,N,11424.08913200,E,4,15,1.1,37.191,M,-12.685,M,1.0,0000*53
$GPGGA,032612.00,3030.68420486,N,11424.08912907,E,4,15,1.1,37.189,M,-12.685,M,1.0,0000*5B
$GPGGA,032613.00,3030.68420399,N,11424.08912892,E,4,14,0.9,37.187,M,-12.685,M,1.0,0000*58
$GPGGA,032614.00,3030.68420285,N,11424.08913298,E,4,13,0.9,37.195,M,-12.685,M,1.0,0000*56
$GPGGA,032615.00,3030.68420477,N,11424.08913033,E,4,14,0.9,37.193,M,-12.685,M,1.0,0000*5E
$GPGGA,032616.00,3030.68420662,N,11424.08911283,E,4,12,0.9,37.155,M,-12.685,M,1.0,0000*5C
$GPGGA,032617.00,3030.68420590,N,11424.08911208,E,4,12,0.9,37.155,M,-12.685,M,1.0,0000*50
$GPGGA,032618.00,3030.68420807,N,11424.08911405,E,4,12,0.9,37.160,M,-12.685,M,1.0,0000*51
$GPGGA,032619.00,3030.68420980,N,11424.08911553,E,4,12,0.9,37.169,M,-12.685,M,1.0,0000*55
$GPGGA,032620.00,3030.68420743,N,11424.08911668,E,4,12,0.9,37.159,M,-12.685,M,1.0,0000*56
$GPGGA,032621.00,3030.68420416,N,11424.08911910,E,4,12,1.2,37.175,M,-12.685,M,1.0,0000*50
$GPGGA,032622.00,3030.68420177,N,11424.08912199,E,4,12,1.2,37.181,M,-12.685,M,1.0,0000*50
$GPGGA,032623.00,3030.68420693,N,11424.08911524,E,4,10,1.2,37.154,M,-12.685,M,1.0,0000*57
$GPGGA,032624.00,3030.68420920,N,11424.08911669,E,4,12,1.2,37.160,M,-12.685,M,1.0,0000*58
$GPGGA,032625.00,3030.68420514,N,11424.08911898,E,4,11,1.2,37.165,M,-12.685,M,1.0,0000*54
$GPGGA,032626.00,3030.68420554,N,11424.08911596,E,4,12,1.2,37.164,M,-12.685,M,1.0,0000*52
$GPGGA,032627.00,3030.68420909,N,11424.08911355,E,4,12,1.2,37.148,M,-12.685,M,1.0,0000*50
$GPGGA,032628.00,3030.68420402,N,11424.08911863,E,4,11,1.2,37.179,M,-12.685,M,1.0,0000*56
$GPGGA,032629.00,3030.68420850,N,11424.08911626,E,4,12,1.2,37.165,M,-12.685,M,1.0,0000*5D
$GPGGA,032630.00,3030.68420451,N,11424.08911886,E,4,12,1.2,37.165,M,-12.685,M,1.0,0000*5C
$GPGGA,032631.00,3030.68420657,N,11424.08911907,E,4,11,1.2,37.170,M,-12.685,M,1.0,0000*56
$GPGGA,032632.00,3030.68420418,N,11424.08911791,E,4,12,1.2,37.167,M,-12.685,M,1.0,0000*58
$GPGGA,032633.00,3030.68420246,N,11424.08911942,E,4,12,1.2,37.176,M,-12.685,M,1.0,0000*54
$GPGGA,032634.00,3030.68420237,N,11424.08911990,E,4,12,1.2,37.171,M,-12.685,M,1.0,0000*5D
$GPGGA,032635.00,3030.68420573,N,11424.08911973,E,4,12,1.2,37.176,M,-12.685,M,1.0,0000*51
$GPGGA,032636.00,3030.68420379,N,11424.08911823,E,4,12,1.2,37.172,M,-12.685,M,1.0,0000*5E
$GPGGA,032637.00,3030.68419901,N,11424.08912341,E,4,12,1.2,37.192,M,-12.685,M,1.0,0000*52
$GPGGA,032638.00,3030.68420088,N,11424.08912268,E,4,12,1.2,37.183,M,-12.685,M,1.0,0000*55
$GPGGA,032639.00,3030.68419547,N,11424.08912282,E,4,12,1.2,37.196,M,-12.685,M,1.0,0000*58
$GPGGA,032640.00,3030.68419765,N,11424.08912400,E,4,11,1.2,37.198,M,-12.685,M,1.0,0000*55
$GPGGA,032641.00,3030.68419758,N,11424.08912364,E,4,12,1.2,37.194,M,-12.685,M,1.0,0000*50
$GPGGA,032642.00,3030.68419748,N,11424.08912307,E,4,12,1.2,37.189,M,-12.685,M,1.0,0000*5B
$GPGGA,032643.00,3030.68419972,N,11424.08912305,E,4,12,1.2,37.195,M,-12.685,M,1.0,0000*52
$GPGGA,032644.00,3030.68419535,N,11424.08911933,E,4,12,1.2,37.186,M,-12.685,M,1.0,0000*54
$GPGGA,032645.00,3030.68419479,N,11424.08912444,E,4,12,1.2,37.198,M,-12.685,M,1.0,0000*5D
$GPGGA,032646.00,3030.68419530,N,11424.08912247,E,4,11,1.2,37.187,M,-12.685,M,1.0,0000*5A
$GPGGA,032647.00,3030.68419647,N,11424.08912324,E,4,11,1.2,37.188,M,-12.685,M,1.0,0000*53
$GPGGA,032648.00,3030.68419189,N,11424.08912440,E,4,12,1.2,37.184,M,-12.685,M,1.0,0000*53
$GPGGA,032649.00,3030.68419667,N,11424.08911944,E,4,12,1.2,37.176,M,-12.685,M,1.0,0000*52
$GPGGA,032650.00,3030.68419392,N,11424.08912268,E,4,12,1.2,37.189,M,-12.685,M,1.0,0000*53
$GPGGA,032651.00,3030.68419682,N,11424.08912457,E,4,12,1.2,37.196,M,-12.685,M,1.0,0000*52
$GPGGA,032652.00,3030.68419563,N,11424.08912365,E,4,11,1.2,37.186,M,-12.685,M,1.0,0000*59
$GPGGA,032653.00,3030.68419484,N,11424.08912466,E,4,12,1.2,37.195,M,-12.685,M,1.0,0000*55
$GPGGA,032654.00,3030.68419147,N,11424.08912819,E,4,12,1.2,37.201,M,-12.685,M,1.0,0000*52
$GPGGA,032655.00,3030.68419121,N,11424.08912662,E,4,12,1.2,37.212,M,-12.685,M,1.0,0000*53
$GPGGA,032656.00,3030.68419080,N,11424.08912430,E,4,12,1.2,37.199,M,-12.685,M,1.0,0000*5F
$GPGGA,032657.00,3030.68419266,N,11424.08912660,E,4,12,1.2,37.198,M,-12.685,M,1.0,0000*52
$GPGGA,032658.00,3030.68419328,N,11424.08912462,E,4,12,1.2,37.202,M,-12.685,M,1.0,0000*56
$GPGGA,032659.00,3030.68419126,N,11424.08912417,E,4,12,1.2,37.198,M,-12.685,M,1.0,0000*59
$GPGGA,032700.00,3030.68419236,N,11424.08912238,E,4,12,1.2,37.189,M,-12.685,M,1.0,0000*5D
$GPGGA,032701.00,3030.68419145,N,11424.08912310,E,4,12,1.2,37.190,M,-12.685,M,1.0,0000*58
$GPGGA,032702.00,3030.68419285,N,11424.08912265,E,4,11,1.2,37.184,M,-12.685,M,1.0,0000*51
$GPGGA,032703.00,3030.68419169,N,11424.08912556,E,4,12,1.2,37.194,M,-12.685,M,1.0,0000*54
$GPGGA,032704.00,3030.68419231,N,11424.08912164,E,4,12,1.2,37.180,M,-12.685,M,1.0,0000*5D
$GPGGA,032705.00,3030.68419406,N,11424.08912561,E,4,11,1.2,37.177,M,-12.685,M,1.0,0000*54
$GPGGA,032706.00,3030.68418758,N,11424.08912364,E,4,12,1.2,37.172,M,-12.685,M,1.0,0000*5B
$GPGGA,032707.00,3030.68418323,N,11424.08913053,E,4,12,1.2,37.194,M,-12.685,M,1.0,0000*5C
$GPGGA,032708.00,3030.68421075,N,11424.08910952,E,4,12,1.2,37.157,M,-12.685,M,1.0,0000*5D
$GPGGA,032709.00,3030.68421060,N,11424.08911166,E,4,12,1.2,37.158,M,-12.685,M,1.0,0000*59
$GPGGA,032710.00,3030.68420870,N,11424.08910974,E,4,12,1.2,37.153,M,-12.685,M,1.0,0000*58
$GPGGA,032711.00,3030.68421318,N,11424.08910549,E,4,12,1.2,37.145,M,-12.685,M,1.0,0000*58
$GPGGA,032712.00,3030.68421023,N,11424.08911270,E,4,12,1.2,37.162,M,-12.685,M,1.0,0000*59
$GPGGA,032713.00,3030.68421028,N,11424.08911202,E,4,12,1.2,37.161,M,-12.685,M,1.0,0000*55
$GPGGA,032714.00,3030.68420892,N,11424.08911431,E,4,12,1.2,37.159,M,-12.685,M,1.0,0000*57
$GPGGA,032715.00,3030.68420396,N,11424.08911278,E,4,12,1.2,37.189,M,-12.685,M,1.0,0000*5F
$GPGGA,032716.00,3030.68420955,N,11424.08911538,E,4,11,1.0,37.179,M,-12.685,M,1.0,0000*54
$GPGGA,032717.00,3030.68420555,N,11424.08911609,E,4,11,1.0,37.182,M,-12.685,M,1.0,0000*5C
$GPGGA,032718.00,3030.68420057,N,11424.08911812,E,4,12,1.0,37.187,M,-12.685,M,1.0,0000*56
$GPGGA,032719.00,3030.68420566,N,11424.08911724,E,4,12,1.0,37.190,M,-12.685,M,1.0,0000*5C
$GPGGA,032720.00,3030.68420776,N,11424.08911061,E,4,12,1.0,37.162,M,-12.685,M,1.0,0000*5E
$GPGGA,032721.00,3030.68420411,N,11424.08911220,E,4,12,1.0,37.176,M,-12.685,M,1.0,0000*5F
$GPGGA,032722.00,3030.68420697,N,11424.08911429,E,4,12,1.0,37.187,M,-12.685,M,1.0,0000*51
$GPGGA,032723.00,3030.68420768,N,11424.08911459,E,4,12,1.0,37.179,M,-12.685,M,1.0,0000*57
$GPGGA,032724.00,3030.68420512,N,11424.08911684,E,4,12,1.0,37.183,M,-12.685,M,1.0,0000*58
$GPGGA,032725.00,3030.68420256,N,11424.08911949,E,4,12,1.0,37.186,M,-12.685,M,1.0,0000*55
$GPGGA,032726.00,3030.68420832,N,11424.08911340,E,4,12,1.0,37.178,M,-12.685,M,1.0,0000*5C
$GPGGA,032727.00,3030.68420381,N,11424.08911462,E,4,12,1.0,37.175,M,-12.685,M,1.0,0000*54
$GPGGA,032728.00,3030.68420572,N,11424.08911373,E,4,11,1.0,37.179,M,-12.685,M,1.0,0000*59
$GPGGA,032729.00,3030.68420341,N,11424.08911652,E,4,12,1.0,37.189,M,-12.685,M,1.0,0000*54
$GPGGA,032730.00,3030.68420602,N,11424.08911191,E,4,12,1.0,37.177,M,-12.685,M,1.0,0000*57
$GPGGA,032731.00,3030.68420484,N,11424.08911542,E,4,12,1.0,37.189,M,-12.685,M,1.0,0000*51
$GPGGA,032732.00,3030.68420832,N,11424.08911311,E,4,12,1.0,37.169,M,-12.685,M,1.0,0000*5D
$GPGGA,032733.00,3030.68420926,N,11424.08911480,E,4,12,1.0,37.176,M,-12.685,M,1.0,0000*59
$GPGGA,032734.00,3030.68420735,N,11424.08911527,E,4,12,1.0,37.184,M,-12.685,M,1.0,0000*53
$GPGGA,032735.00,3030.68420744,N,11424.08911168,E,4,12,1.0,37.178,M,-12.685,M,1.0,0000*58
$GPGGA,032736.00,3030.68420993,N,11424.08911306,E,4,12,1.0,37.185,M,-12.685,M,2.0,0000*54
$GPGGA,032737.00,3030.68420807,N,11424.08911312,E,4,11,1.0,37.182,M,-12.685,M,1.0,0000*5B
$GPGGA,032738.00,3030.68421029,N,11424.08911049,E,4,12,1.0,37.171,M,-12.685,M,1.0,0000*53
$GPGGA,032739.00,3030.68421309,N,11424.08911267,E,4,12,1.0,37.180,M,-12.685,M,1.0,0000*53
$GPGGA,032740.00,3030.68421159,N,11424.08911121,E,4,12,1.0,37.165,M,-12.685,M,1.0,0000*50
$GPGGA,032741.00,3030.68420981,N,11424.08911242,E,4,12,1.0,37.171,M,-12.685,M,1.0,0000*5E
$GPGGA,032742.00,3030.68420919,N,11424.08911405,E,4,12,0.8,37.180,M,-12.685,M,1.0,0000*5E
$GPGGA,032743.00,3030.68421098,N,11424.08911222,E,4,12,0.8,37.181,M,-12.685,M,1.0,0000*5C
$GPGGA,032744.00,3030.68421345,N,11424.08911252,E,4,12,0.8,37.173,M,-12.685,M,1.0,0000*52
$GPGGA,032745.00,3030.68420962,N,11424.08911200,E,4,12,0.8,37.175,M,-12.685,M,1.0,0000*5C
$GPGGA,032746.00,3030.68421046,N,11424.08911413,E,4,12,0.8,37.183,M,-12.685,M,1.0,0000*5C
$GPGGA,032747.00,3030.68420896,N,11424.08911508,E,4,12,0.8,37.189,M,-12.685,M,1.0,0000*58
$GPGGA,032748.00,3030.68420481,N,11424.08911243,E,4,12,0.8,37.172,M,-12.685,M,1.0,0000*51
$GPGGA,032749.00,3030.68420965,N,11424.08911825,E,4,12,0.8,37.192,M,-12.685,M,1.0,0000*53
$GPGGA,032750.00,3030.68420534,N,11424.08911683,E,4,11,0.8,37.186,M,-12.685,M,1.0,0000*57
$GPGGA,032751.00,3030.68420672,N,11424.08911670,E,4,12,0.8,37.185,M,-12.685,M,1.0,0000*5B
$GPGGA,032752.00,3030.68420204,N,11424.08911405,E,4,12,0.8,37.170,M,-12.685,M,1.0,0000*57
$GPGGA,032753.00,3030.68419859,N,11424.08914106,E,4,12,0.8,37.215,M,-12.685,M,1.0,0000*5D
$GPGGA,032754.00,3030.68420299,N,11424.08913866,E,4,12,0.8,37.214,M,-12.685,M,1.0,0000*5F
$GPGGA,032755.00,3030.68419517,N,11424.08914145,E,4,12,0.8,37.211,M,-12.685,M,1.0,0000*5F
$GPGGA,032756.00,3030.68419773,N,11424.08913926,E,4,12,0.8,37.207,M,-12.685,M,1.0,0000*51
$GPGGA,032757.00,3030.68419247,N,11424.08913967,E,4,12,0.8,37.197,M,-12.685,M,2.0,0000*5E
$GPGGA,032758.00,3030.68418960,N,11424.08914020,E,4,12,1.0,37.192,M,-12.685,M,3.0,0000*5E
$GPGGA,032759.00,3030.68419241,N,11424.08914207,E,4,12,1.0,37.210,M,-12.685,M,2.0,0000*59
$GPGGA,032800.00,3030.68419399,N,11424.08914180,E,4,12,1.0,37.211,M,-12.685,M,1.0,0000*50
$GPGGA,032801.00,3030.68419192,N,11424.08914495,E,4,11,1.0,37.226,M,-12.685,M,1.0,0000*5E
$GPGGA,032802.00,3030.68419266,N,11424.08914239,E,4,12,1.0,37.221,M,-12.685,M,1.0,0000*51
$GPGGA,032803.00,3030.68419627,N,11424.08914347,E,4,12,1.0,37.215,M,-12.685,M,1.0,0000*5E
$GPGGA,032804.00,3030.68419587,N,11424.08913957,E,4,12,1.0,37.205,M,-12.685,M,1.0,0000*5D
$GPGGA,032805.00,3030.68419244,N,11424.08914495,E,4,12,1.2,37.226,M,-12.685,M,1.0,0000*53
$GPGGA,032806.00,3030.68418613,N,11424.08915291,E,4,12,1.2,37.248,M,-12.685,M,1.0,0000*5C
$GPGGA,032807.00,3030.68418996,N,11424.08914859,E,4,12,1.2,37.226,M,-12.685,M,1.0,0000*58
$GPGGA,032808.00,3030.68418821,N,11424.08914667,E,4,12,1.2,37.229,M,-12.685,M,1.0,0000*56
$GPGGA,032809.00,3030.68418841,N,11424.08914645,E,4,12,1.2,37.239,M,-12.685,M,1.0,0000*50
$GPGGA,032810.00,3030.68419006,N,11424.08914722,E,4,13,1.2,37.239,M,-12.685,M,1.0,0000*53
$GPGGA,032811.00,3030.68418868,N,11424.08914528,E,4,13,1.2,37.235,M,-12.685,M,1.0,0000*57
$GPGGA,032812.00,3030.68419035,N,11424.08914571,E,4,13,1.2,37.232,M,-12.685,M,1.0,0000*5E
$GPGGA,032813.00,3030.68419321,N,11424.08914461,E,4,13,1.2,37.231,M,-12.685,M,1.0,0000*5A
$GPGGA,032814.00,3030.68418780,N,11424.08914742,E,4,13,1.2,37.238,M,-12.685,M,1.0,0000*58
$GPGGA,032815.00,3030.68418707,N,11424.08914859,E,4,13,1.2,37.243,M,-12.685,M,1.0,0000*5F
$GPGGA,032816.00,3030.68419117,N,11424.08914395,E,4,13,1.2,37.229,M,-12.685,M,1.0,0000*5D
$GPGGA,032817.00,3030.68419092,N,11424.08914733,E,4,12,1.2,37.240,M,-12.685,M,1.0,0000*56
$GPGGA,032818.00,3030.68419311,N,11424.08914342,E,4,13,1.2,37.236,M,-12.685,M,1.0,0000*53
$GPGGA,032819.00,3030.68419119,N,11424.08914799,E,4,13,1.2,37.244,M,-12.685,M,1.0,0000*5F
$GPGGA,032820.00,3030.68418990,N,11424.08914677,E,4,13,1.2,37.246,M,-12.685,M,1.0,0000*5E
$GPGGA,032821.00,3030.68418828,N,11424.08914810,E,4,13,1.2,37.239,M,-12.685,M,1.0,0000*5A
$GPGGA,032822.00,3030.68419136,N,11424.08914316,E,4,13,1.2,37.233,M,-12.685,M,1.0,0000*59
$GPGGA,032823.00,3030.68419048,N,11424.08915043,E,4,12,1.2,37.259,M,-12.685,M,1.0,0000*5F
$GPGGA,032824.00,3030.68418778,N,11424.08915115,E,4,13,1.2,37.252,M,-12.685,M,1.0,0000*55
$GPGGA,032825.00,3030.68419358,N,11424.08914858,E,4,13,1.2,37.245,M,-12.685,M,1.0,0000*54
$GPGGA,032826.00,3030.68419273,N,11424.08914632,E,4,13,1.2,37.241,M,-12.685,M,1.0,0000*59
$GPGGA,032827.00,3030.68419173,N,11424.08914890,E,4,13,1.2,37.251,M,-12.685,M,1.0,0000*5C
$GPGGA,032828.00,3030.68419308,N,11424.08914592,E,4,13,1.2,37.247,M,-12.685,M,1.0,0000*55
$GPGGA,032829.00,3030.68419322,N,11424.08914483,E,4,12,1.2,37.245,M,-12.685,M,1.0,0000*5E
$GPGGA,032830.00,3030.68419421,N,11424.08914674,E,4,13,1.2,37.244,M,-12.685,M,1.0,0000*58
$GPGGA,032831.00,3030.68419414,N,11424.08914843,E,4,13,1.2,37.259,M,-12.685,M,1.0,0000*59
$GPGGA,032832.00,3030.68419235,N,11424.08914930,E,4,13,1.2,37.256,M,-12.685,M,1.0,0000*55
$GPGGA,032833.00,3030.68419188,N,11424.08914980,E,4,12,1.3,37.258,M,-12.685,M,1.0,0000*54
$GPGGA,032834.00,3030.68419260,N,11424.08914721,E,4,11,1.3,37.251,M,-12.685,M,1.0,0000*59
$GPGGA,032835.00,3030.68419428,N,11424.08914852,E,4,11,1.3,37.258,M,-12.685,M,1.0,0000*50
$GPGGA,032836.00,3030.68419151,N,11424.08914662,E,4,12,1.3,37.253,M,-12.685,M,1.0,0000*5D
$GPGGA,032837.00,3030.68419295,N,11424.08914940,E,4,11,1.3,37.258,M,-12.685,M,1.0,0000*50
$GPGGA,032838.00,3030.68419081,N,11424.08915347,E,4,12,1.3,37.277,M,-12.685,M,1.0,0000*5A
$GPGGA,032839.00,3030.68419367,N,11424.08914800,E,4,12,1.3,37.250,M,-12.685,M,1.0,0000*5C
$GPGGA,032840.00,3030.68419650,N,11424.08914658,E,4,12,1.3,37.253,M,-12.685,M,1.0,0000*53
$GPGGA,032841.00,3030.68419465,N,11424.08914995,E,4,12,1.3,37.268,M,-12.685,M,1.0,0000*50
$GPGGA,032842.00,3030.68419405,N,11424.08914895,E,4,12,1.3,37.260,M,-12.685,M,1.0,0000*5C
$GPGGA,032843.00,3030.68419547,N,11424.08914719,E,4,10,1.3,37.257,M,-12.685,M,1.0,0000*57
$GPGGA,032844.00,3030.68419509,N,11424.08915311,E,4,11,1.3,37.271,M,-12.685,M,1.0,0000*52
$GPGGA,032845.00,3030.68419749,N,11424.08914817,E,4,11,1.3,37.261,M,-12.685,M,1.0,0000*58
$GPGGA,032846.00,3030.68419753,N,11424.08914959,E,4,10,1.3,37.260,M,-12.685,M,1.0,0000*5B
$GPGGA,032847.00,3030.68419677,N,11424.08915127,E,4,11,1.3,37.262,M,-12.685,M,1.0,0000*5E
$GPGGA,032848.00,3030.68419745,N,11424.08914579,E,4,11,1.3,37.254,M,-12.685,M,1.0,0000*5A
$GPGGA,032849.00,3030.68419394,N,11424.08914830,E,4,11,1.3,37.261,M,-12.685,M,1.0,0000*55
$GPGGA,032850.00,3030.68419497,N,11424.08914913,E,4,11,1.3,37.263,M,-12.685,M,1.0,0000*5B
$GPGGA,032851.00,3030.68419524,N,11424.08914939,E,4,11,1.3,37.265,M,-12.685,M,1.0,0000*5D
$GPGGA,032852.00,3030.68419834,N,11424.08914934,E,4,11,1.3,37.258,M,-12.685,M,1.0,0000*51
$GPGGA,032853.00,3030.68419561,N,11424.08914733,E,4,11,1.3,37.252,M,-12.685,M,1.0,0000*5E
$GPGGA,032854.00,3030.68419998,N,11424.08910878,E,4,11,1.3,37.168,M,-12.685,M,1.0,0000*5D
$GPGGA,032855.00,3030.68420379,N,11424.08910712,E,4,11,1.3,37.170,M,-12.685,M,1.0,0000*59
$GPGGA,032856.00,3030.68420228,N,11424.08910866,E,4,11,1.3,37.176,M,-12.685,M,1.0,0000*55
$GPGGA,032857.00,3030.68419973,N,11424.08910807,E,4,11,1.3,37.175,M,-12.685,M,2.0,0000*5C
$GPGGA,032858.00,3030.68419845,N,11424.08911077,E,4,11,1.3,37.184,M,-12.685,M,3.0,0000*56
$GPGGA,032859.00,3030.68419969,N,11424.08910682,E,4,11,1.3,37.173,M,-12.685,M,4.0,0000*5A
$GPGGA,032900.00,3030.68420042,N,11424.08910084,E,4,11,1.3,37.152,M,-12.685,M,4.0,0000*5E
$GPGGA,032901.00,3030.68420188,N,11424.08910194,E,4,11,1.3,37.146,M,-12.685,M,3.0,0000*5A
$GPGGA,032902.00,3030.68420904,N,11424.08910724,E,4,11,1.3,37.154,M,-12.685,M,2.0,0000*5A
$GPGGA,032903.00,3030.68420798,N,11424.08910640,E,4,11,1.3,37.146,M,-12.685,M,1.0,0000*53
$GPGGA,032904.00,3030.68421028,N,11424.08910645,E,4,11,1.3,37.140,M,-12.685,M,1.0,0000*5A
$GPGGA,032905.00,3030.68420620,N,11424.08910722,E,4,11,1.3,37.146,M,-12.685,M,1.0,0000*52
$GPGGA,032906.00,3030.68420505,N,11424.08910667,E,4,11,1.3,37.154,M,-12.685,M,1.0,0000*56
$GPGGA,032907.00,3030.68420646,N,11424.08910621,E,4,10,1.3,37.147,M,-12.685,M,1.0,0000*52
$GPGGA,032908.00,3030.68420523,N,11424.08910770,E,4,11,1.3,37.155,M,-12.685,M,1.0,0000*5A
$GPGGA,032909.00,3030.68420477,N,11424.08910878,E,4,11,1.3,37.149,M,-12.685,M,1.0,0000*51
$GPGGA,032910.00,3030.68420739,N,11424.08910912,E,4,11,1.3,37.149,M,-12.685,M,1.0,0000*5D
$GPGGA,032911.00,3030.68420511,N,11424.08911110,E,4,11,1.3,37.155,M,-12.685,M,1.0,0000*52
$GPGGA,032912.00,3030.68420143,N,11424.08911629,E,4,11,1.3,37.195,M,-12.685,M,1.0,0000*53
$GPGGA,032913.00,3030.68420032,N,11424.08911223,E,4,10,1.3,37.188,M,-12.685,M,1.0,0000*56
$GPGGA,032914.00,3030.68419593,N,11424.08911678,E,4,11,1.3,37.198,M,-12.685,M,1.0,0000*5F
$GPGGA,032915.00,3030.68420646,N,11424.08911637,E,4,11,1.3,37.184,M,-12.685,M,1.0,0000*59
$GPGGA,032916.00,3030.68420213,N,11424.08911490,E,4,11,1.3,37.196,M,-12.685,M,1.0,0000*52
$GPGGA,032917.00,3030.68420298,N,11424.08911687,E,4,12,1.3,37.191,M,-12.685,M,1.0,0000*50
$GPGGA,032918.00,3030.68420296,N,11424.08911940,E,4,12,1.3,37.202,M,-12.685,M,1.0,0000*5C
$GPGGA,032919.00,3030.68420287,N,11424.08911475,E,4,12,1.3,37.191,M,-12.685,M,1.0,0000*5F
$GPGGA,032920.00,3030.68420496,N,11424.08911247,E,4,12,1.3,37.175,M,-12.685,M,1.0,0000*5E
$GPGGA,032921.00,3030.68419773,N,11424.08911749,E,4,11,1.3,37.195,M,-12.685,M,1.0,0000*5B
$GPGGA,032922.00,3030.68419986,N,11424.08911349,E,4,12,1.3,37.175,M,-12.685,M,1.0,0000*55
$GPGGA,032923.00,3030.68419940,N,11424.08911220,E,4,12,1.3,37.176,M,-12.685,M,1.0,0000*53
$GPGGA,032924.00,3030.68420061,N,11424.08911568,E,4,12,1.3,37.189,M,-12.685,M,1.0,0000*5F
$GPGGA,032925.00,3030.68420837,N,11424.08911466,E,4,12,1.3,37.189,M,-12.685,M,1.0,0000*5A
$GPGGA,032926.00,3030.68420257,N,11424.08912009,E,4,12,1.3,37.208,M,-12.685,M,1.0,0000*51
$GPGGA,032927.00,3030.68420457,N,11424.08911660,E,4,12,1.3,37.190,M,-12.685,M,1.0,0000*5E
$GPGGA,032928.00,3030.68420311,N,11424.08911304,E,4,11,1.3,37.190,M,-12.685,M,1.0,0000*50
$GPGGA,032929.00,3030.68420254,N,11424.08911827,E,4,12,1.3,37.197,M,-12.685,M,1.0,0000*5F
$GPGGA,032930.00,3030.68419973,N,11424.08911710,E,4,12,1.3,37.194,M,-12.685,M,1.0,0000*5B
$GPGGA,032931.00,3030.68420466,N,11424.08912079,E,4,12,1.3,37.204,M,-12.685,M,1.0,0000*58
$GPGGA,032932.00,3030.68420630,N,11424.08911536,E,4,11,1.3,37.178,M,-12.685,M,1.0,0000*5C
$GPGGA,032933.00,3030.68420801,N,11424.08911688,E,4,11,1.0,37.187,M,-12.685,M,1.0,0000*54
$GPGGA,032934.00,3030.68420506,N,11424.08911519,E,4,11,1.0,37.182,M,-12.685,M,1.0,0000*57
$GPGGA,032935.00,3030.68420552,N,11424.08911502,E,4,12,1.0,37.175,M,-12.685,M,1.0,0000*56
$GPGGA,032936.00,3030.68420441,N,11424.08911689,E,4,12,1.0,37.192,M,-12.685,M,1.0,0000*5F
$GPGGA,032937.00,3030.68420672,N,11424.08912109,E,4,12,1.0,37.199,M,-12.685,M,1.0,0000*5B
$GPGGA,032938.00,3030.68420450,N,11424.08911653,E,4,12,1.0,37.189,M,-12.685,M,1.0,0000*5C
$GPGGA,032939.00,3030.68420582,N,11424.08911573,E,4,12,1.0,37.187,M,-12.685,M,1.0,0000*5C
$GPGGA,032940.00,3030.68420723,N,11424.08911477,E,4,12,1.0,37.186,M,-12.685,M,1.0,0000*5F
$GPGGA,032941.00,3030.68420659,N,11424.08911598,E,4,12,1.0,37.180,M,-12.685,M,1.0,0000*54
$GPGGA,032942.00,3030.68420200,N,11424.08911719,E,4,12,1.0,37.201,M,-12.685,M,1.0,0000*5E
$GPGGA,032943.00,3030.68420320,N,11424.08911326,E,4,12,1.0,37.188,M,-12.685,M,1.0,0000*56
$GPGGA,032944.00,3030.68420537,N,11424.08911791,E,4,12,1.0,37.193,M,-12.685,M,1.0,0000*53
$GPGGA,032945.00,3030.68420306,N,11424.08911754,E,4,12,1.0,37.197,M,-12.685,M,1.0,0000*5B
$GPGGA,032946.00,3030.68420382,N,11424.08911693,E,4,12,1.0,37.200,M,-12.685,M,1.0,0000*53
$GPGGA,032947.00,3030.68420534,N,11424.08911356,E,4,11,1.0,37.185,M,-12.685,M,1.0,0000*58
$GPGGA,032948.00,3030.68420320,N,11424.08911703,E,4,12,1.0,37.192,M,-12.685,M,1.0,0000*55
$GPGGA,032949.00,3030.68420542,N,11424.08911672,E,4,12,1.0,37.203,M,-12.685,M,1.0,0000*5A
$GPGGA,032950.00,3030.68420173,N,11424.08912060,E,4,12,1.0,37.205,M,-12.685,M,1.0,0000*54
$GPGGA,032951.00,3030.68420174,N,11424.08911814,E,4,12,1.0,37.201,M,-12.685,M,1.0,0000*5E
$GPGGA,032952.00,3030.68420461,N,11424.08911881,E,4,12,1.0,37.195,M,-12.685,M,1.0,0000*5E
$GPGGA,032953.00,3030.68420502,N,11424.08911768,E,4,11,1.0,37.193,M,-12.685,M,1.0,0000*56
$GPGGA,032954.00,3030.68420195,N,11424.08912179,E,4,12,1.0,37.213,M,-12.685,M,1.0,0000*56
$GPGGA,032955.00,3030.68420261,N,11424.08911932,E,4,11,1.0,37.205,M,-12.685,M,1.0,0000*5F
$GPGGA,032956.00,3030.68420427,N,11424.08912082,E,4,12,1.0,37.208,M,-12.685,M,1.0,0000*57
$GPGGA,032957.00,3030.68420246,N,11424.08911963,E,4,12,1.0,37.203,M,-12.685,M,1.0,0000*59
$GPGGA,032958.00,3030.68420049,N,11424.08911902,E,4,12,1.0,37.206,M,-12.685,M,2.0,0000*5A
$GPGGA,032959.00,3030.68420104,N,11424.08912118,E,4,12,1.0,37.208,M,-12.685,M,3.0,0000*5C
$GPGGA,033000.00,3030.68420374,N,11424.08912607,E,4,12,1.0,37.216,M,-12.685,M,2.0,0000*5A
$GPGGA,033001.00,3030.68420273,N,11424.08912098,E,4,12,1.0,37.199,M,-12.685,M,1.0,0000*5A
$GPGGA,033002.00,3030.68420430,N,11424.08911836,E,4,12,1.0,37.195,M,-12.685,M,1.0,0000*5B
$GPGGA,033003.00,3030.68420591,N,11424.08911848,E,4,12,1.0,37.191,M,-12.685,M,1.0,0000*5D
$GPGGA,033004.00,3030.68420443,N,11424.08911838,E,4,12,1.0,37.200,M,-12.685,M,1.0,0000*58
$GPGGA,033005.00,3030.68420454,N,11424.08912036,E,4,11,1.0,37.197,M,-12.685,M,1.0,0000*54
$GPGGA,033006.00,3030.68420653,N,11424.08911237,E,4,12,1.0,37.170,M,-12.685,M,1.0,0000*58
$GPGGA,033007.00,3030.68420785,N,11424.08911609,E,4,12,1.0,37.192,M,-12.685,M,1.0,0000*56
$GPGGA,033008.00,3030.68420889,N,11424.08911509,E,4,12,1.0,37.180,M,-12.685,M,1.0,0000*5A
$GPGGA,033009.00,3030.68420406,N,11424.08911628,E,4,12,1.0,37.190,M,-12.685,M,1.0,0000*51
$GPGGA,033010.00,3030.68420654,N,11424.08911609,E,4,12,1.0,37.182,M,-12.685,M,1.0,0000*5C
$GPGGA,033011.00,3030.68420717,N,11424.08911590,E,4,12,1.0,37.183,M,-12.685,M,1.0,0000*59
$GPGGA,033012.00,3030.68420515,N,11424.08911724,E,4,12,1.0,37.181,M,-12.685,M,1.0,0000*55
$GPGGA,033013.00,3030.68420780,N,11424.08911751,E,4,11,1.0,37.186,M,-12.685,M,1.0,0000*5C
$GPGGA,033014.00,3030.68420636,N,11424.08911715,E,4,12,1.0,37.187,M,-12.685,M,1.0,0000*55
$GPGGA,033015.00,3030.68420717,N,11424.08911982,E,4,12,1.0,37.192,M,-12.685,M,1.0,0000*52
$GPGGA,033016.00,3030.68420551,N,11424.08911812,E,4,12,1.0,37.189,M,-12.685,M,1.0,0000*53
$GPGGA,033017.00,3030.68420350,N,11424.08911946,E,4,12,1.0,37.193,M,-12.685,M,1.0,0000*5E
$GPGGA,033018.00,3030.68420823,N,11424.08911548,E,4,11,1.0,37.189,M,-12.685,M,1.0,0000*54
$GPGGA,033019.00,3030.68420430,N,11424.08911890,E,4,12,1.0,37.188,M,-12.685,M,1.0,0000*51
$GPGGA,033020.00,3030.68420470,N,11424.08911580,E,4,12,1.0,37.180,M,-12.685,M,1.0,0000*5B
$GPGGA,033021.00,3030.68420310,N,11424.08911951,E,4,12,1.0,37.192,M,-12.685,M,1.0,0000*58
$GPGGA,033022.00,3030.68420632,N,11424.08911840,E,4,12,1.0,37.181,M,-12.685,M,1.0,0000*5D
$GPGGA,033023.00,3030.68419985,N,11424.08912029,E,4,12,1.0,37.195,M,-12.685,M,1.0,0000*54
$GPGGA,033024.00,3030.68420045,N,11424.08911950,E,4,12,1.0,37.187,M,-12.685,M,1.0,0000*5B
$GPGGA,033025.00,3030.68420221,N,11424.08912071,E,4,12,1.0,37.189,M,-12.685,M,1.0,0000*5D
$GPGGA,033026.00,3030.68420095,N,11424.08912309,E,4,12,1.0,37.196,M,-12.685,M,1.0,0000*51
$GPGGA,033027.00,3030.68420359,N,11424.08912035,E,4,12,1.0,37.189,M,-12.685,M,1.0,0000*51
$GPGGA,033028.00,3030.68420242,N,11424.08911893,E,4,12,1.0,37.191,M,-12.685,M,1.0,0000*5B
$GPGGA,033029.00,3030.68419814,N,11424.08912364,E,4,12,1.0,37.200,M,-12.685,M,1.0,0000*52
$GPGGA,033030.00,3030.68420018,N,11424.08912333,E,4,12,1.3,37.204,M,-12.685,M,1.0,0000*51
$GPGGA,033031.00,3030.68420184,N,11424.08912547,E,4,11,1.3,37.212,M,-12.685,M,1.0,0000*55
$GPGGA,033032.00,3030.68419765,N,11424.08912582,E,4,11,1.3,37.205,M,-12.685,M,1.0,0000*5A
$GPGGA,033033.00,3030.68420383,N,11424.08912272,E,4,12,1.3,37.207,M,-12.685,M,1.0,0000*54
$GPGGA,033034.00,3030.68420109,N,11424.08912235,E,4,12,1.3,37.200,M,-12.685,M,1.0,0000*57
$GPGGA,033035.00,3030.68419760,N,11424.08912410,E,4,12,1.3,37.203,M,-12.685,M,1.0,0000*57
$GPGGA,033036.00,3030.68419847,N,11424.08912348,E,4,12,1.3,37.196,M,-12.685,M,1.0,0000*5B
$GPGGA,033037.00,3030.68419913,N,11424.08912343,E,4,12,1.3,37.209,M,-12.685,M,1.0,0000*54
$GPGGA,033038.00,3030.68420114,N,11424.08912262,E,4,12,1.3,37.196,M,-12.685,M,1.0,0000*59
$GPGGA,033039.00,3030.68419780,N,11424.08912612,E,4,12,1.3,37.199,M,-12.685,M,1.0,0000*55
$GPGGA,033040.00,3030.68419412,N,11424.08912932,E,4,11,1.3,37.203,M,-12.685,M,2.0,0000*5E
$GPGGA,033041.00,3030.68419896,N,11424.08912625,E,4,12,1.3,37.212,M,-12.685,M,1.0,0000*56
$GPGGA,033042.00,3030.68420140,N,11424.08912102,E,4,12,1.3,37.203,M,-12.685,M,1.0,0000*5F
$GPGGA,033043.00,3030.68419958,N,11424.08912260,E,4,12,1.3,37.214,M,-12.685,M,1.0,0000*54
$GPGGA,033044.00,3030.68419894,N,11424.08912308,E,4,12,1.3,37.210,M,-12.685,M,1.0,0000*59
$GPGGA,033045.00,3030.68419900,N,11424.08912184,E,4,12,1.3,37.207,M,-12.685,M,1.0,0000*54
$GPGGA,033046.00,3030.68419893,N,11424.08912615,E,4,12,1.3,37.218,M,-12.685,M,1.0,0000*5D
$GPGGA,033047.00,3030.68419710,N,11424.08912412,E,4,11,1.3,37.211,M,-12.685,M,1.0,0000*57
$GPGGA,033048.00,3030.68419636,N,11424.08912614,E,4,11,1.3,37.213,M,-12.685,M,1.0,0000*5B
$GPGGA,033049.00,3030.68419590,N,11424.08912806,E,4,12,1.3,37.211,M,-12.685,M,1.0,0000*59
$GPGGA,033050.00,3030.68419748,N,11424.08912340,E,4,12,1.3,37.212,M,-12.685,M,1.0,0000*5C
$GPGGA,033051.00,3030.68419853,N,11424.08912616,E,4,12,1.3,37.202,M,-12.685,M,1.0,0000*5F
$GPGGA,033052.00,3030.68419712,N,11424.08912307,E,4,12,1.3,37.202,M,-12.685,M,1.0,0000*53
$GPGGA,033053.00,3030.68419762,N,11424.08912540,E,4,12,1.3,37.208,M,-12.685,M,1.0,0000*5A
$GPGGA,033054.00,3030.68419793,N,11424.08912187,E,4,12,1.3,37.200,M,-12.685,M,1.0,0000*54
$GPGGA,033055.00,3030.68419929,N,11424.08912269,E,4,12,1.3,37.206,M,-12.685,M,1.0,0000*5F
$GPGGA,033056.00,3030.68419634,N,11424.08912319,E,4,12,1.3,37.206,M,-12.685,M,1.0,0000*59
$GPGGA,033057.00,3030.68419733,N,11424.08912460,E,4,12,1.3,37.194,M,-12.685,M,1.0,0000*5F
$GPGGA,033058.00,3030.68420160,N,11424.08912297,E,4,12,1.3,37.194,M,-12.685,M,1.0,0000*54
$GPGGA,033059.00,3030.68419644,N,11424.08912762,E,4,12,1.3,37.202,M,-12.685,M,1.0,0000*5D
$GPGGA,033100.00,3030.68419790,N,11424.08912470,E,4,12,1.3,37.196,M,-12.685,M,1.0,0000*56
$GPGGA,033101.00,3030.68419352,N,11424.08913144,E,4,12,1.3,37.211,M,-12.685,M,1.0,0000*52
$GPGGA,033102.00,3030.68420002,N,11424.08912138,E,4,12,1.3,37.171,M,-12.685,M,1.0,0000*52
$GPGGA,033103.00,3030.68419714,N,11424.08912452,E,4,12,1.3,37.180,M,-12.685,M,1.0,0000*5E
$GPGGA,033104.00,3030.68419188,N,11424.08912815,E,4,12,1.2,37.185,M,-12.685,M,1.0,0000*51
$GPGGA,033105.00,3030.68419795,N,11424.08912630,E,4,11,1.2,37.166,M,-12.685,M,1.0,0000*5D
$GPGGA,033106.00,3030.68419496,N,11424.08912701,E,4,12,1.2,37.210,M,-12.685,M,1.0,0000*5C
$GPGGA,033107.00,3030.68419231,N,11424.08912553,E,4,12,1.2,37.203,M,-12.685,M,1.0,0000*51
$GPGGA,033108.00,3030.68419239,N,11424.08912457,E,4,12,1.2,37.185,M,-12.685,M,1.0,0000*5E
$GPGGA,033109.00,3030.68418860,N,11424.08912541,E,4,11,1.2,37.179,M,-12.685,M,1.0,0000*5E
$GPGGA,033110.00,3030.68419548,N,11424.08912207,E,4,09,1.2,37.201,M,-12.685,M,1.0,0000*50
$GPGGA,033111.00,3030.68419290,N,11424.08913091,E,4,10,1.2,37.225,M,-12.685,M,1.0,0000*51
$GPGGA,033112.00,3030.68419268,N,11424.08912779,E,4,10,1.2,37.217,M,-12.685,M,1.0,0000*54
$GPGGA,033113.00,3030.68419235,N,11424.08913098,E,4,10,1.2,37.233,M,-12.685,M,1.0,0000*52
$GPGGA,033114.00,3030.68418871,N,11424.08913112,E,4,10,1.0,37.228,M,-12.685,M,1.0,0000*55
$GPGGA,033115.00,3030.68419131,N,11424.08912964,E,4,10,1.0,37.223,M,-12.685,M,1.0,0000*5B
$GPGGA,033116.00,3030.68419069,N,11424.08913206,E,4,10,1.0,37.222,M,-12.685,M,1.0,0000*5B
$GPGGA,033117.00,3030.68419301,N,11424.08912818,E,4,10,1.0,37.215,M,-12.685,M,1.0,0000*57
$GPGGA,033118.00,3030.68419328,N,11424.08912999,E,4,10,1.0,37.209,M,-12.685,M,1.0,0000*56
$GPGGA,033119.00,3030.68419196,N,11424.08913158,E,4,10,1.0,37.220,M,-12.685,M,1.0,0000*5F
$GPGGA,033120.00,3030.68419193,N,11424.08912897,E,4,10,1.0,37.209,M,-12.685,M,1.0,0000*50
$GPGGA,033121.00,3030.68418944,N,11424.08912995,E,4,09,1.0,37.209,M,-12.685,M,1.0,0000*59
$GPGGA,033122.00,3030.68418973,N,11424.08913243,E,4,10,1.0,37.208,M,-12.685,M,1.0,0000*56
$GPGGA,033123.00,3030.68419274,N,11424.08912935,E,4,10,1.0,37.199,M,-12.685,M,1.0,0000*5A
$GPGGA,033124.00,3030.68418945,N,11424.08913107,E,4,10,1.0,37.194,M,-12.685,M,1.0,0000*50
$GPGGA,033125.00,3030.68419136,N,11424.08913260,E,4,09,1.0,37.227,M,-12.685,M,1.0,0000*5D
$GPGGA,033126.00,3030.68419243,N,11424.08912820,E,4,09,1.0,37.211,M,-12.685,M,1.0,0000*55
$GPGGA,033127.00,3030.68419327,N,11424.08912790,E,4,10,1.0,37.207,M,-12.685,M,1.0,0000*5C
$GPGGA,033128.00,3030.68418980,N,11424.08913345,E,4,09,1.0,37.216,M,-12.685,M,1.0,0000*50
$GPGGA,033129.00,3030.68418920,N,11424.08913448,E,4,10,1.0,37.223,M,-12.685,M,1.0,0000*5F
$GPGGA,033130.00,3030.68419116,N,11424.08913177,E,4,10,1.0,37.222,M,-12.685,M,1.0,0000*53
$GPGGA,033131.00,3030.68418903,N,11424.08913291,E,4,10,1.0,37.231,M,-12.685,M,1.0,0000*56
$GPGGA,033132.00,3030.68419077,N,11424.08913076,E,4,10,1.0,37.216,M,-12.685,M,1.0,0000*50
$GPGGA,033133.00,3030.68419479,N,11424.08912907,E,4,10,1.0,37.213,M,-12.685,M,1.0,0000*50
$GPGGA,033134.00,3030.68419298,N,11424.08913258,E,4,09,1.0,37.221,M,-12.685,M,1.0,0000*57
$GPGGA,033135.00,3030.68418972,N,11424.08913546,E,4,10,1.0,37.233,M,-12.685,M,2.0,0000*58
$GPGGA,033136.00,3030.68419176,N,11424.08913022,E,4,10,1.0,37.230,M,-12.685,M,1.0,0000*51
$GPGGA,033137.00,3030.68418797,N,11424.08913302,E,4,10,1.0,37.239,M,-12.685,M,1.0,0000*50
$GPGGA,033138.00,3030.68419323,N,11424.08912852,E,4,10,1.0,37.218,M,-12.685,M,1.0,0000*59
$GPGGA,033139.00,3030.68419417,N,11424.08912823,E,4,10,1.0,37.212,M,-12.685,M,1.0,0000*54
$GPGGA,033140.00,3030.68419418,N,11424.08913081,E,4,10,1.0,37.221,M,-12.685,M,1.0,0000*54
$GPGGA,033141.00,3030.68419386,N,11424.08912968,E,4,10,1.0,37.228,M,-12.685,M,1.0,0000*53
$GPGGA,033142.00,3030.68419909,N,11424.08912276,E,4,10,1.0,37.203,M,-12.685,M,1.0,0000*50
$GPGGA,033143.00,3030.68419134,N,11424.08913154,E,4,09,1.0,37.231,M,-12.685,M,1.0,0000*5C
$GPGGA,033144.00,3030.68419482,N,11424.08912653,E,4,10,1.0,37.208,M,-12.685,M,1.0,0000*50
$GPGGA,033145.00,3030.68419475,N,11424.08912780,E,4,10,1.0,37.227,M,-12.685,M,1.0,0000*5B
$GPGGA,033146.00,3030.68419130,N,11424.08913334,E,4,10,1.0,37.231,M,-12.685,M,1.0,0000*51
$GPGGA,033147.00,3030.68419003,N,11424.08913015,E,4,10,1.0,37.229,M,-12.685,M,1.0,0000*58
$GPGGA,033148.00,3030.68419104,N,11424.08912715,E,4,10,1.0,37.216,M,-12.685,M,1.0,0000*5B
$GPGGA,033149.00,3030.68419151,N,11424.08912980,E,4,09,1.0,37.227,M,-12.685,M,1.0,0000*52
$GPGGA,033150.00,3030.68418979,N,11424.08913232,E,4,10,1.0,37.237,M,-12.685,M,1.0,0000*53
$GPGGA,033151.00,3030.68419298,N,11424.08912924,E,4,10,1.0,37.218,M,-12.685,M,1.0,0000*57
$GPGGA,033152.00,3030.68419134,N,11424.08913387,E,4,10,1.0,37.230,M,-12.685,M,1.0,0000*59
$GPGGA,033153.00,3030.68418833,N,11424.08912932,E,4,10,1.0,37.225,M,-12.685,M,1.0,0000*56
$GPGGA,033154.00,3030.68418915,N,11424.08913224,E,4,10,1.0,37.224,M,-12.685,M,1.0,0000*58
$GPGGA,033155.00,3030.68419087,N,11424.08913480,E,4,10,1.0,37.236,M,-12.685,M,1.0,0000*51
$GPGGA,033156.00,3030.68418961,N,11424.08913288,E,4,10,1.0,37.225,M,-12.685,M,1.0,0000*5E
$GPGGA,033157.00,3030.68418993,N,11424.08912857,E,4,10,1.0,37.212,M,-12.685,M,1.0,0000*5F
$GPGGA,033158.00,3030.68418749,N,11424.08913303,E,4,10,1.0,37.227,M,-12.685,M,1.0,0000*54
$GPGGA,033159.00,3030.68419086,N,11424.08913235,E,4,10,1.3,37.221,M,-12.685,M,2.0,0000*52
$GPGGA,033200.00,3030.68418915,N,11424.08913137,E,4,10,1.3,37.216,M,-12.685,M,3.0,0000*5B
$GPGGA,033201.00,3030.68419159,N,11424.08913365,E,4,10,1.3,37.227,M,-12.685,M,2.0,0000*5D
$GPGGA,033202.00,3030.68418789,N,11424.08913103,E,4,10,1.0,37.223,M,-12.685,M,1.0,0000*52
$GPGGA,033203.00,3030.68418813,N,11424.08913260,E,4,10,1.0,37.231,M,-12.685,M,1.0,0000*5A
$GPGGA,033204.00,3030.68418852,N,11424.08913065,E,4,10,1.0,37.219,M,-12.685,M,1.0,0000*55
$GPGGA,033205.00,3030.68418884,N,11424.08913045,E,4,10,1.0,37.221,M,-12.685,M,1.0,0000*56
$GPGGA,033206.00,3030.68418803,N,11424.08913339,E,4,10,1.0,37.221,M,-12.685,M,1.0,0000*52
$GPGGA,033207.00,3030.68419373,N,11424.08913338,E,4,09,1.0,37.223,M,-12.685,M,1.0,0000*55
$GPGGA,033208.00,3030.68419162,N,11424.08912815,E,4,10,1.0,37.206,M,-12.685,M,1.0,0000*52
$GPGGA,033209.00,3030.68419369,N,11424.08912492,E,4,10,1.0,37.196,M,-12.685,M,1.0,0000*53
$GPGGA,033210.00,3030.68419323,N,11424.08912803,E,4,10,1.0,37.204,M,-12.685,M,1.0,0000*59
$GPGGA,033211.00,3030.68419360,N,11424.08912821,E,4,10,1.4,37.195,M,-12.685,M,1.0,0000*50
$GPGGA,033212.00,3030.68419054,N,11424.08912972,E,4,10,1.4,37.201,M,-12.685,M,1.0,0000*5E
$GPGGA,033213.00,3030.68418663,N,11424.08912930,E,4,10,1.4,37.197,M,-12.685,M,1.0,0000*56
$GPGGA,033214.00,3030.68418824,N,11424.08913098,E,4,10,1.4,37.223,M,-12.685,M,1.0,0000*5A
$GPGGA,033215.00,3030.68418885,N,11424.08912898,E,4,10,1.4,37.229,M,-12.685,M,1.0,0000*53
$GPGGA,033216.00,3030.68419397,N,11424.08912679,E,4,09,1.4,37.205,M,-12.685,M,1.0,0000*5E
$GPGGA,033217.00,3030.68418782,N,11424.08912711,E,4,10,1.4,37.209,M,-12.685,M,1.0,0000*55
$GPGGA,033218.00,3030.68419248,N,11424.08912667,E,4,10,1.4,37.198,M,-12.685,M,1.0,0000*53
$GPGGA,033219.00,3030.68419256,N,11424.08912770,E,4,09,1.4,37.205,M,-12.685,M,2.0,0000*56
$GPGGA,033220.00,3030.68418483,N,11424.08912895,E,4,09,1.4,37.197,M,-12.685,M,1.0,0000*5C
$GPGGA,033221.00,3030.68418510,N,11424.08913165,E,4,10,1.4,37.192,M,-12.685,M,1.0,0000*5C
$GPGGA,033222.00,3030.68418646,N,11424.08913540,E,4,09,1.4,37.226,M,-12.685,M,1.0,0000*58
$GPGGA,033223.00,3030.68418764,N,11424.08913264,E,4,10,1.4,37.222,M,-12.685,M,1.0,0000*55
$GPGGA,033224.00,3030.68418782,N,11424.08913157,E,4,10,1.4,37.213,M,-12.685,M,1.0,0000*5B
$GPGGA,033225.00,3030.68418549,N,11424.08913427,E,4,09,1.4,37.230,M,-12.685,M,1.0,0000*54
$GPGGA,033226.00,3030.68418428,N,11424.08913012,E,4,09,1.4,37.209,M,-12.685,M,1.0,0000*59
$GPGGA,033227.00,3030.68418719,N,11424.08912649,E,4,10,1.4,37.202,M,-12.685,M,1.0,0000*53
$GPGGA,033228.00,3030.68418591,N,11424.08913414,E,4,10,1.4,37.223,M,-12.685,M,1.0,0000*56
$GPGGA,033229.00,3030.68418579,N,11424.08913544,E,4,10,1.4,37.226,M,-12.685,M,1.0,0000*50
$GPGGA,033230.00,3030.68418312,N,11424.08913734,E,4,10,1.4,37.231,M,-12.685,M,1.0,0000*50
$GPGGA,033231.00,3030.68418540,N,11424.08913246,E,4,09,1.4,37.221,M,-12.685,M,1.0,0000*59
$GPGGA,033232.00,3030.68418473,N,11424.08913339,E,4,10,1.4,37.213,M,-12.685,M,1.0,0000*5B
$GPGGA,033233.00,3030.68419090,N,11424.08912734,E,4,10,1.4,37.195,M,-12.685,M,1.0,0000*57
$GPGGA,033234.00,3030.68418685,N,11424.08913345,E,4,10,1.4,37.222,M,-12.685,M,1.0,0000*5F
$GPGGA,033235.00,3030.68418932,N,11424.08912979,E,4,10,1.4,37.207,M,-12.685,M,1.0,0000*5E
$GPGGA,033236.00,3030.68418631,N,11424.08913101,E,4,10,1.4,37.206,M,-12.685,M,1.0,0000*56
$GPGGA,033237.00,3030.68421140,N,11424.08911714,E,4,10,1.4,37.095,M,-12.685,M,1.0,0000*54
$GPGGA,033238.00,3030.68420937,N,11424.08911637,E,4,10,1.4,37.089,M,-12.685,M,1.0,0000*5F
$GPGGA,033239.00,3030.68421210,N,11424.08911499,E,4,10,1.4,37.082,M,-12.685,M,1.0,0000*5C
$GPGGA,033240.00,3030.68421044,N,11424.08911430,E,4,10,1.4,37.081,M,-12.685,M,1.0,0000*51
$GPGGA,033241.00,3030.68420947,N,11424.08911828,E,4,10,1.4,37.089,M,-12.685,M,1.0,0000*56
$GPGGA,033242.00,3030.68421037,N,11424.08911782,E,4,10,1.4,37.094,M,-12.685,M,1.0,0000*59
$GPGGA,033243.00,3030.68421035,N,11424.08911768,E,4,09,1.5,37.089,M,-12.685,M,1.0,0000*5B
$GPGGA,033244.00,3030.68421231,N,11424.08911520,E,4,09,1.5,37.087,M,-12.685,M,1.0,0000*5A
$GPGGA,033245.00,3030.68421542,N,11424.08911246,E,4,09,1.5,37.077,M,-12.685,M,1.0,0000*50
$GPGGA,033246.00,3030.68420735,N,11424.08911970,E,4,09,1.5,37.106,M,-12.685,M,1.0,0000*59
$GPGGA,033247.00,3030.68421642,N,11424.08911222,E,4,09,1.5,37.070,M,-12.685,M,1.0,0000*54
$GPGGA,033248.00,3030.68420887,N,11424.08911795,E,4,09,1.5,37.095,M,-12.685,M,1.0,0000*5F
$GPGGA,033249.00,3030.68421264,N,11424.08911671,E,4,09,1.5,37.098,M,-12.685,M,1.0,0000*5E
$GPGGA,033250.00,3030.68421443,N,11424.08911349,E,4,09,1.5,37.082,M,-12.685,M,1.0,0000*50
$GPGGA,033251.00,3030.68421525,N,11424.08910728,E,4,09,1.5,37.056,M,-12.685,M,1.0,0000*5B
$GPGGA,033252.00,3030.68421731,N,11424.08910796,E,4,07,1.5,37.054,M,-12.685,M,1.0,0000*56
$GPGGA,033253.00,3030.68421414,N,11424.08911057,E,4,09,1.5,37.064,M,-12.685,M,1.0,0000*55
$GPGGA,033254.00,3030.68421601,N,11424.08911121,E,4,09,1.5,37.065,M,-12.685,M,1.0,0000*55
$GPGGA,033255.00,3030.68421762,N,11424.08910614,E,4,09,1.5,37.056,M,-12.685,M,1.0,0000*50
$GPGGA,033256.00,3030.68421470,N,11424.08911240,E,4,09,1.5,37.072,M,-12.685,M,1.0,0000*51
$GPGGA,033257.00,3030.68421810,N,11424.08910629,E,4,09,1.5,37.050,M,-12.685,M,1.0,0000*50
$GPGGA,033258.00,3030.68421926,N,11424.08910482,E,4,08,1.5,37.053,M,-12.685,M,1.0,0000*5A
$GPGGA,033259.00,3030.68421456,N,11424.08910998,E,4,09,1.5,37.062,M,-12.685,M,1.0,0000*54
$GPGGA,033300.00,3030.68421729,N,11424.08911176,E,4,09,1.5,37.066,M,-12.685,M,1.0,0000*5F
$GPGGA,033301.00,3030.68421569,N,11424.08911250,E,4,09,1.5,37.074,M,-12.685,M,1.0,0000*5C
$GPGGA,033302.00,3030.68421827,N,11424.08910850,E,4,09,1.5,37.059,M,-12.685,M,1.0,0000*5C
$GPGGA,033303.00,3030.68421572,N,11424.08910951,E,4,09,1.5,37.068,M,-12.685,M,1.0,0000*52
$GPGGA,033304.00,3030.68421908,N,11424.08910940,E,4,09,1.5,37.060,M,-12.685,M,1.0,0000*5C
$GPGGA,033305.00,3030.68421381,N,11424.08910983,E,4,09,1.5,37.063,M,-12.685,M,1.0,0000*5A
$GPGGA,033306.00,3030.68421825,N,11424.08910899,E,4,09,1.5,37.057,M,-12.685,M,1.0,0000*51
$GPGGA,033307.00,3030.68421941,N,11424.08910486,E,4,09,1.5,37.052,M,-12.685,M,1.0,0000*54
$GPGGA,033308.00,3030.68421870,N,11424.08910909,E,4,09,1.5,37.064,M,-12.685,M,1.0,0000*57
$GPGGA,033309.00,3030.68421376,N,11424.08911592,E,4,09,1.5,37.078,M,-12.685,M,1.0,0000*59
$GPGGA,033310.00,3030.68421511,N,11424.08911267,E,4,09,1.5,37.071,M,-12.685,M,1.0,0000*52
$GPGGA,033311.00,3030.68421464,N,11424.08911517,E,4,09,1.5,37.074,M,-12.685,M,1.0,0000*55
$GPGGA,033312.00,3030.68421716,N,11424.08911217,E,4,09,1.5,37.072,M,-12.685,M,1.0,0000*51
$GPGGA,033313.00,3030.68421437,N,11424.08911454,E,4,09,1.5,37.078,M,-12.685,M,1.0,0000*5B
$GPGGA,033314.00,3030.68421187,N,11424.08911136,E,4,09,1.5,37.071,M,-12.685,M,1.0,0000*5A
$GPGGA,033315.00,3030.68421705,N,11424.08911188,E,4,09,1.5,37.072,M,-12.685,M,1.0,0000*51
$GPGGA,033316.00,3030.68421413,N,11424.08911336,E,4,09,1.5,37.074,M,-12.685,M,1.0,0000*57
$GPGGA,033317.00,3030.68421262,N,11424.08911437,E,4,09,1.5,37.078,M,-12.685,M,1.0,0000*5C
$GPGGA,033318.00,3030.68421482,N,11424.08911337,E,4,09,1.5,37.077,M,-12.685,M,1.0,0000*53
$GPGGA,033319.00,3030.68421455,N,11424.08911436,E,4,08,1.5,37.071,M,-12.685,M,1.0,0000*59
$GPGGA,033320.00,3030.68421157,N,11424.08911687,E,4,09,1.5,37.085,M,-12.685,M,1.0,0000*56
$GPGGA,033321.00,3030.68421498,N,11424.08911140,E,4,08,1.5,37.067,M,-12.685,M,1.0,0000*50
$GPGGA,033322.00,3030.68422148,N,11424.08909788,E,4,09,1.5,37.021,M,-12.685,M,1.0,0000*50
$GPGGA,033323.00,3030.68421327,N,11424.08911762,E,4,09,1.5,37.082,M,-12.685,M,1.0,0000*5D
$GPGGA,033324.00,3030.68421129,N,11424.08911284,E,4,09,1.5,37.078,M,-12.685,M,1.0,0000*5E
$GPGGA,033325.00,3030.68421174,N,11424.08911238,E,4,09,1.5,37.079,M,-12.685,M,1.0,0000*51
$GPGGA,033326.00,3030.68421619,N,11424.08911016,E,4,09,1.5,37.070,M,-12.685,M,1.0,0000*59
$GPGGA,033327.00,3030.68421142,N,11424.08911180,E,4,09,1.4,37.071,M,-12.685,M,1.0,0000*5F
$GPGGA,033328.00,3030.68421235,N,11424.08911663,E,4,11,1.4,37.095,M,-12.685,M,1.0,0000*5A
$GPGGA,033329.00,3030.68421200,N,11424.08911780,E,4,11,1.3,37.098,M,-12.685,M,1.0,0000*5B
$GPGGA,033330.00,3030.68421409,N,11424.08911418,E,4,11,1.4,37.090,M,-12.685,M,1.0,0000*51
$GPGGA,033331.00,3030.68421016,N,11424.08911966,E,4,12,1.3,37.115,M,-12.685,M,1.0,0000*56
$GPGGA,033332.00,3030.68421270,N,11424.08911491,E,4,12,1.3,37.099,M,-12.685,M,1.0,0000*57
$GPGGA,033333.00,3030.68421006,N,11424.08911718,E,4,12,1.3,37.107,M,-12.685,M,1.0,0000*51
$GPGGA,033334.00,3030.68421383,N,11424.08911945,E,4,12,1.3,37.111,M,-12.685,M,1.0,0000*59
$GPGGA,033335.00,3030.68421368,N,11424.08911697,E,4,12,1.3,37.096,M,-12.685,M,1.0,0000*53
$GPGGA,033336.00,3030.68421228,N,11424.08911601,E,4,12,1.3,37.101,M,-12.685,M,1.0,0000*55
$GPGGA,033337.00,3030.68421106,N,11424.08911751,E,4,12,1.3,37.103,M,-12.685,M,1.0,0000*5D
$GPGGA,033338.00,3030.68421162,N,11424.08911725,E,4,12,1.3,37.099,M,-12.685,M,1.0,0000*51
$GPGGA,033339.00,3030.68421091,N,11424.08911786,E,4,12,1.3,37.106,M,-12.685,M,1.0,0000*53
$GPGGA,033340.00,3030.68421069,N,11424.08911522,E,4,12,1.3,37.105,M,-12.685,M,1.0,0000*55
$GPGGA,033341.00,3030.68421234,N,11424.08911749,E,4,12,1.3,37.096,M,-12.685,M,1.0,0000*5A
$GPGGA,033342.00,3030.68421362,N,11424.08911823,E,4,12,1.3,37.107,M,-12.685,M,1.0,0000*51
$GPGGA,033343.00,3030.68421272,N,11424.08911493,E,4,12,1.3,37.099,M,-12.685,M,1.0,0000*51
$GPGGA,033344.00,3030.68421125,N,11424.08911560,E,4,12,1.3,37.101,M,-12.685,M,1.0,0000*5A
$GPGGA,033345.00,3030.68421278,N,11424.08911751,E,4,12,1.3,37.109,M,-12.685,M,1.0,0000*58
$GPGGA,033346.00,3030.68420921,N,11424.08911605,E,4,12,1.3,37.100,M,-12.685,M,1.0,0000*54
$GPGGA,033347.00,3030.68421225,N,11424.08911813,E,4,12,1.3,37.097,M,-12.685,M,1.0,0000*5D
$GPGGA,033348.00,3030.68421064,N,11424.08911642,E,4,12,1.3,37.102,M,-12.685,M,1.0,0000*52
$GPGGA,033349.00,3030.68421656,N,11424.08911268,E,4,12,1.3,37.086,M,-12.685,M,1.0,0000*55
$GPGGA,033350.00,3030.68420916,N,11424.08911700,E,4,12,1.3,37.105,M,-12.685,M,1.0,0000*56
$GPGGA,033351.00,3030.68421104,N,11424.08911711,E,4,12,1.3,37.105,M,-12.685,M,1.0,0000*5D
$GPGGA,033352.00,3030.68421387,N,11424.08911452,E,4,12,1.3,37.093,M,-12.685,M,1.0,0000*5D
$GPGGA,033353.00,3030.68421258,N,11424.08911569,E,4,12,1.3,37.099,M,-12.685,M,1.0,0000*5C
$GPGGA,033354.00,3030.68420906,N,11424.08911944,E,4,12,1.3,37.105,M,-12.685,M,1.0,0000*5D
$GPGGA,033355.00,3030.68421002,N,11424.08911885,E,4,12,1.3,37.119,M,-12.685,M,1.0,0000*51
$GPGGA,033356.00,3030.68421475,N,11424.08911750,E,4,12,1.2,37.101,M,-12.685,M,1.0,0000*59
$GPGGA,033357.00,3030.68421123,N,11424.08911889,E,4,12,1.3,37.110,M,-12.685,M,1.0,0000*54
$GPGGA,033358.00,3030.68421018,N,11424.08912014,E,4,12,1.3,37.111,M,-12.685,M,2.0,0000*5F
$GPGGA,033359.00,3030.68420964,N,11424.08911870,E,4,12,1.3,37.117,M,-12.685,M,1.0,0000*51
$GPGGA,033400.00,3030.68420798,N,11424.08912199,E,4,11,1.2,37.120,M,-12.685,M,2.0,0000*5F
$GPGGA,033401.00,3030.68420922,N,11424.08912299,E,4,11,1.3,37.119,M,-12.685,M,3.0,0000*58
$GPGGA,033402.00,3030.68421544,N,11424.08911554,E,4,12,1.3,37.091,M,-12.685,M,2.0,0000*50
$GPGGA,033403.00,3030.68421143,N,11424.08911778,E,4,12,1.2,37.106,M,-12.685,M,1.0,0000*53
$GPGGA,033404.00,3030.68421461,N,11424.08911393,E,4,12,1.3,37.097,M,-12.685,M,1.0,0000*58
$GPGGA,033405.00,3030.68421368,N,11424.08911641,E,4,12,1.3,37.108,M,-12.685,M,1.0,0000*5A
$GPGGA,033406.00,3030.68421346,N,11424.08911511,E,4,11,1.2,37.110,M,-12.685,M,1.0,0000*58
$GPGGA,033407.00,3030.68420972,N,11424.08911802,E,4,11,1.3,37.112,M,-12.685,M,1.0,0000*59
$GPGGA,033408.00,3030.68421303,N,11424.08911557,E,4,12,1.3,37.105,M,-12.685,M,1.0,0000*53
$GPGGA,033409.00,3030.68421455,N,11424.08911428,E,4,12,1.3,37.093,M,-12.685,M,1.0,0000*51
$GPGGA,033410.00,3030.68421601,N,11424.08911523,E,4,12,1.2,37.087,M,-12.685,M,1.0,0000*54
$GPGGA,033411.00,3030.68421331,N,11424.08911617,E,4,12,0.9,37.090,M,-12.685,M,1.0,0000*5B
$GPGGA,033412.00,3030.68421245,N,11424.08911224,E,4,12,1.3,37.076,M,-12.685,M,1.0,0000*5D
$GPGGA,033413.00,3030.68421485,N,11424.08911500,E,4,12,1.2,37.092,M,-12.685,M,1.0,0000*5C
$GPGGA,033414.00,3030.68421218,N,11424.08911258,E,4,12,0.9,37.093,M,-12.685,M,1.0,0000*58
$GPGGA,033415.00,3030.68421694,N,11424.08911287,E,4,12,1.3,37.084,M,-12.685,M,1.0,0000*56
$GPGGA,033416.00,3030.68421580,N,11424.08911369,E,4,12,1.3,37.078,M,-12.685,M,1.0,0000*51
$GPGGA,033417.00,3030.68421414,N,11424.08911481,E,4,12,0.9,37.080,M,-12.685,M,1.0,0000*51
$GPGGA,033418.00,3030.68421407,N,11424.08911244,E,4,12,1.3,37.081,M,-12.685,M,1.0,0000*59
$GPGGA,033419.00,3030.68421378,N,11424.08911643,E,4,11,1.3,37.101,M,-12.685,M,1.0,0000*5E
$GPGGA,033420.00,3030.68421333,N,11424.08911496,E,4,12,1.2,37.095,M,-12.685,M,1.0,0000*5F
$GPGGA,033421.00,3030.68421130,N,11424.08911758,E,4,12,0.9,37.093,M,-12.685,M,1.0,0000*52
$GPGGA,033422.00,3030.68421688,N,11424.08911337,E,4,12,1.3,37.082,M,-12.685,M,1.0,0000*53
$GPGGA,033423.00,3030.68421357,N,11424.08911095,E,4,12,1.2,37.089,M,-12.685,M,1.0,0000*54
$GPGGA,033424.00,3030.68421722,N,11424.08911137,E,4,12,1.3,37.075,M,-12.685,M,1.0,0000*5E
$GPGGA,033425.00,3030.68421247,N,11424.08911779,E,4,12,1.3,37.107,M,-12.685,M,1.0,0000*51
$GPGGA,033426.00,3030.68421578,N,11424.08911047,E,4,11,1.3,37.075,M,-12.685,M,1.0,0000*54
$GPGGA,033427.00,3030.68421716,N,11424.08911084,E,4,12,1.2,37.073,M,-12.685,M,1.0,0000*54
$GPGGA,033428.00,3030.68421666,N,11424.08911081,E,4,12,1.3,37.086,M,-12.685,M,1.0,0000*53
$GPGGA,033429.00,3030.68421143,N,11424.08910935,E,4,12,1.3,37.082,M,-12.685,M,1.0,0000*51
$GPGGA,033430.00,3030.68421456,N,11424.08911074,E,4,12,1.2,37.084,M,-12.685,M,1.0,0000*52
$GPGGA,033431.00,3030.68421578,N,11424.08911285,E,4,12,1.3,37.089,M,-12.685,M,1.0,0000*5E
$GPGGA,033432.00,3030.68421880,N,11424.08911204,E,4,12,1.3,37.088,M,-12.685,M,1.0,0000*5F
$GPGGA,033433.00,3030.68421590,N,11424.08911501,E,4,12,1.2,37.099,M,-12.685,M,1.0,0000*51
$GPGGA,033434.00,3030.68421397,N,11424.08911326,E,4,12,1.3,37.096,M,-12.685,M,1.0,0000*5A
$GPGGA,033435.00,3030.68421587,N,11424.08911159,E,4,12,1.3,37.090,M,-12.685,M,1.0,0000*50
$GPGGA,033436.00,3030.68421353,N,11424.08911670,E,4,12,1.3,37.101,M,-12.685,M,1.0,0000*59
$GPGGA,033437.00,3030.68421135,N,11424.08911907,E,4,12,1.2,37.116,M,-12.685,M,1.0,0000*52
$GPGGA,033438.00,3030.68421748,N,11424.08911254,E,4,12,1.3,37.098,M,-12.685,M,1.0,0000*5A
$GPGGA,033439.00,3030.68421348,N,11424.08911430,E,4,12,1.3,37.096,M,-12.685,M,1.0,0000*55
$GPGGA,033440.00,3030.68421342,N,11424.08911671,E,4,11,1.2,37.108,M,-12.685,M,1.0,0000*52
$GPGGA,033441.00,3030.68421517,N,11424.08911665,E,4,10,1.3,37.098,M,-12.685,M,1.0,0000*58
$GPGGA,033442.00,3030.68421512,N,11424.08911621,E,4,10,1.3,37.103,M,-12.685,M,1.0,0000*5D
$GPGGA,033443.00,3030.68421236,N,11424.08911818,E,4,09,1.3,37.107,M,-12.685,M,1.0,0000*55
$GPGGA,033444.00,3030.68420795,N,11424.08911876,E,4,10,1.3,37.115,M,-12.685,M,1.0,0000*5C
$GPGGA,033445.00,3030.68421497,N,11424.08911319,E,4,10,1.3,37.094,M,-12.685,M,1.0,0000*57
$GPGGA,033446.00,3030.68421365,N,11424.08911652,E,4,09,1.3,37.106,M,-12.685,M,1.0,0000*56
$GPGGA,033447.00,3030.68421400,N,11424.08911543,E,4,12,1.3,37.101,M,-12.685,M,1.0,0000*5D
$GPGGA,033448.00,3030.68421517,N,11424.08911600,E,4,10,1.3,37.105,M,-12.685,M,1.0,0000*57
$GPGGA,033449.00,3030.68421303,N,11424.08911764,E,4,10,1.3,37.110,M,-12.685,M,1.0,0000*52
$GPGGA,033450.00,3030.68421302,N,11424.08911476,E,4,10,1.3,37.095,M,-12.685,M,1.0,0000*57
$GPGGA,033451.00,3030.68421280,N,11424.08911622,E,4,12,1.3,37.110,M,-12.685,M,1.0,0000*50
$GPGGA,033452.00,3030.68421687,N,11424.08911474,E,4,10,1.4,37.102,M,-12.685,M,1.0,0000*57
$GPGGA,033453.00,3030.68421475,N,11424.08911188,E,4,13,1.3,37.100,M,-12.685,M,1.0,0000*59
$GPGGA,033454.00,3030.68421029,N,11424.08911829,E,4,11,1.4,37.113,M,-12.685,M,1.0,0000*56
$GPGGA,033455.00,3030.68421377,N,11424.08911575,E,4,10,1.4,37.105,M,-12.685,M,1.0,0000*5D
$GPGGA,033456.00,3030.68421035,N,11424.08912076,E,4,13,1.1,37.118,M,-12.685,M,1.0,0000*54
$GPGGA,033457.00,3030.68421136,N,11424.08911867,E,4,11,1.3,37.108,M,-12.685,M,1.0,0000*5D
$GPGGA,033458.00,3030.68421131,N,11424.08911591,E,4,09,1.4,37.111,M,-12.685,M,1.0,0000*57
$GPGGA,033459.00,3030.68421310,N,11424.08911585,E,4,10,1.4,37.104,M,-12.685,M,1.0,0000*5E
$GPGGA,033500.00,3030.68421301,N,11424.08911413,E,4,13,1.0,37.106,M,-12.685,M,1.0,0000*58
$GPGGA,033501.00,3030.68421110,N,11424.08911688,E,4,11,1.4,37.109,M,-12.685,M,1.0,0000*52
$GPGGA,033502.00,3030.68421378,N,11424.08911358,E,4,10,1.4,37.105,M,-12.685,M,1.0,0000*58
$GPGGA,033503.00,3030.68420984,N,11424.08911678,E,4,13,1.0,37.110,M,-12.685,M,1.0,0000*55
$GPGGA,033504.00,3030.68420812,N,11424.08911836,E,4,11,1.4,37.113,M,-12.685,M,1.0,0000*5D
$GPGGA,033505.00,3030.68420942,N,11424.08911919,E,4,10,1.4,37.111,M,-12.685,M,1.0,0000*57
$GPGGA,033506.00,3030.68421059,N,11424.08911599,E,4,10,1.1,37.108,M,-12.685,M,1.0,0000*5F
$GPGGA,033507.00,3030.68421313,N,11424.08911621,E,4,10,1.3,37.111,M,-12.685,M,1.0,0000*59
$GPGGA,033508.00,3030.68421175,N,11424.08912005,E,4,09,1.4,37.113,M,-12.685,M,1.0,0000*5A
$GPGGA,033509.00,3030.68421500,N,11424.08911213,E,4,10,1.4,37.084,M,-12.685,M,1.0,0000*5C
$GPGGA,033510.00,3030.68421557,N,11424.08911277,E,4,09,1.3,37.085,M,-12.685,M,1.0,0000*5A
$GPGGA,033511.00,3030.68421403,N,11424.08911956,E,4,10,1.4,37.103,M,-12.685,M,1.0,0000*53
$GPGGA,033512.00,3030.68421362,N,11424.08911880,E,4,10,1.4,37.102,M,-12.685,M,1.0,0000*5B
$GPGGA,033513.00,3030.68421195,N,11424.08911841,E,4,10,1.3,37.105,M,-12.685,M,1.0,0000*5D
$GPGGA,033514.00,3030.68421056,N,11424.08912055,E,4,10,1.4,37.105,M,-12.685,M,1.0,0000*5D
$GPGGA,033515.00,3030.68421223,N,11424.08911739,E,4,10,1.4,37.097,M,-12.685,M,1.0,0000*58
$GPGGA,033516.00,3030.68421288,N,11424.08911749,E,4,10,1.4,37.096,M,-12.685,M,1.0,0000*5C
$GPGGA,033517.00,3030.68421104,N,11424.08912370,E,4,10,1.3,37.111,M,-12.685,M,1.0,0000*5E
$GPGGA,033518.00,3030.68421126,N,11424.08912158,E,4,10,1.4,37.104,M,-12.685,M,1.0,0000*5A
$GPGGA,033519.00,3030.68420805,N,11424.08911828,E,4,10,1.4,37.110,M,-12.685,M,1.0,0000*5A
$GPGGA,033520.00,3030.68421108,N,11424.08911599,E,4,10,1.3,37.101,M,-12.685,M,1.0,0000*55
$GPGGA,033521.00,3030.68421117,N,11424.08911412,E,4,10,1.4,37.087,M,-12.685,M,1.0,0000*50
$GPGGA,033522.00,3030.68421336,N,11424.08911762,E,4,10,1.4,37.103,M,-12.685,M,1.0,0000*5B
$GPGGA,033523.00,3030.68421249,N,11424.08912068,E,4,10,1.4,37.102,M,-12.685,M,1.0,0000*5C
$GPGGA,033524.00,3030.68421533,N,11424.08911349,E,4,10,1.3,37.084,M,-12.685,M,1.0,0000*5A
$GPGGA,033525.00,3030.68421648,N,11424.08911615,E,4,10,1.4,37.085,M,-12.685,M,1.0,0000*5E
$GPGGA,033526.00,3030.68421102,N,11424.08911414,E,4,10,1.4,37.095,M,-12.685,M,1.0,0000*56
$GPGGA,033527.00,3030.68421278,N,11424.08911762,E,4,10,1.3,37.102,M,-12.685,M,1.0,0000*53
$GPGGA,033528.00,3030.68421439,N,11424.08911662,E,4,09,1.4,37.097,M,-12.685,M,1.0,0000*5C
$GPGGA,033529.00,3030.68421465,N,11424.08911397,E,4,10,1.4,37.103,M,-12.685,M,1.0,0000*5F
$GPGGA,033530.00,3030.68421144,N,11424.08911480,E,4,10,1.3,37.106,M,-12.685,M,1.0,0000*52
$GPGGA,033531.00,3030.68421186,N,11424.08911869,E,4,09,1.4,37.111,M,-12.685,M,1.0,0000*5F
$GPGGA,033532.00,3030.68420889,N,11424.08911531,E,4,10,1.4,37.101,M,-12.685,M,1.0,0000*52
$GPGGA,033533.00,3030.68421294,N,11424.08911764,E,4,10,1.4,37.114,M,-12.685,M,1.0,0000*52
$GPGGA,033534.00,3030.68421418,N,11424.08911559,E,4,10,1.3,37.106,M,-12.685,M,1.0,0000*5F
$GPGGA,033535.00,3030.68421214,N,11424.08911811,E,4,10,1.4,37.110,M,-12.685,M,1.0,0000*55
$GPGGA,033536.00,3030.68421641,N,11424.08911512,E,4,10,1.4,37.106,M,-12.685,M,1.0,0000*5B
$GPGGA,033537.00,3030.68421453,N,11424.08911387,E,4,10,1.3,37.101,M,-12.685,M,1.0,0000*51
$GPGGA,033538.00,3030.68421498,N,11424.08911442,E,4,10,1.4,37.103,M,-12.685,M,1.0,0000*52
$GPGGA,033539.00,3030.68421462,N,11424.08911222,E,4,10,1.4,37.095,M,-12.685,M,1.0,0000*58
$GPGGA,033540.00,3030.68421715,N,11424.08911095,E,4,09,1.3,37.093,M,-12.685,M,1.0,0000*52
$GPGGA,033541.00,3030.68421486,N,11424.08911281,E,4,10,1.4,37.085,M,-12.685,M,1.0,0000*55
$GPGGA,033542.00,3030.68421359,N,11424.08911232,E,4,10,1.4,37.102,M,-12.685,M,1.0,0000*55
$GPGGA,033543.00,3030.68421759,N,11424.08911082,E,4,10,1.4,37.093,M,-12.685,M,1.0,0000*50
$GPGGA,033544.00,3030.68421296,N,11424.08911403,E,4,10,1.3,37.101,M,-12.685,M,1.0,0000*51
$GPGGA,033545.00,3030.68421725,N,11424.08911439,E,4,09,1.4,37.083,M,-12.685,M,1.0,0000*50
$GPGGA,033546.00,3030.68421614,N,11424.08910618,E,4,11,1.3,37.069,M,-12.685,M,1.0,0000*5A
$GPGGA,033547.00,3030.68421561,N,11424.08911094,E,4,11,1.3,37.081,M,-12.685,M,1.0,0000*5F
$GPGGA,033548.00,3030.68421373,N,11424.08911253,E,4,11,1.3,37.087,M,-12.685,M,1.0,0000*5A
$GPGGA,033549.00,3030.68421161,N,11424.08911546,E,4,11,1.3,37.093,M,-12.685,M,1.0,0000*5C
$GPGGA,033550.00,3030.68421608,N,11424.08911127,E,4,11,1.3,37.078,M,-12.685,M,1.0,0000*5A
$GPGGA,033551.00,3030.68421760,N,11424.08910862,E,4,11,1.3,37.071,M,-12.685,M,1.0,0000*54
$GPGGA,033552.00,3030.68421658,N,11424.08910698,E,4,10,1.3,37.069,M,-12.685,M,1.0,0000*5E
$GPGGA,033553.00,3030.68421737,N,11424.08910916,E,4,11,1.3,37.073,M,-12.685,M,1.0,0000*54
$GPGGA,033554.00,3030.68421548,N,11424.08911030,E,4,11,1.3,37.073,M,-12.685,M,1.0,0000*55
$GPGGA,033555.00,3030.68421690,N,11424.08910810,E,4,11,1.3,37.081,M,-12.685,M,1.0,0000*54
$GPGGA,033556.00,3030.68421646,N,11424.08910898,E,4,11,1.3,37.067,M,-12.685,M,1.0,0000*54
$GPGGA,033557.00,3030.68421660,N,11424.08910826,E,4,11,1.3,37.070,M,-12.685,M,1.0,0000*52
$GPGGA,033558.00,3030.68421715,N,11424.08911000,E,4,11,1.3,37.077,M,-12.685,M,1.0,0000*54
$GPGGA,033559.00,3030.68421790,N,11424.08910771,E,4,10,1.3,37.068,M,-12.685,M,1.0,0000*57
$GPGGA,033600.00,3030.68422048,N,11424.08910327,E,4,11,1.4,37.049,M,-12.685,M,1.0,0000*5B
$GPGGA,033601.00,3030.68421908,N,11424.08910465,E,4,10,1.4,37.049,M,-12.685,M,2.0,0000*57
$GPGGA,033602.00,3030.68421584,N,11424.08910705,E,4,10,1.3,37.056,M,-12.685,M,2.0,0000*50
$GPGGA,033603.00,3030.68421648,N,11424.08910910,E,4,11,1.3,37.062,M,-12.685,M,2.0,0000*5E
$GPGGA,033604.00,3030.68421780,N,11424.08910748,E,4,10,1.3,37.060,M,-12.685,M,1.0,0000*5F
$GPGGA,033605.00,3030.68421508,N,11424.08910911,E,4,11,1.3,37.066,M,-12.685,M,1.0,0000*59
$GPGGA,033606.00,3030.68422139,N,11424.08910489,E,4,13,1.3,37.056,M,-12.685,M,1.0,0000*52
$GPGGA,033607.00,3030.68421548,N,11424.08911053,E,4,13,1.3,37.071,M,-12.685,M,1.0,0000*55
$GPGGA,033608.00,3030.68421929,N,11424.08910700,E,4,13,1.3,37.073,M,-12.685,M,1.0,0000*53
$GPGGA,033609.00,3030.68421844,N,11424.08910405,E,4,13,1.3,37.051,M,-12.685,M,1.0,0000*5E
$GPGGA,033610.00,3030.68422141,N,11424.08910410,E,4,13,1.3,37.045,M,-12.685,M,1.0,0000*58
$GPGGA,033611.00,3030.68422268,N,11424.08910411,E,4,13,1.3,37.050,M,-12.685,M,1.0,0000*54
$GPGGA,033612.00,3030.68421939,N,11424.08910991,E,4,13,1.3,37.063,M,-12.685,M,1.0,0000*5E
$GPGGA,033613.00,3030.68421480,N,11424.08910880,E,4,13,1.3,37.068,M,-12.685,M,1.0,0000*5A
$GPGGA,033614.00,3030.68421816,N,11424.08910758,E,4,12,1.3,37.065,M,-12.685,M,1.0,0000*58
$GPGGA,033615.00,3030.68421708,N,11424.08911074,E,4,13,1.3,37.072,M,-12.685,M,1.0,0000*56
$GPGGA,033616.00,3030.68421887,N,11424.08910809,E,4,13,1.3,37.057,M,-12.685,M,1.0,0000*59
