$GPGGA,024301.00,3030.67953137,N,11424.11564495,E,4,06,1.2,37.220,M,-12.683,M,1.0,0000*56
$GPGGA,024302.00,3030.67952639,N,11424.11565579,E,4,06,1.2,37.179,M,-12.683,M,1.0,0000*50
$GPGGA,024303.00,3030.67952794,N,11424.11565683,E,4,06,1.2,37.180,M,-12.683,M,1.0,0000*57
$GPGGA,024304.00,3030.67952640,N,11424.11565508,E,4,05,1.2,37.184,M,-12.683,M,1.0,0000*5F
$GPGGA,024305.00,3030.67953080,N,11424.11565129,E,4,06,1.2,37.205,M,-12.683,M,1.0,0000*5B
$GPGGA,024306.00,3030.67952553,N,11424.11565672,E,4,06,1.2,37.176,M,-12.683,M,1.0,0000*5C
$GPGGA,024307.00,3030.67952567,N,11424.11565671,E,4,06,1.2,37.175,M,-12.683,M,1.0,0000*5A
$GPGGA,024308.00,3030.67952447,N,11424.11565726,E,4,05,1.2,37.180,M,-12.683,M,1.0,0000*5C
$GPGGA,024309.00,3030.67953149,N,11424.11564932,E,4,06,1.2,37.194,M,-12.683,M,1.0,0000*5B
$GPGGA,024310.00,3030.67952734,N,11424.11565564,E,4,06,1.2,37.182,M,-12.683,M,1.0,0000*57
$GPGGA,024311.00,3030.67952586,N,11424.11565713,E,4,06,1.2,37.173,M,-12.683,M,1.0,0000*51
$GPGGA,024312.00,3030.67952311,N,11424.11565858,E,4,05,1.2,37.186,M,-12.683,M,1.0,0000*53
$GPGGA,024313.00,3030.67952283,N,11424.11565684,E,4,06,1.2,37.179,M,-12.683,M,1.0,0000*54
$GPGGA,024314.00,3030.67952341,N,11424.11565796,E,4,06,1.2,37.175,M,-12.683,M,1.0,0000*52
$GPGGA,024315.00,3030.67952511,N,11424.11565645,E,4,06,1.2,37.166,M,-12.683,M,1.0,0000*5D
$GPGGA,024316.00,3030.67952243,N,11424.11565928,E,4,06,1.2,37.174,M,-12.683,M,1.0,0000*59
$GPGGA,024317.00,3030.67952929,N,11424.11564659,E,4,06,1.2,37.208,M,-12.683,M,1.0,0000*5F
$GPGGA,024318.00,3030.67952341,N,11424.11565675,E,4,06,1.5,37.182,M,-12.683,M,1.0,0000*5D
$GPGGA,024319.00,3030.67952678,N,11424.11565477,E,4,06,1.5,37.189,M,-12.683,M,1.0,0000*58
$GPGGA,024320.00,3030.67952270,N,11424.11565886,E,4,06,1.5,37.172,M,-12.683,M,1.0,0000*58
$GPGGA,024321.00,3030.67952295,N,11424.11565894,E,4,06,1.5,37.159,M,-12.683,M,2.0,0000*5B
$GPGGA,024322.00,3030.67952964,N,11424.11565040,E,4,06,1.5,37.195,M,-12.683,M,2.0,0000*5C
$GPGGA,024323.00,3030.67952899,N,11424.11565500,E,4,05,1.5,37.179,M,-12.683,M,1.0,0000*5D
$GPGGA,024324.00,3030.67953066,N,11424.11564670,E,4,06,1.5,37.199,M,-12.683,M,1.0,0000*5B
$GPGGA,024325.00,3030.67952663,N,11424.11565290,E,4,06,1.5,37.181,M,-12.683,M,1.0,0000*5A
$GPGGA,024326.00,3030.67952658,N,11424.11565744,E,4,06,1.5,37.167,M,-12.683,M,1.0,0000*55
$GPGGA,024327.00,3030.67952785,N,11424.11565625,E,4,05,1.5,37.178,M,-12.683,M,1.0,0000*5E
$GPGGA,024328.00,3030.67953263,N,11424.11565080,E,4,06,1.5,37.198,M,-12.683,M,1.0,0000*59
$GPGGA,024329.00,3030.67953002,N,11424.11564890,E,4,06,1.5,37.206,M,-12.683,M,1.0,0000*51
$GPGGA,024330.00,3030.67953174,N,11424.11564956,E,4,06,1.5,37.188,M,-12.683,M,1.0,0000*57
$GPGGA,024331.00,3030.67952377,N,11424.11566005,E,4,06,1.5,37.165,M,-12.683,M,1.0,0000*58
$GPGGA,024332.00,3030.67952783,N,11424.11565340,E,4,06,1.5,37.183,M,-12.683,M,1.0,0000*5D
$GPGGA,024333.00,3030.67952494,N,11424.11565590,E,4,06,1.5,37.171,M,-12.683,M,1.0,0000*5F
$GPGGA,024334.00,3030.67952737,N,11424.11565622,E,4,05,1.5,37.180,M,-12.683,M,1.0,0000*55
$GPGGA,024335.00,3030.67952976,N,11424.11565468,E,4,06,1.5,37.184,M,-12.683,M,2.0,0000*57
$GPGGA,024336.00,3030.67952818,N,11424.11565558,E,4,06,1.5,37.185,M,-12.683,M,3.0,0000*5F
$GPGGA,024337.00,3030.67952756,N,11424.11565775,E,4,06,1.5,37.180,M,-12.683,M,2.0,0000*52
$GPGGA,024338.00,3030.67952186,N,11424.11566442,E,4,06,1.5,37.142,M,-12.683,M,1.0,0000*5F
$GPGGA,024339.00,3030.67952539,N,11424.11565600,E,4,06,1.5,37.166,M,-12.683,M,1.0,0000*5F
$GPGGA,024340.00,3030.67952521,N,11424.11565753,E,4,06,1.5,37.167,M,-12.683,M,1.0,0000*5E
$GPGGA,024341.00,3030.67952713,N,11424.11565629,E,4,05,1.5,37.166,M,-12.683,M,1.0,0000*52
$GPGGA,024342.00,3030.67953061,N,11424.11565763,E,4,06,1.5,37.154,M,-12.683,M,1.0,0000*5F
$GPGGA,024343.00,3030.67952829,N,11424.11565488,E,4,06,1.5,37.172,M,-12.683,M,1.0,0000*59
$GPGGA,024344.00,3030.67952844,N,11424.11565724,E,4,06,1.5,37.160,M,-12.683,M,1.0,0000*53
$GPGGA,024345.00,3030.67952711,N,11424.11565459,E,4,06,1.5,37.178,M,-12.683,M,1.0,0000*5D
$GPGGA,024346.00,3030.67952338,N,11424.11565882,E,4,06,1.5,37.168,M,-12.683,M,1.0,0000*5A
$GPGGA,024347.00,3030.67952569,N,11424.11565609,E,4,06,1.5,37.173,M,-12.683,M,1.0,0000*5E
$GPGGA,024348.00,3030.67952968,N,11424.11565234,E,4,05,1.5,37.187,M,-12.683,M,1.0,0000*5E
$GPGGA,024349.00,3030.67953282,N,11424.11564864,E,4,06,1.5,37.202,M,-12.683,M,1.0,0000*52
$GPGGA,024350.00,3030.67952866,N,11424.11565435,E,4,06,1.5,37.182,M,-12.683,M,1.0,0000*59
$GPGGA,024351.00,3030.67952943,N,11424.11565163,E,4,05,1.5,37.197,M,-12.683,M,1.0,0000*5F
$GPGGA,024352.00,3030.67953298,N,11424.11564699,E,4,06,1.5,37.211,M,-12.683,M,1.0,0000*5D
$GPGGA,024353.00,3030.67953142,N,11424.11564796,E,4,06,1.5,37.221,M,-12.683,M,1.0,0000*55
$GPGGA,024354.00,3030.67953023,N,11424.11564877,E,4,06,1.5,37.193,M,-12.683,M,1.0,0000*5E
$GPGGA,024355.00,3030.67953384,N,11424.11564615,E,4,06,1.5,37.211,M,-12.683,M,1.0,0000*52
$GPGGA,024356.00,3030.67953731,N,11424.11563613,E,4,06,1.5,37.245,M,-12.683,M,1.0,0000*5B
$GPGGA,024357.00,3030.67954409,N,11424.11563452,E,4,06,1.5,37.240,M,-12.683,M,1.0,0000*57
$GPGGA,024358.00,3030.67954396,N,11424.11563550,E,4,05,1.5,37.233,M,-12.683,M,1.0,0000*5D
$GPGGA,024359.00,3030.67955214,N,11424.11562731,E,4,06,1.5,37.258,M,-12.683,M,1.0,0000*5C
$GPGGA,024400.00,3030.67955498,N,11424.11562449,E,4,06,1.5,37.256,M,-12.683,M,1.0,0000*57
$GPGGA,024401.00,3030.67952499,N,11424.11565656,E,4,05,1.5,37.182,M,-12.683,M,1.0,0000*52
$GPGGA,024402.00,3030.67953428,N,11424.11564356,E,4,06,1.5,37.209,M,-12.683,M,1.0,0000*5D
$GPGGA,024403.00,3030.67952747,N,11424.11564984,E,4,06,1.5,37.197,M,-12.683,M,1.0,0000*56
$GPGGA,024404.00,3030.67953582,N,11424.11565097,E,4,06,1.5,37.189,M,-12.683,M,1.0,0000*5E
$GPGGA,024405.00,3030.67953235,N,11424.11564595,E,4,06,1.5,37.221,M,-12.683,M,1.0,0000*53
$GPGGA,024406.00,3030.67952854,N,11424.11565452,E,4,06,1.5,37.190,M,-12.683,M,1.0,0000*5E
$GPGGA,024407.00,3030.67952990,N,11424.11565396,E,4,06,1.5,37.184,M,-12.683,M,1.0,0000*5C
$GPGGA,024408.00,3030.67952773,N,11424.11565509,E,4,05,1.5,37.158,M,-12.683,M,1.0,0000*52
$GPGGA,024409.00,3030.67953234,N,11424.11565447,E,4,06,1.5,37.150,M,-12.683,M,1.0,0000*54
$GPGGA,024410.00,3030.67953464,N,11424.11565066,E,4,06,1.5,37.157,M,-12.683,M,1.0,0000*5F
$GPGGA,024411.00,3030.67953483,N,11424.11564868,E,4,06,1.5,37.183,M,-12.683,M,1.0,0000*59
$GPGGA,024412.00,3030.67953483,N,11424.11564538,E,4,06,1.5,37.190,M,-12.683,M,1.0,0000*50
$GPGGA,024413.00,3030.67953711,N,11424.11564652,E,4,06,1.5,37.187,M,-12.683,M,1.0,0000*50
$GPGGA,024414.00,3030.67953143,N,11424.11564945,E,4,06,1.5,37.173,M,-12.683,M,1.0,0000*54
$GPGGA,024415.00,3030.67953416,N,11424.11565267,E,4,05,1.5,37.158,M,-12.683,M,1.0,0000*50
$GPGGA,024416.00,3030.67953685,N,11424.11564518,E,4,06,1.5,37.191,M,-12.683,M,1.0,0000*53
$GPGGA,024417.00,3030.67953701,N,11424.11564668,E,4,06,1.5,37.176,M,-12.683,M,1.0,0000*52
$GPGGA,024418.00,3030.67953456,N,11424.11564356,E,4,05,1.5,37.201,M,-12.683,M,1.0,0000*54
$GPGGA,024419.00,3030.67953982,N,11424.11563844,E,4,06,1.5,37.218,M,-12.683,M,1.0,0000*55
$GPGGA,024420.00,3030.67953969,N,11424.11563639,E,4,06,1.5,37.226,M,-12.683,M,1.0,0000*53
$GPGGA,024421.00,3030.67954185,N,11424.11563547,E,4,06,1.5,37.229,M,-12.683,M,1.0,0000*5A
$GPGGA,024422.00,3030.67954164,N,11424.11563711,E,4,06,1.5,37.226,M,-12.683,M,1.0,0000*58
$GPGGA,024423.00,3030.67954069,N,11424.11563586,E,4,06,1.5,37.229,M,-12.683,M,1.0,0000*56
$GPGGA,024424.00,3030.67953832,N,11424.11563525,E,4,06,1.5,37.235,M,-12.683,M,1.0,0000*54
$GPGGA,024425.00,3030.67953749,N,11424.11564185,E,4,05,1.5,37.212,M,-12.683,M,1.0,0000*59
$GPGGA,024426.00,3030.67954508,N,11424.11562957,E,4,06,1.5,37.250,M,-12.683,M,1.0,0000*5E
$GPGGA,024427.00,3030.67954448,N,11424.11563055,E,4,06,1.5,37.252,M,-12.683,M,2.0,0000*51
$GPGGA,024428.00,3030.67953754,N,11424.11564067,E,4,06,1.5,37.218,M,-12.683,M,1.0,0000*5C
$GPGGA,024429.00,3030.67953833,N,11424.11564378,E,4,06,1.5,37.213,M,-12.683,M,1.0,0000*55
$GPGGA,024430.00,3030.67953856,N,11424.11564428,E,4,06,1.5,37.209,M,-12.683,M,1.0,0000*57
$GPGGA,024431.00,3030.67953898,N,11424.11564248,E,4,06,1.5,37.230,M,-12.683,M,1.0,0000*5E
$GPGGA,024432.00,3030.67953398,N,11424.11564630,E,4,06,1.5,37.209,M,-12.683,M,1.0,0000*57
$GPGGA,024433.00,3030.67953913,N,11424.11563905,E,4,06,1.5,37.227,M,-12.683,M,1.0,0000*5D
$GPGGA,024434.00,3030.67954103,N,11424.11563491,E,4,06,1.5,37.257,M,-12.683,M,1.0,0000*53
$GPGGA,024435.00,3030.67954281,N,11424.11563615,E,4,05,1.5,37.248,M,-12.683,M,1.0,0000*58
$GPGGA,024436.00,3030.67954329,N,11424.11563919,E,4,06,1.5,37.233,M,-12.683,M,1.0,0000*54
$GPGGA,024437.00,3030.67953635,N,11424.11564401,E,4,06,1.5,37.215,M,-12.683,M,1.0,0000*5D
$GPGGA,024438.00,3030.67953561,N,11424.11564436,E,4,06,1.5,37.212,M,-12.683,M,1.0,0000*53
$GPGGA,024439.00,3030.67953893,N,11424.11564062,E,4,06,1.5,37.234,M,-12.683,M,1.0,0000*53
$GPGGA,024440.00,3030.67954219,N,11424.11564068,E,4,06,1.5,37.215,M,-12.683,M,1.0,0000*5B
$GPGGA,024441.00,3030.67953657,N,11424.11564307,E,4,06,1.5,37.226,M,-12.683,M,1.0,0000*59
$GPGGA,024442.00,3030.67954236,N,11424.11564011,E,4,05,1.5,37.241,M,-12.683,M,1.0,0000*58
$GPGGA,024443.00,3030.67954195,N,11424.11563686,E,4,06,1.5,37.242,M,-12.683,M,1.0,0000*5C
$GPGGA,024444.00,3030.67954682,N,11424.11563271,E,4,06,1.5,37.256,M,-12.683,M,1.0,0000*53
$GPGGA,024445.00,3030.67953958,N,11424.11564394,E,4,06,1.5,37.226,M,-12.683,M,1.0,0000*57
$GPGGA,024446.00,3030.67953516,N,11424.11564521,E,4,06,1.5,37.212,M,-12.683,M,1.0,0000*5D
$GPGGA,024447.00,3030.67953490,N,11424.11564389,E,4,06,1.5,37.213,M,-12.683,M,2.0,0000*55
$GPGGA,024448.00,3030.67953638,N,11424.11564547,E,4,06,1.5,37.212,M,-12.683,M,1.0,0000*5C
$GPGGA,024449.00,3030.67953671,N,11424.11564463,E,4,05,1.5,37.226,M,-12.683,M,1.0,0000*53
$GPGGA,024450.00,3030.67954417,N,11424.11564026,E,4,06,1.5,37.234,M,-12.683,M,1.0,0000*5B
$GPGGA,024451.00,3030.67954083,N,11424.11564376,E,4,06,1.5,37.223,M,-12.683,M,1.0,0000*53
$GPGGA,024452.00,3030.67954043,N,11424.11564461,E,4,06,1.5,37.220,M,-12.683,M,1.0,0000*5E
$GPGGA,024453.00,3030.67954039,N,11424.11564503,E,4,06,1.5,37.223,M,-12.683,M,1.0,0000*54
$GPGGA,024454.00,3030.67954053,N,11424.11564599,E,4,06,1.5,37.206,M,-12.683,M,1.0,0000*5B
$GPGGA,024455.00,3030.67953815,N,11424.11564604,E,4,06,1.5,37.224,M,-12.683,M,1.0,0000*50
$GPGGA,024456.00,3030.67953791,N,11424.11564616,E,4,05,1.5,37.223,M,-12.683,M,1.0,0000*57
$GPGGA,024457.00,3030.67954521,N,11424.11563725,E,4,06,1.5,37.240,M,-12.683,M,1.0,0000*58
$GPGGA,024458.00,3030.67953985,N,11424.11564575,E,4,06,1.5,37.214,M,-12.683,M,1.0,0000*53
$GPGGA,024459.00,3030.67953854,N,11424.11564547,E,4,06,1.5,37.219,M,-12.683,M,1.0,0000*53
$GPGGA,024500.00,3030.67952299,N,11424.11565745,E,4,06,1.5,37.173,M,-12.683,M,1.0,0000*5A
$GPGGA,024501.00,3030.67951762,N,11424.11566047,E,4,06,1.5,37.179,M,-12.683,M,1.0,0000*55
$GPGGA,024502.00,3030.67952245,N,11424.11566078,E,4,06,1.5,37.157,M,-12.683,M,1.0,0000*55
$GPGGA,024503.00,3030.67952218,N,11424.11565505,E,4,05,1.5,37.194,M,-12.683,M,1.0,0000*5C
$GPGGA,024504.00,3030.67952671,N,11424.11565435,E,4,06,1.5,37.173,M,-12.683,M,1.0,0000*58
$GPGGA,024505.00,3030.67952341,N,11424.11566183,E,4,06,1.5,37.155,M,-12.683,M,1.0,0000*50
$GPGGA,024506.00,3030.67952283,N,11424.11565988,E,4,06,1.5,37.137,M,-12.683,M,1.0,0000*58
$GPGGA,024507.00,3030.67952192,N,11424.11565952,E,4,06,1.5,37.158,M,-12.683,M,1.0,0000*54
$GPGGA,024508.00,3030.67952198,N,11424.11566103,E,4,06,1.5,37.156,M,-12.683,M,1.0,0000*50
$GPGGA,024509.00,3030.67952128,N,11424.11566006,E,4,06,1.5,37.161,M,-12.683,M,1.0,0000*5A
$GPGGA,024510.00,3030.67952451,N,11424.11566107,E,4,05,1.5,37.151,M,-12.683,M,1.0,0000*59
$GPGGA,024511.00,3030.67952783,N,11424.11565669,E,4,06,1.5,37.152,M,-12.683,M,1.0,0000*58
$GPGGA,024512.00,3030.67952449,N,11424.11566257,E,4,06,1.5,37.133,M,-12.683,M,1.0,0000*53
$GPGGA,024513.00,3030.67952112,N,11424.11566072,E,4,06,1.5,37.162,M,-12.683,M,1.0,0000*58
$GPGGA,024514.00,3030.67952274,N,11424.11565876,E,4,06,1.5,37.150,M,-12.683,M,1.0,0000*52
$GPGGA,024515.00,3030.67952151,N,11424.11566106,E,4,06,1.5,37.142,M,-12.683,M,1.0,0000*59
$GPGGA,024516.00,3030.67952465,N,11424.11566152,E,4,06,1.5,37.145,M,-12.683,M,1.0,0000*5E
$GPGGA,024517.00,3030.67952224,N,11424.11566090,E,4,05,1.5,37.145,M,-12.683,M,2.0,0000*53
$GPGGA,024518.00,3030.67952860,N,11424.11565123,E,4,06,1.5,37.166,M,-12.683,M,1.0,0000*5D
$GPGGA,024519.00,3030.67952271,N,11424.11566208,E,4,06,1.5,37.144,M,-12.683,M,1.0,0000*5F
$GPGGA,024520.00,3030.67952055,N,11424.11566204,E,4,06,1.5,37.154,M,-12.683,M,1.0,0000*5C
$GPGGA,024521.00,3030.67951856,N,11424.11566337,E,4,06,1.5,37.142,M,-12.683,M,1.0,0000*53
$GPGGA,024522.00,3030.67952186,N,11424.11566133,E,4,06,1.5,37.145,M,-12.683,M,1.0,0000*56
$GPGGA,024523.00,3030.67951965,N,11424.11566231,E,4,06,1.5,37.151,M,-12.683,M,1.0,0000*55
$GPGGA,024524.00,3030.67952198,N,11424.11566218,E,4,05,1.5,37.147,M,-12.683,M,1.0,0000*54
$GPGGA,024525.00,3030.67952935,N,11424.11565190,E,4,06,1.5,37.178,M,-12.683,M,1.0,0000*55
$GPGGA,024526.00,3030.67952219,N,11424.11566239,E,4,06,1.5,37.139,M,-12.683,M,1.0,0000*55
$GPGGA,024527.00,3030.67952176,N,11424.11565953,E,4,06,1.5,37.153,M,-12.683,M,1.0,0000*56
$GPGGA,024528.00,3030.67952140,N,11424.11566184,E,4,06,1.5,37.138,M,-12.683,M,1.0,0000*50
$GPGGA,024529.00,3030.67952148,N,11424.11566106,E,4,06,1.5,37.157,M,-12.683,M,1.0,0000*5A
$GPGGA,024530.00,3030.67952259,N,11424.11566109,E,4,06,1.5,37.152,M,-12.683,M,1.0,0000*5B
$GPGGA,024531.00,3030.67951619,N,11424.11566744,E,4,05,1.5,37.138,M,-12.683,M,1.0,0000*59
$GPGGA,024532.00,3030.67952496,N,11424.11566199,E,4,06,1.5,37.132,M,-12.683,M,1.0,0000*53
$GPGGA,024533.00,3030.67953117,N,11424.11565181,E,4,06,1.5,37.172,M,-12.683,M,1.0,0000*51
$GPGGA,024534.00,3030.67952186,N,11424.11566163,E,4,06,1.5,37.149,M,-12.683,M,1.0,0000*58
$GPGGA,024535.00,3030.67951953,N,11424.11566465,E,4,06,1.5,37.133,M,-12.683,M,2.0,0000*57
$GPGGA,024536.00,3030.67951975,N,11424.11566377,E,4,06,1.5,37.136,M,-12.683,M,2.0,0000*51
$GPGGA,024537.00,3030.67951840,N,11424.11566581,E,4,06,1.5,37.137,M,-12.683,M,3.0,0000*58
$GPGGA,024538.00,3030.67951662,N,11424.11566818,E,4,05,1.5,37.133,M,-12.683,M,2.0,0000*52
$GPGGA,024539.00,3030.67952421,N,11424.11565705,E,4,06,1.5,37.173,M,-12.683,M,1.0,0000*51
$GPGGA,024540.00,3030.67952001,N,11424.11566263,E,4,06,1.5,37.165,M,-12.683,M,1.0,0000*58
$GPGGA,024541.00,3030.67952230,N,11424.11566276,E,4,06,1.5,37.155,M,-12.683,M,1.0,0000*5E
$GPGGA,024542.00,3030.67952080,N,11424.11566278,E,4,06,1.5,37.153,M,-12.683,M,1.0,0000*5C
$GPGGA,024543.00,3030.67951995,N,11424.11566131,E,4,06,1.5,37.175,M,-12.683,M,1.0,0000*59
$GPGGA,024544.00,3030.67952298,N,11424.11566226,E,4,06,1.5,37.140,M,-12.683,M,1.0,0000*58
$GPGGA,024545.00,3030.67951973,N,11424.11566498,E,4,05,1.5,37.146,M,-12.683,M,1.0,0000*52
$GPGGA,024546.00,3030.67952954,N,11424.11565574,E,4,06,1.5,37.159,M,-12.683,M,1.0,0000*5A
$GPGGA,024547.00,3030.67952082,N,11424.11566260,E,4,06,1.5,37.154,M,-12.683,M,1.0,0000*55
$GPGGA,024548.00,3030.67952178,N,11424.11566234,E,4,06,1.5,37.140,M,-12.683,M,1.0,0000*5A
$GPGGA,024549.00,3030.67951807,N,11424.11566372,E,4,05,1.5,37.157,M,-12.683,M,1.0,0000*5F
$GPGGA,024550.00,3030.67952744,N,11424.11565647,E,4,06,1.5,37.175,M,-12.683,M,1.0,0000*5F
$GPGGA,024551.00,3030.67952107,N,11424.11566335,E,4,06,1.5,37.146,M,-12.683,M,1.0,0000*5C
$GPGGA,024552.00,3030.67952158,N,11424.11566316,E,4,06,1.5,37.144,M,-12.683,M,1.0,0000*56
$GPGGA,024553.00,3030.67952042,N,11424.11566429,E,4,06,1.5,37.155,M,-12.683,M,1.0,0000*56
$GPGGA,024554.00,3030.67952150,N,11424.11566411,E,4,06,1.5,37.136,M,-12.683,M,1.0,0000*5D
$GPGGA,024555.00,3030.67951841,N,11424.11566511,E,4,06,1.5,37.153,M,-12.683,M,1.0,0000*54
$GPGGA,024556.00,3030.67952474,N,11424.11566070,E,4,05,1.5,37.148,M,-12.683,M,1.0,0000*55
$GPGGA,024557.00,3030.67953029,N,11424.11565590,E,4,06,1.5,37.156,M,-12.683,M,1.0,0000*5D
$GPGGA,024558.00,3030.67952109,N,11424.11566723,E,4,06,1.5,37.139,M,-12.683,M,1.0,0000*50
$GPGGA,024559.00,3030.67951986,N,11424.11566333,E,4,06,1.5,37.143,M,-12.683,M,1.0,0000*55
$GPGGA,024600.00,3030.67952230,N,11424.11566088,E,4,05,1.5,37.154,M,-12.683,M,1.0,0000*59
$GPGGA,024601.00,3030.67952096,N,11424.11566334,E,4,06,1.5,37.153,M,-12.683,M,1.0,0000*56
$GPGGA,024602.00,3030.67952270,N,11424.11566390,E,4,06,1.5,37.153,M,-12.683,M,1.0,0000*51
$GPGGA,024603.00,3030.67952037,N,11424.11566308,E,4,06,1.5,37.145,M,-12.683,M,1.0,0000*57
$GPGGA,024604.00,3030.67952016,N,11424.11566278,E,4,06,1.5,37.148,M,-12.683,M,1.0,0000*58
$GPGGA,024605.00,3030.67952133,N,11424.11566490,E,4,06,1.5,37.147,M,-12.683,M,1.0,0000*50
$GPGGA,024606.00,3030.67952131,N,11424.11566475,E,4,06,1.5,37.149,M,-12.683,M,1.0,0000*54
$GPGGA,024607.00,3030.67951921,N,11424.11566430,E,4,06,1.5,37.153,M,-12.683,M,1.0,0000*55
$GPGGA,024608.00,3030.67951879,N,11424.11566543,E,4,06,1.5,37.143,M,-12.683,M,1.0,0000*52
$GPGGA,024609.00,3030.67951820,N,11424.11566591,E,4,06,1.5,37.138,M,-12.683,M,1.0,0000*5C
$GPGGA,024610.00,3030.67952059,N,11424.11566508,E,4,06,1.5,37.152,M,-12.683,M,1.0,0000*5D
$GPGGA,024611.00,3030.67952076,N,11424.11566503,E,4,06,1.5,37.159,M,-12.683,M,1.0,0000*51
$GPGGA,024612.00,3030.67952037,N,11424.11566438,E,4,06,1.1,37.163,M,-12.683,M,1.0,0000*53
$GPGGA,024613.00,3030.67951922,N,11424.11566537,E,4,06,1.1,37.166,M,-12.683,M,2.0,0000*54
$GPGGA,024614.00,3030.67951672,N,11424.11566490,E,4,06,1.1,37.151,M,-12.683,M,1.0,0000*52
$GPGGA,024615.00,3030.67951897,N,11424.11566525,E,4,05,1.1,37.148,M,-12.683,M,1.0,0000*52
$GPGGA,024616.00,3030.67952875,N,11424.11565987,E,4,06,1.1,37.160,M,-12.683,M,1.0,0000*50
$GPGGA,024617.00,3030.67951547,N,11424.11566617,E,4,06,1.1,37.149,M,-12.683,M,1.0,0000*50
$GPGGA,024618.00,3030.67951855,N,11424.11566718,E,4,06,1.1,37.146,M,-12.683,M,1.0,0000*50
$GPGGA,024619.00,3030.67951806,N,11424.11566758,E,4,05,1.1,37.160,M,-12.683,M,1.0,0000*54
$GPGGA,024620.00,3030.67952156,N,11424.11566795,E,4,06,1.1,37.135,M,-12.683,M,1.0,0000*53
$GPGGA,024621.00,3030.67952031,N,11424.11566916,E,4,06,1.1,37.135,M,-12.683,M,2.0,0000*54
$GPGGA,024622.00,3030.67951864,N,11424.11566532,E,4,06,1.1,37.154,M,-12.683,M,1.0,0000*52
$GPGGA,024623.00,3030.67952031,N,11424.11566603,E,4,05,1.1,37.144,M,-12.683,M,1.0,0000*5B
$GPGGA,024624.00,3030.67952437,N,11424.11566292,E,4,06,1.1,37.146,M,-12.683,M,1.0,0000*53
$GPGGA,024625.00,3030.67951540,N,11424.11566651,E,4,06,1.5,37.155,M,-12.683,M,1.0,0000*5D
$GPGGA,024626.00,3030.67952008,N,11424.11566768,E,4,06,1.5,37.144,M,-12.683,M,1.0,0000*5F
$GPGGA,024627.00,3030.67952288,N,11424.11566539,E,4,05,1.5,37.135,M,-12.683,M,1.0,0000*57
$GPGGA,024628.00,3030.67953013,N,11424.11565923,E,4,06,1.5,37.161,M,-12.683,M,1.0,0000*5F
$GPGGA,024629.00,3030.67951648,N,11424.11566888,E,4,06,1.5,37.133,M,-12.683,M,1.0,0000*50
$GPGGA,024630.00,3030.67951887,N,11424.11566681,E,4,06,1.5,37.129,M,-12.683,M,1.0,0000*59
$GPGGA,024631.00,3030.67951986,N,11424.11566715,E,4,05,1.5,37.142,M,-12.683,M,1.0,0000*5A
$GPGGA,024632.00,3030.67952409,N,11424.11566424,E,4,06,1.5,37.141,M,-12.683,M,1.0,0000*51
$GPGGA,024633.00,3030.67951786,N,11424.11566897,E,4,06,1.5,37.133,M,-12.683,M,1.0,0000*56
$GPGGA,024634.00,3030.67952034,N,11424.11566816,E,4,06,1.5,37.130,M,-12.683,M,1.0,0000*56
$GPGGA,024635.00,3030.67952353,N,11424.11566366,E,4,06,1.5,37.128,M,-12.683,M,1.0,0000*50
$GPGGA,024636.00,3030.67951925,N,11424.11566924,E,4,06,1.5,37.119,M,-12.683,M,1.0,0000*55
$GPGGA,024637.00,3030.67952151,N,11424.11566771,E,4,06,1.5,37.132,M,-12.683,M,1.0,0000*5B
$GPGGA,024638.00,3030.67951918,N,11424.11566998,E,4,06,1.5,37.114,M,-12.683,M,1.0,0000*5F
$GPGGA,024639.00,3030.67951746,N,11424.11566868,E,4,06,1.5,37.121,M,-12.683,M,1.0,0000*53
$GPGGA,024640.00,3030.67952000,N,11424.11566432,E,4,06,1.5,37.142,M,-12.683,M,1.0,0000*5D
$GPGGA,024641.00,3030.67951991,N,11424.11566953,E,4,06,1.5,37.126,M,-12.683,M,1.0,0000*56
$GPGGA,024642.00,3030.67951976,N,11424.11566775,E,4,06,1.5,37.123,M,-12.683,M,1.0,0000*53
$GPGGA,024643.00,3030.67951902,N,11424.11566820,E,4,06,1.5,37.112,M,-12.683,M,1.0,0000*5C
$GPGGA,024644.00,3030.67951979,N,11424.11566878,E,4,06,1.5,37.112,M,-12.683,M,1.0,0000*5A
$GPGGA,024645.00,3030.67951966,N,11424.11567000,E,4,06,1.5,37.102,M,-12.683,M,1.0,0000*52
$GPGGA,024646.00,3030.67951715,N,11424.11566844,E,4,06,1.5,37.123,M,-12.683,M,2.0,0000*52
$GPGGA,024647.00,3030.67951952,N,11424.11566793,E,4,06,1.5,37.129,M,-12.683,M,2.0,0000*51
$GPGGA,024648.00,3030.67951796,N,11424.11566829,E,4,06,1.1,37.126,M,-12.683,M,1.0,0000*5E
$GPGGA,024649.00,3030.67952026,N,11424.11566988,E,4,06,1.1,37.113,M,-12.683,M,1.0,0000*5C
$GPGGA,024650.00,3030.67951914,N,11424.11567017,E,4,06,1.1,37.108,M,-12.683,M,1.0,0000*5B
$GPGGA,024651.00,3030.67951486,N,11424.11567526,E,4,06,1.1,37.110,M,-12.683,M,1.0,0000*52
$GPGGA,024652.00,3030.67951472,N,11424.11567619,E,4,06,1.1,37.109,M,-12.683,M,2.0,0000*5E
$GPGGA,024653.00,3030.67951675,N,11424.11566788,E,4,06,1.5,37.130,M,-12.683,M,1.0,0000*5F
$GPGGA,024654.00,3030.67951644,N,11424.11567006,E,4,06,1.5,37.116,M,-12.683,M,1.0,0000*5E
$GPGGA,024655.00,3030.67951773,N,11424.11566686,E,4,06,1.5,37.144,M,-12.683,M,1.0,0000*52
$GPGGA,024656.00,3030.67951788,N,11424.11567116,E,4,06,1.5,37.115,M,-12.683,M,1.0,0000*5E
$GPGGA,024657.00,3030.67951758,N,11424.11566798,E,4,06,1.5,37.120,M,-12.683,M,1.0,0000*55
$GPGGA,024658.00,3030.67951805,N,11424.11567033,E,4,06,1.5,37.106,M,-12.683,M,1.0,0000*5E
$GPGGA,024659.00,3030.67951591,N,11424.11566523,E,4,06,1.5,37.142,M,-12.683,M,1.0,0000*5A
$GPGGA,024700.00,3030.67951985,N,11424.11566930,E,4,06,1.5,37.114,M,-12.683,M,1.0,0000*53
$GPGGA,024701.00,3030.67951821,N,11424.11566869,E,4,06,1.5,37.118,M,-12.683,M,1.0,0000*5C
$GPGGA,024702.00,3030.67951758,N,11424.11567029,E,4,06,1.5,37.118,M,-12.683,M,2.0,0000*50
$GPGGA,024703.00,3030.67952336,N,11424.11566231,E,4,06,1.5,37.130,M,-12.683,M,1.0,0000*5D
$GPGGA,024704.00,3030.67951720,N,11424.11566999,E,4,06,1.5,37.113,M,-12.683,M,1.0,0000*52
$GPGGA,024705.00,3030.67951751,N,11424.11566885,E,4,06,1.5,37.124,M,-12.683,M,1.0,0000*5D
$GPGGA,024706.00,3030.67951836,N,11424.11567026,E,4,06,1.5,37.121,M,-12.683,M,1.0,0000*55
$GPGGA,024707.00,3030.67951427,N,11424.11567464,E,4,05,1.5,37.110,M,-12.683,M,1.0,0000*5B
$GPGGA,024708.00,3030.67952136,N,11424.11566836,E,4,06,1.5,37.103,M,-12.683,M,1.0,0000*59
$GPGGA,024709.00,3030.67951852,N,11424.11566848,E,4,06,1.5,37.112,M,-12.683,M,1.0,0000*59
$GPGGA,024710.00,3030.67951575,N,11424.11566967,E,4,06,1.5,37.129,M,-12.683,M,1.0,0000*5D
$GPGGA,024711.00,3030.67951655,N,11424.11567071,E,4,05,1.5,37.116,M,-12.683,M,1.0,0000*5D
$GPGGA,024712.00,3030.67951873,N,11424.11567026,E,4,06,1.5,37.123,M,-12.683,M,1.0,0000*53
$GPGGA,024713.00,3030.67951384,N,11424.11566895,E,4,06,1.5,37.139,M,-12.683,M,1.0,0000*5B
$GPGGA,024714.00,3030.67951618,N,11424.11566745,E,4,06,1.5,37.140,M,-12.683,M,1.0,0000*50
$GPGGA,024715.00,3030.67951889,N,11424.11566648,E,4,05,1.5,37.123,M,-12.683,M,1.0,0000*5D
$GPGGA,024716.00,3030.67952191,N,11424.11565808,E,4,06,1.5,37.155,M,-12.683,M,1.0,0000*56
$GPGGA,024717.00,3030.67951518,N,11424.11566868,E,4,06,1.5,37.126,M,-12.683,M,1.0,0000*50
$GPGGA,024718.00,3030.67951614,N,11424.11566600,E,4,06,1.5,37.130,M,-12.683,M,1.0,0000*57
$GPGGA,024719.00,3030.67951260,N,11424.11566687,E,4,05,1.5,37.146,M,-12.683,M,1.0,0000*5C
$GPGGA,024720.00,3030.67952464,N,11424.11565435,E,4,06,1.5,37.171,M,-12.683,M,1.0,0000*58
$GPGGA,024721.00,3030.67951485,N,11424.11566875,E,4,06,1.5,37.145,M,-12.683,M,1.0,0000*59
$GPGGA,024722.00,3030.67951567,N,11424.11566708,E,4,06,1.5,37.144,M,-12.683,M,1.0,0000*53
$GPGGA,024723.00,3030.67951486,N,11424.11566724,E,4,05,1.5,37.134,M,-12.683,M,1.0,0000*56
$GPGGA,024724.00,3030.67951581,N,11424.11566341,E,4,06,1.5,37.153,M,-12.683,M,1.0,0000*52
$GPGGA,024725.00,3030.67951622,N,11424.11566899,E,4,06,1.5,37.148,M,-12.683,M,1.0,0000*5D
$GPGGA,024726.00,3030.67951427,N,11424.11566805,E,4,06,1.5,37.147,M,-12.683,M,1.0,0000*53
$GPGGA,024727.00,3030.67951574,N,11424.11566927,E,4,06,1.5,37.125,M,-12.683,M,1.0,0000*50
$GPGGA,024728.00,3030.67951363,N,11424.11566833,E,4,06,1.5,37.140,M,-12.683,M,1.0,0000*58
$GPGGA,024729.00,3030.67951197,N,11424.11566569,E,4,06,1.5,37.157,M,-12.683,M,1.0,0000*54
$GPGGA,024730.00,3030.67951611,N,11424.11566823,E,4,06,1.5,37.134,M,-12.683,M,1.0,0000*53
$GPGGA,024731.00,3030.67951574,N,11424.11566807,E,4,06,1.5,37.139,M,-12.683,M,1.0,0000*59
$GPGGA,024732.00,3030.67951445,N,11424.11566440,E,4,05,1.5,37.171,M,-12.683,M,1.0,0000*59
$GPGGA,024733.00,3030.67951572,N,11424.11566544,E,4,06,1.5,37.159,M,-12.683,M,1.0,0000*51
$GPGGA,024734.00,3030.67951304,N,11424.11566688,E,4,06,1.5,37.149,M,-12.683,M,1.0,0000*53
$GPGGA,024735.00,3030.67951526,N,11424.11566779,E,4,06,1.5,37.158,M,-12.683,M,1.0,0000*5B
$GPGGA,024736.00,3030.67951080,N,11424.11567043,E,4,05,1.5,37.142,M,-12.683,M,1.0,0000*56
$GPGGA,024737.00,3030.67951182,N,11424.11566893,E,4,06,1.5,37.146,M,-12.683,M,2.0,0000*54
$GPGGA,024738.00,3030.67950975,N,11424.11566840,E,4,06,1.5,37.148,M,-12.683,M,3.0,0000*5B
$GPGGA,024739.00,3030.67951063,N,11424.11566635,E,4,06,1.5,37.155,M,-12.683,M,2.0,0000*54
$GPGGA,024740.00,3030.67951188,N,11424.11567006,E,4,06,1.5,37.145,M,-12.683,M,1.0,0000*5B
$GPGGA,024741.00,3030.67951241,N,11424.11566693,E,4,06,1.5,37.150,M,-12.683,M,1.0,0000*53
$GPGGA,024742.00,3030.67951275,N,11424.11566909,E,4,06,1.5,37.142,M,-12.683,M,1.0,0000*58
$GPGGA,024743.00,3030.67951482,N,11424.11566962,E,4,06,1.5,37.134,M,-12.683,M,1.0,0000*5B
$GPGGA,024744.00,3030.67951308,N,11424.11567080,E,4,06,1.5,37.132,M,-12.683,M,1.0,0000*5B
$GPGGA,024745.00,3030.67951317,N,11424.11567006,E,4,06,1.5,37.136,M,-12.683,M,1.0,0000*5E
$GPGGA,024746.00,3030.67951258,N,11424.11566996,E,4,06,1.5,37.141,M,-12.683,M,2.0,0000*55
$GPGGA,024747.00,3030.67950962,N,11424.11566763,E,4,06,1.5,37.161,M,-12.683,M,2.0,0000*51
$GPGGA,024748.00,3030.67951261,N,11424.11566853,E,4,06,1.5,37.161,M,-12.683,M,1.0,0000*58
$GPGGA,024749.00,3030.67950950,N,11424.11566846,E,4,05,1.5,37.156,M,-12.683,M,1.0,0000*52
$GPGGA,024750.00,3030.67951543,N,11424.11566950,E,4,06,1.5,37.137,M,-12.683,M,1.0,0000*57
$GPGGA,024751.00,3030.67950814,N,11424.11567683,E,4,06,1.5,37.122,M,-12.683,M,1.0,0000*5C
$GPGGA,024752.00,3030.67950795,N,11424.11567655,E,4,06,1.5,37.133,M,-12.683,M,1.0,0000*52
$GPGGA,024753.00,3030.67951302,N,11424.11566621,E,4,05,1.5,37.166,M,-12.683,M,1.0,0000*59
$GPGGA,024754.00,3030.67951888,N,11424.11566059,E,4,06,1.5,37.171,M,-12.683,M,1.0,0000*5B
$GPGGA,024755.00,3030.67951181,N,11424.11567034,E,4,06,1.5,37.149,M,-12.683,M,1.0,0000*5B
$GPGGA,024756.00,3030.67951020,N,11424.11566944,E,4,06,1.5,37.164,M,-12.683,M,1.0,0000*52
$GPGGA,024757.00,3030.67950879,N,11424.11567007,E,4,06,1.5,37.152,M,-12.683,M,1.0,0000*5C
$GPGGA,024758.00,3030.67951172,N,11424.11566975,E,4,06,1.5,37.155,M,-12.683,M,1.0,0000*5A
$GPGGA,024759.00,3030.67951601,N,11424.11565574,E,4,06,1.5,37.206,M,-12.683,M,1.0,0000*53
$GPGGA,024800.00,3030.67951697,N,11424.11565739,E,4,06,1.5,37.193,M,-12.683,M,1.0,0000*5B
$GPGGA,024801.00,3030.67951232,N,11424.11567003,E,4,06,1.5,37.153,M,-12.683,M,1.0,0000*51
$GPGGA,024802.00,3030.67950920,N,11424.11566814,E,4,05,1.5,37.159,M,-12.683,M,1.0,0000*5D
$GPGGA,024803.00,3030.67951261,N,11424.11566445,E,4,06,1.5,37.171,M,-12.683,M,1.0,0000*52
$GPGGA,024804.00,3030.67951675,N,11424.11565434,E,4,06,1.5,37.204,M,-12.683,M,1.0,0000*50
$GPGGA,024805.00,3030.67951339,N,11424.11567288,E,4,06,1.5,37.129,M,-12.683,M,1.0,0000*53
$GPGGA,024806.00,3030.67950847,N,11424.11567085,E,4,06,1.5,37.156,M,-12.683,M,1.0,0000*54
$GPGGA,024807.00,3030.67951231,N,11424.11566718,E,4,05,1.5,37.163,M,-12.683,M,1.0,0000*58
$GPGGA,024808.00,3030.67951549,N,11424.11566727,E,4,06,1.5,37.147,M,-12.683,M,1.0,0000*56
$GPGGA,024809.00,3030.67951573,N,11424.11566045,E,4,06,1.5,37.166,M,-12.683,M,1.0,0000*5E
$GPGGA,024810.00,3030.67950888,N,11424.11567051,E,4,06,1.5,37.143,M,-12.683,M,1.0,0000*5D
$GPGGA,024811.00,3030.67950553,N,11424.11566927,E,4,06,1.5,37.162,M,-12.683,M,1.0,0000*5D
$GPGGA,024812.00,3030.67951627,N,11424.11566476,E,4,06,1.5,37.161,M,-12.683,M,1.0,0000*55
$GPGGA,024813.00,3030.67951937,N,11424.11565803,E,4,06,1.5,37.190,M,-12.683,M,1.0,0000*59
$GPGGA,024814.00,3030.67950868,N,11424.11567037,E,4,06,1.5,37.129,M,-12.683,M,1.0,0000*5B
$GPGGA,024815.00,3030.67950941,N,11424.11566991,E,4,06,1.5,37.151,M,-12.683,M,1.0,0000*5B
$GPGGA,024816.00,3030.67950772,N,11424.11567022,E,4,05,1.5,37.147,M,-12.683,M,1.0,0000*52
$GPGGA,024817.00,3030.67951020,N,11424.11566910,E,4,06,1.5,37.158,M,-12.683,M,2.0,0000*55
$GPGGA,024818.00,3030.67951746,N,11424.11565773,E,4,06,1.5,37.188,M,-12.683,M,1.0,0000*5B
$GPGGA,024819.00,3030.67951067,N,11424.11566930,E,4,06,1.5,37.159,M,-12.683,M,1.0,0000*58
$GPGGA,024820.00,3030.67950979,N,11424.11566829,E,4,06,1.5,37.153,M,-12.683,M,1.0,0000*56
$GPGGA,024821.00,3030.67951505,N,11424.11566388,E,4,06,1.5,37.171,M,-12.683,M,1.0,0000*51
$GPGGA,024822.00,3030.67951879,N,11424.11565494,E,4,06,1.5,37.207,M,-12.683,M,1.0,0000*5F
$GPGGA,024823.00,3030.67951151,N,11424.11566912,E,4,06,1.5,37.149,M,-12.683,M,1.0,0000*54
$GPGGA,024824.00,3030.67951345,N,11424.11566795,E,4,06,1.5,37.149,M,-12.683,M,1.0,0000*55
$GPGGA,024825.00,3030.67951898,N,11424.11566764,E,4,05,1.5,37.124,M,-12.683,M,1.0,0000*59
$GPGGA,024826.00,3030.67952370,N,11424.11565539,E,4,06,1.5,37.173,M,-12.683,M,1.0,0000*5C
$GPGGA,024827.00,3030.67952126,N,11424.11565261,E,4,06,1.5,37.204,M,-12.683,M,1.0,0000*55
$GPGGA,024828.00,3030.67952326,N,11424.11565279,E,4,06,1.5,37.194,M,-12.683,M,1.0,0000*5B
$GPGGA,024829.00,3030.67951283,N,11424.11566942,E,4,06,1.5,37.146,M,-12.683,M,1.0,0000*58
$GPGGA,024830.00,3030.67951091,N,11424.11566928,E,4,06,1.5,37.153,M,-12.683,M,1.0,0000*59
$GPGGA,024831.00,3030.67951623,N,11424.11567088,E,4,06,1.5,37.124,M,-12.683,M,1.0,0000*55
$GPGGA,024832.00,3030.67952345,N,11424.11565134,E,4,06,1.5,37.211,M,-12.683,M,1.0,0000*51
$GPGGA,024833.00,3030.67952573,N,11424.11565135,E,4,06,1.5,37.188,M,-12.683,M,1.0,0000*51
$GPGGA,024834.00,3030.67952752,N,11424.11565236,E,4,06,1.5,37.188,M,-12.683,M,1.0,0000*57
$GPGGA,024835.00,3030.67952993,N,11424.11564994,E,4,06,1.5,37.182,M,-12.683,M,1.0,0000*5D
$GPGGA,024836.00,3030.67953191,N,11424.11564920,E,4,06,1.5,37.178,M,-12.683,M,1.0,0000*5F
$GPGGA,024837.00,3030.67953776,N,11424.11564799,E,4,06,1.5,37.180,M,-12.683,M,1.0,0000*5A
$GPGGA,024838.00,3030.67954124,N,11424.11564099,E,4,06,1.5,37.197,M,-12.683,M,1.0,0000*52
$GPGGA,024839.00,3030.67954277,N,11424.11564131,E,4,06,1.5,37.178,M,-12.683,M,1.0,0000*54
$GPGGA,024840.00,3030.67954481,N,11424.11563957,E,4,06,1.5,37.168,M,-12.683,M,1.0,0000*5B
$GPGGA,024841.00,3030.67954747,N,11424.11563774,E,4,06,1.5,37.182,M,-12.683,M,1.0,0000*58
$GPGGA,024842.00,3030.67955433,N,11424.11563502,E,4,05,1.5,37.186,M,-12.683,M,1.0,0000*5E
$GPGGA,024843.00,3030.67955760,N,11424.11562560,E,4,06,1.5,37.224,M,-12.683,M,1.0,0000*57
$GPGGA,024844.00,3030.67952339,N,11424.11565362,E,4,06,1.6,37.188,M,-12.683,M,1.0,0000*5A
$GPGGA,024845.00,3030.67952561,N,11424.11564828,E,4,06,1.6,37.214,M,-12.683,M,1.0,0000*52
$GPGGA,024846.00,3030.67952843,N,11424.11565020,E,4,06,1.6,37.190,M,-12.683,M,1.0,0000*52
$GPGGA,024847.00,3030.67952658,N,11424.11565105,E,4,06,1.6,37.179,M,-12.683,M,2.0,0000*55
$GPGGA,024848.00,3030.67952427,N,11424.11564571,E,4,05,1.6,37.205,M,-12.683,M,1.0,0000*5E
$GPGGA,024849.00,3030.67952886,N,11424.11564203,E,4,06,1.6,37.206,M,-12.683,M,1.0,0000*5A
$GPGGA,024850.00,3030.67953408,N,11424.11564160,E,4,06,1.5,37.199,M,-12.683,M,1.0,0000*59
$GPGGA,024851.00,3030.67951982,N,11424.11565424,E,4,06,1.5,37.163,M,-12.683,M,1.0,0000*54
$GPGGA,024852.00,3030.67951944,N,11424.11565500,E,4,06,1.5,37.155,M,-12.683,M,1.0,0000*5F
$GPGGA,024853.00,3030.67952314,N,11424.11565226,E,4,06,1.5,37.170,M,-12.683,M,1.0,0000*56
$GPGGA,024854.00,3030.67951259,N,11424.11567193,E,4,06,1.5,37.111,M,-12.683,M,1.0,0000*52
$GPGGA,024855.00,3030.67951008,N,11424.11567434,E,4,05,1.5,37.106,M,-12.683,M,1.0,0000*58
$GPGGA,024856.00,3030.67951198,N,11424.11567441,E,4,06,1.5,37.106,M,-12.683,M,1.0,0000*52
$GPGGA,024857.00,3030.67951555,N,11424.11567284,E,4,05,1.5,37.092,M,-12.683,M,1.0,0000*56
$GPGGA,024858.00,3030.67951381,N,11424.11567214,E,4,06,1.5,37.110,M,-12.683,M,1.0,0000*57
$GPGGA,024859.00,3030.67951473,N,11424.11566970,E,4,06,1.5,37.123,M,-12.683,M,1.0,0000*54
$GPGGA,024900.00,3030.67952161,N,11424.11566825,E,4,06,1.5,37.104,M,-12.683,M,1.0,0000*58
$GPGGA,024901.00,3030.67951756,N,11424.11567193,E,4,05,1.5,37.102,M,-12.683,M,1.0,0000*58
$GPGGA,024902.00,3030.67952175,N,11424.11566553,E,4,06,1.5,37.120,M,-12.683,M,1.0,0000*55
$GPGGA,024903.00,3030.67952590,N,11424.11566477,E,4,06,1.5,37.110,M,-12.683,M,1.0,0000*5F
$GPGGA,024904.00,3030.67952643,N,11424.11566587,E,4,06,1.5,37.112,M,-12.683,M,1.0,0000*59
$GPGGA,024905.00,3030.67952778,N,11424.11564706,E,4,06,1.5,37.207,M,-12.683,M,1.0,0000*5F
$GPGGA,024906.00,3030.67952915,N,11424.11564858,E,4,06,1.5,37.189,M,-12.683,M,1.0,0000*58
$GPGGA,024907.00,3030.67953078,N,11424.11564688,E,4,06,1.5,37.200,M,-12.683,M,1.0,0000*5B
$GPGGA,024908.00,3030.67953050,N,11424.11564241,E,4,06,1.5,37.212,M,-12.683,M,1.0,0000*5C
$GPGGA,024909.00,3030.67953942,N,11424.11563585,E,4,06,1.5,37.221,M,-12.683,M,1.0,0000*5F
$GPGGA,024910.00,3030.67954115,N,11424.11563641,E,4,06,1.5,37.217,M,-12.683,M,1.0,0000*54
$GPGGA,024911.00,3030.67954337,N,11424.11563416,E,4,06,1.5,37.230,M,-12.683,M,1.0,0000*52
$GPGGA,024912.00,3030.67954728,N,11424.11563328,E,4,06,1.5,37.212,M,-12.683,M,1.0,0000*51
$GPGGA,024913.00,3030.67954940,N,11424.11563244,E,4,06,1.5,37.224,M,-12.683,M,1.0,0000*5E
$GPGGA,024914.00,3030.67955010,N,11424.11563530,E,4,05,1.5,37.203,M,-12.683,M,1.0,0000*56
$GPGGA,024915.00,3030.67955376,N,11424.11563127,E,4,06,1.5,37.213,M,-12.683,M,1.0,0000*54
$GPGGA,024916.00,3030.67956061,N,11424.11562198,E,4,06,1.5,37.234,M,-12.683,M,1.0,0000*51
$GPGGA,024917.00,3030.67952887,N,11424.11564858,E,4,06,1.5,37.195,M,-12.683,M,1.0,0000*5F
$GPGGA,024918.00,3030.67951469,N,11424.11566876,E,4,06,1.5,37.122,M,-12.683,M,1.0,0000*5D
$GPGGA,024919.00,3030.67951095,N,11424.11567158,E,4,06,1.5,37.116,M,-12.683,M,1.0,0000*58
$GPGGA,024920.00,3030.67951021,N,11424.11567193,E,4,06,1.5,37.114,M,-12.683,M,1.0,0000*58
$GPGGA,024921.00,3030.67951329,N,11424.11567110,E,4,06,1.5,37.114,M,-12.683,M,1.0,0000*59
$GPGGA,024922.00,3030.67951365,N,11424.11567230,E,4,06,1.5,37.110,M,-12.683,M,1.0,0000*57
$GPGGA,024923.00,3030.67952768,N,11424.11564627,E,4,06,1.5,37.210,M,-12.683,M,1.0,0000*5E
$GPGGA,024924.00,3030.67951120,N,11424.11567100,E,4,06,1.5,37.132,M,-12.683,M,1.0,0000*52
$GPGGA,024925.00,3030.67951111,N,11424.11567163,E,4,06,1.5,37.123,M,-12.683,M,1.0,0000*54
$GPGGA,024926.00,3030.67951105,N,11424.11567190,E,4,06,1.5,37.119,M,-12.683,M,1.0,0000*57
$GPGGA,024927.00,3030.67951116,N,11424.11567036,E,4,06,1.5,37.134,M,-12.683,M,1.0,0000*56
$GPGGA,024928.00,3030.67951343,N,11424.11567225,E,4,06,1.5,37.105,M,-12.683,M,1.0,0000*59
$GPGGA,024929.00,3030.67951079,N,11424.11566841,E,4,06,1.5,37.141,M,-12.683,M,1.0,0000*5B
$GPGGA,024930.00,3030.67950983,N,11424.11566820,E,4,05,1.5,37.155,M,-12.683,M,2.0,0000*5C
$GPGGA,024931.00,3030.67951779,N,11424.11566467,E,4,06,1.5,37.139,M,-12.683,M,1.0,0000*52
$GPGGA,024932.00,3030.67951061,N,11424.11567030,E,4,06,1.5,37.120,M,-12.683,M,1.0,0000*50
$GPGGA,024933.00,3030.67950827,N,11424.11566996,E,4,06,1.5,37.129,M,-12.683,M,1.0,0000*57
$GPGGA,024934.00,3030.67951408,N,11424.11567067,E,4,06,1.5,37.123,M,-12.683,M,1.0,0000*5C
$GPGGA,024935.00,3030.67951255,N,11424.11566883,E,4,06,1.5,37.131,M,-12.683,M,1.0,0000*53
$GPGGA,024936.00,3030.67951137,N,11424.11567232,E,4,06,1.5,37.114,M,-12.683,M,1.0,0000*51
$GPGGA,024937.00,3030.67950971,N,11424.11567003,E,4,06,1.5,37.134,M,-12.683,M,1.0,0000*59
$GPGGA,024938.00,3030.67950910,N,11424.11567066,E,4,06,1.5,37.132,M,-12.683,M,2.0,0000*57
$GPGGA,024939.00,3030.67951009,N,11424.11567036,E,4,05,1.5,37.129,M,-12.683,M,3.0,0000*5B
$GPGGA,024940.00,3030.67951566,N,11424.11566811,E,4,06,1.5,37.131,M,-12.683,M,2.0,0000*5E
$GPGGA,024941.00,3030.67952752,N,11424.11564628,E,4,06,1.5,37.197,M,-12.683,M,1.0,0000*50
$GPGGA,024942.00,3030.67951175,N,11424.11566975,E,4,06,1.5,37.123,M,-12.683,M,1.0,0000*59
$GPGGA,024943.00,3030.67951499,N,11424.11567164,E,4,06,1.5,37.102,M,-12.683,M,1.0,0000*55
$GPGGA,024944.00,3030.67951614,N,11424.11567205,E,4,06,1.5,37.114,M,-12.683,M,1.0,0000*56
$GPGGA,024945.00,3030.67951387,N,11424.11567178,E,4,06,1.5,37.125,M,-12.683,M,1.0,0000*53
$GPGGA,024946.00,3030.67951102,N,11424.11567185,E,4,06,1.5,37.123,M,-12.683,M,1.0,0000*5B
$GPGGA,024947.00,3030.67951078,N,11424.11567105,E,4,06,1.5,37.135,M,-12.683,M,2.0,0000*5A
$GPGGA,024948.00,3030.67951461,N,11424.11567168,E,4,06,1.5,37.116,M,-12.683,M,1.0,0000*50
$GPGGA,024949.00,3030.67951018,N,11424.11567486,E,4,06,1.5,37.108,M,-12.683,M,1.0,0000*51
$GPGGA,024950.00,3030.67951319,N,11424.11567308,E,4,06,1.5,37.104,M,-12.683,M,1.0,0000*56
$GPGGA,024951.00,3030.67951360,N,11424.11567485,E,4,06,1.5,37.107,M,-12.683,M,1.0,0000*58
$GPGGA,024952.00,3030.67951216,N,11424.11567252,E,4,06,1.5,37.120,M,-12.683,M,1.0,0000*52
$GPGGA,024953.00,3030.67951541,N,11424.11567610,E,4,06,1.5,37.093,M,-12.683,M,1.0,0000*5D
$GPGGA,024954.00,3030.67951362,N,11424.11567367,E,4,06,1.5,37.103,M,-12.683,M,1.0,0000*50
$GPGGA,024955.00,3030.67951052,N,11424.11567670,E,4,06,1.5,37.094,M,-12.683,M,1.0,0000*5D
$GPGGA,024956.00,3030.67951444,N,11424.11567412,E,4,06,1.5,37.089,M,-12.683,M,1.0,0000*57
$GPGGA,024957.00,3030.67951211,N,11424.11567486,E,4,06,1.5,37.085,M,-12.683,M,2.0,0000*52
$GPGGA,024958.00,3030.67951592,N,11424.11567249,E,4,06,1.5,37.113,M,-12.683,M,1.0,0000*59
$GPGGA,024959.00,3030.67951442,N,11424.11567603,E,4,06,1.5,37.071,M,-12.683,M,1.0,0000*5B
$GPGGA,025000.00,3030.67951210,N,11424.11567527,E,4,06,1.5,37.093,M,-12.683,M,1.0,0000*57
$GPGGA,025001.00,3030.67951554,N,11424.11567546,E,4,06,1.5,37.083,M,-12.683,M,1.0,0000*57
$GPGGA,025002.00,3030.67951441,N,11424.11567560,E,4,06,1.5,37.079,M,-12.683,M,1.0,0000*50
$GPGGA,025003.00,3030.67951365,N,11424.11567382,E,4,06,1.5,37.100,M,-12.683,M,1.0,0000*55
$GPGGA,025004.00,3030.67951312,N,11424.11567612,E,4,06,1.5,37.090,M,-12.683,M,2.0,0000*55
$GPGGA,025005.00,3030.67951189,N,11424.11567683,E,4,06,1.5,37.090,M,-12.683,M,1.0,0000*5F
$GPGGA,025006.00,3030.67951541,N,11424.11567580,E,4,06,1.5,37.084,M,-12.683,M,1.0,0000*59
$GPGGA,025007.00,3030.67951306,N,11424.11567370,E,4,06,1.5,37.105,M,-12.683,M,1.0,0000*5C
$GPGGA,025008.00,3030.67951531,N,11424.11567464,E,4,06,1.5,37.107,M,-12.683,M,1.0,0000*51
$GPGGA,025009.00,3030.67951212,N,11424.11567511,E,4,06,1.5,37.108,M,-12.683,M,1.0,0000*5A
$GPGGA,025010.00,3030.67951143,N,11424.11567487,E,4,06,1.5,37.099,M,-12.683,M,1.0,0000*52
$GPGGA,025011.00,3030.67951157,N,11424.11567395,E,4,06,1.5,37.106,M,-12.683,M,1.0,0000*55
$GPGGA,025012.00,3030.67951559,N,11424.11567408,E,4,06,1.5,37.111,M,-12.683,M,1.0,0000*59
$GPGGA,025013.00,3030.67951003,N,11424.11567349,E,4,06,1.2,37.112,M,-12.683,M,1.0,0000*54
$GPGGA,025014.00,3030.67951190,N,11424.11567546,E,4,06,1.2,37.098,M,-12.683,M,1.0,0000*52
$GPGGA,025015.00,3030.67951101,N,11424.11567343,E,4,06,1.2,37.116,M,-12.683,M,1.0,0000*5F
$GPGGA,025016.00,3030.67951474,N,11424.11567600,E,4,06,1.2,37.107,M,-12.683,M,1.0,0000*59
$GPGGA,025017.00,3030.67951123,N,11424.11567454,E,4,06,1.2,37.116,M,-12.683,M,1.0,0000*5C
$GPGGA,025018.00,3030.67951349,N,11424.11567524,E,4,06,1.2,37.121,M,-12.683,M,1.0,0000*5F
$GPGGA,025019.00,3030.67950920,N,11424.11567201,E,4,06,1.2,37.136,M,-12.683,M,1.0,0000*5C
$GPGGA,025020.00,3030.67951091,N,11424.11567496,E,4,06,1.2,37.119,M,-12.683,M,1.0,0000*51
$GPGGA,025021.00,3030.67951148,N,11424.11567470,E,4,06,1.2,37.114,M,-12.683,M,1.0,0000*50
$GPGGA,025022.00,3030.67951316,N,11424.11567690,E,4,06,1.2,37.106,M,-12.683,M,1.0,0000*55
$GPGGA,025023.00,3030.67951145,N,11424.11567622,E,4,06,1.2,37.114,M,-12.683,M,1.0,0000*5A
$GPGGA,025024.00,3030.67951184,N,11424.11567460,E,4,06,1.5,37.118,M,-12.683,M,1.0,0000*5F
$GPGGA,025025.00,3030.67951197,N,11424.11567618,E,4,06,1.5,37.115,M,-12.683,M,1.0,0000*5C
$GPGGA,025026.00,3030.67951287,N,11424.11567452,E,4,06,1.5,37.112,M,-12.683,M,1.0,0000*56
$GPGGA,025027.00,3030.67951084,N,11424.11567341,E,4,06,1.5,37.135,M,-12.683,M,1.0,0000*56
$GPGGA,025028.00,3030.67950938,N,11424.11567323,E,4,06,1.5,37.124,M,-12.683,M,1.0,0000*52
$GPGGA,025029.00,3030.67951076,N,11424.11567414,E,4,06,1.5,37.113,M,-12.683,M,1.0,0000*56
$GPGGA,025030.00,3030.67951431,N,11424.11567260,E,4,06,1.5,37.119,M,-12.683,M,1.0,0000*56
$GPGGA,025031.00,3030.67951255,N,11424.11567233,E,4,06,1.5,37.121,M,-12.683,M,1.0,0000*5E
$GPGGA,025032.00,3030.67951209,N,11424.11567400,E,4,06,1.5,37.108,M,-12.683,M,1.0,0000*59
$GPGGA,025033.00,3030.67951287,N,11424.11567304,E,4,06,1.5,37.111,M,-12.683,M,1.0,0000*55
$GPGGA,025034.00,3030.67951340,N,11424.11567181,E,4,06,1.5,37.106,M,-12.683,M,1.0,0000*51
$GPGGA,025035.00,3030.67950934,N,11424.11567731,E,4,06,1.5,37.111,M,-12.683,M,1.0,0000*53
$GPGGA,025036.00,3030.67950649,N,11424.11567731,E,4,06,1.5,37.118,M,-12.683,M,2.0,0000*5F
$GPGGA,025037.00,3030.67950992,N,11424.11567454,E,4,06,1.5,37.114,M,-12.683,M,2.0,0000*5B
$GPGGA,025038.00,3030.67951102,N,11424.11567527,E,4,06,1.5,37.095,M,-12.683,M,1.0,0000*5A
$GPGGA,025039.00,3030.67951127,N,11424.11567237,E,4,06,1.2,37.122,M,-12.683,M,1.0,0000*50
$GPGGA,025040.00,3030.67951137,N,11424.11567476,E,4,06,1.2,37.106,M,-12.683,M,1.0,0000*5A
$GPGGA,025041.00,3030.67951278,N,11424.11567354,E,4,06,1.2,37.116,M,-12.683,M,1.0,0000*55
$GPGGA,025042.00,3030.67951161,N,11424.11567560,E,4,06,1.2,37.096,M,-12.683,M,1.0,0000*55
$GPGGA,025043.00,3030.67951140,N,11424.11567185,E,4,06,1.2,37.124,M,-12.683,M,1.0,0000*50
$GPGGA,025044.00,3030.67951142,N,11424.11567592,E,4,06,1.2,37.100,M,-12.683,M,1.0,0000*51
$GPGGA,025045.00,3030.67951385,N,11424.11567484,E,4,06,1.2,37.100,M,-12.683,M,1.0,0000*5F
$GPGGA,025046.00,3030.67951240,N,11424.11567549,E,4,06,1.2,37.106,M,-12.683,M,2.0,0000*51
$GPGGA,025047.00,3030.67951312,N,11424.11567335,E,4,06,1.2,37.114,M,-12.683,M,1.0,0000*5B
$GPGGA,025048.00,3030.67951298,N,11424.11567517,E,4,06,1.2,37.099,M,-12.683,M,1.0,0000*55
$GPGGA,025049.00,3030.67951087,N,11424.11567414,E,4,06,1.5,37.119,M,-12.683,M,1.0,0000*54
$GPGGA,025050.00,3030.67951415,N,11424.11567523,E,4,06,1.5,37.108,M,-12.683,M,1.0,0000*56
$GPGGA,025051.00,3030.67951130,N,11424.11567508,E,4,06,1.5,37.106,M,-12.683,M,1.0,0000*52
$GPGGA,025052.00,3030.67951552,N,11424.11567310,E,4,06,1.5,37.115,M,-12.683,M,1.0,0000*5C
$GPGGA,025053.00,3030.67951150,N,11424.11567461,E,4,06,1.5,37.112,M,-12.683,M,1.0,0000*5D
$GPGGA,025054.00,3030.67951427,N,11424.11567377,E,4,06,1.5,37.104,M,-12.683,M,1.0,0000*58
$GPGGA,025055.00,3030.67951478,N,11424.11567386,E,4,06,1.4,37.115,M,-12.683,M,1.0,0000*5C
$GPGGA,025056.00,3030.67951498,N,11424.11567337,E,4,06,1.4,37.100,M,-12.683,M,1.0,0000*5F
$GPGGA,025057.00,3030.67951403,N,11424.11567472,E,4,06,1.4,37.094,M,-12.683,M,1.0,0000*56
$GPGGA,025058.00,3030.67951644,N,11424.11567428,E,4,06,1.4,37.106,M,-12.683,M,1.0,0000*5D
$GPGGA,025059.00,3030.67951259,N,11424.11567504,E,4,06,1.4,37.097,M,-12.683,M,1.0,0000*52
$GPGGA,025100.00,3030.67951720,N,11424.11567509,E,4,06,1.4,37.091,M,-12.683,M,1.0,0000*5F
$GPGGA,025101.00,3030.67951340,N,11424.11567309,E,4,06,1.4,37.126,M,-12.683,M,1.0,0000*57
$GPGGA,025102.00,3030.67951474,N,11424.11567277,E,4,06,1.4,37.117,M,-12.683,M,1.0,0000*5E
$GPGGA,025103.00,3030.67951521,N,11424.11567592,E,4,06,1.4,37.093,M,-12.683,M,1.0,0000*5F
$GPGGA,025104.00,3030.67951460,N,11424.11567395,E,4,06,1.4,37.114,M,-12.683,M,1.0,0000*53
$GPGGA,025105.00,3030.67951566,N,11424.11567508,E,4,06,1.4,37.105,M,-12.683,M,1.0,0000*57
$GPGGA,025106.00,3030.67951528,N,11424.11567462,E,4,06,1.4,37.123,M,-12.683,M,1.0,0000*57
$GPGGA,025107.00,3030.67951429,N,11424.11567429,E,4,06,1.4,37.113,M,-12.683,M,1.0,0000*5A
$GPGGA,025108.00,3030.67951522,N,11424.11567502,E,4,06,1.4,37.113,M,-12.683,M,1.0,0000*57
$GPGGA,025109.00,3030.67951458,N,11424.11567527,E,4,06,1.4,37.109,M,-12.683,M,1.0,0000*56
$GPGGA,025110.00,3030.67951456,N,11424.11567402,E,4,06,1.4,37.127,M,-12.683,M,1.0,0000*5A
$GPGGA,025111.00,3030.67951612,N,11424.11567379,E,4,06,1.4,37.131,M,-12.683,M,1.0,0000*55
$GPGGA,025112.00,3030.67951450,N,11424.11567174,E,4,06,1.4,37.133,M,-12.683,M,1.0,0000*5F
$GPGGA,025113.00,3030.67951274,N,11424.11567253,E,4,06,1.4,37.136,M,-12.683,M,1.0,0000*5D
$GPGGA,025114.00,3030.67951655,N,11424.11567319,E,4,06,1.4,37.138,M,-12.683,M,1.0,0000*5C
$GPGGA,025115.00,3030.67951674,N,11424.11567189,E,4,06,1.4,37.150,M,-12.683,M,1.0,0000*5B
$GPGGA,025116.00,3030.67951500,N,11424.11567392,E,4,06,1.4,37.132,M,-12.683,M,1.0,0000*54
$GPGGA,025117.00,3030.67951722,N,11424.11567202,E,4,06,1.4,37.136,M,-12.683,M,1.0,0000*5B
$GPGGA,025118.00,3030.67951114,N,11424.11567014,E,4,06,1.4,37.167,M,-12.683,M,1.0,0000*56
$GPGGA,025119.00,3030.67951606,N,11424.11567376,E,4,06,1.4,37.160,M,-12.683,M,1.0,0000*53
$GPGGA,025120.00,3030.67951823,N,11424.11567275,E,4,06,1.4,37.136,M,-12.683,M,1.0,0000*51
$GPGGA,025121.00,3030.67951378,N,11424.11567553,E,4,06,1.4,37.143,M,-12.683,M,1.0,0000*54
$GPGGA,025122.00,3030.67951374,N,11424.11567491,E,4,06,1.4,37.149,M,-12.683,M,1.0,0000*5E
$GPGGA,025123.00,3030.67951447,N,11424.11567164,E,4,06,1.4,37.165,M,-12.683,M,1.0,0000*59
$GPGGA,025124.00,3030.67951305,N,11424.11567132,E,4,06,1.4,37.156,M,-12.683,M,1.0,0000*5C
$GPGGA,025125.00,3030.67951306,N,11424.11567663,E,4,06,1.4,37.135,M,-12.683,M,1.0,0000*58
$GPGGA,025126.00,3030.67951587,N,11424.11567247,E,4,06,1.4,37.144,M,-12.683,M,1.0,0000*50
$GPGGA,025127.00,3030.67951380,N,11424.11567279,E,4,06,1.4,37.152,M,-12.683,M,1.0,0000*5A
$GPGGA,025128.00,3030.67951395,N,11424.11567342,E,4,06,1.4,37.161,M,-12.683,M,1.0,0000*58
$GPGGA,025129.00,3030.67951618,N,11424.11567348,E,4,06,1.4,37.147,M,-12.683,M,1.0,0000*57
$GPGGA,025130.00,3030.67951371,N,11424.11567160,E,4,06,1.4,37.164,M,-12.683,M,1.0,0000*5C
$GPGGA,025131.00,3030.67951679,N,11424.11567430,E,4,06,1.5,37.158,M,-12.683,M,1.0,0000*5E
$GPGGA,025132.00,3030.67951314,N,11424.11567370,E,4,06,1.5,37.152,M,-12.683,M,1.0,0000*5A
$GPGGA,025133.00,3030.67951486,N,11424.11567153,E,4,06,1.5,37.172,M,-12.683,M,1.0,0000*56
$GPGGA,025134.00,3030.67951552,N,11424.11567442,E,4,06,1.5,37.147,M,-12.683,M,1.0,0000*5A
$GPGGA,025135.00,3030.67951433,N,11424.11567406,E,4,06,1.5,37.165,M,-12.683,M,1.0,0000*5D
$GPGGA,025136.00,3030.67951647,N,11424.11567536,E,4,06,1.5,37.133,M,-12.683,M,1.0,0000*5E
$GPGGA,025137.00,3030.67951582,N,11424.11567370,E,4,06,1.5,37.144,M,-12.683,M,2.0,0000*52
$GPGGA,025138.00,3030.67951441,N,11424.11567337,E,4,06,1.5,37.151,M,-12.683,M,1.0,0000*57
$GPGGA,025139.00,3030.67951524,N,11424.11567166,E,4,06,1.5,37.160,M,-12.683,M,2.0,0000*53
$GPGGA,025140.00,3030.67951460,N,11424.11567296,E,4,06,1.5,37.147,M,-12.683,M,2.0,0000*55
$GPGGA,025141.00,3030.67951330,N,11424.11567166,E,4,06,1.4,37.168,M,-12.683,M,2.0,0000*56
$GPGGA,025142.00,3030.67951411,N,11424.11567317,E,4,06,1.4,37.161,M,-12.683,M,1.0,0000*5F
$GPGGA,025143.00,3030.67951602,N,11424.11567196,E,4,06,1.4,37.157,M,-12.683,M,1.0,0000*50
$GPGGA,025144.00,3030.67951393,N,11424.11567310,E,4,06,1.4,37.152,M,-12.683,M,1.0,0000*53
$GPGGA,025145.00,3030.67951253,N,11424.11567261,E,4,06,1.4,37.158,M,-12.683,M,1.0,0000*52
$GPGGA,025146.00,3030.67951416,N,11424.11567320,E,4,06,1.4,37.151,M,-12.683,M,1.0,0000*5B
$GPGGA,025147.00,3030.67951528,N,11424.11567311,E,4,06,1.4,37.154,M,-12.683,M,1.0,0000*51
$GPGGA,025148.00,3030.67951890,N,11424.11567425,E,4,06,1.4,37.151,M,-12.683,M,1.0,0000*55
$GPGGA,025149.00,3030.67951091,N,11424.11567227,E,4,06,1.4,37.161,M,-12.683,M,1.0,0000*5A
$GPGGA,025150.00,3030.67951464,N,11424.11567575,E,4,06,1.4,37.140,M,-12.683,M,1.0,0000*5F
$GPGGA,025151.00,3030.67951602,N,11424.11567268,E,4,06,1.4,37.151,M,-12.683,M,1.0,0000*57
$GPGGA,025152.00,3030.67951242,N,11424.11567448,E,4,06,1.4,37.142,M,-12.683,M,1.0,0000*52
$GPGGA,025153.00,3030.67951071,N,11424.11566977,E,4,06,1.4,37.151,M,-12.683,M,1.0,0000*53
$GPGGA,025154.00,3030.67952114,N,11424.11568434,E,4,06,1.4,37.172,M,-12.683,M,1.0,0000*50
$GPGGA,025155.00,3030.67953367,N,11424.11567956,E,4,06,1.6,37.122,M,-12.683,M,1.0,0000*57
$GPGGA,025156.00,3030.67951739,N,11424.11566931,E,4,06,1.6,37.175,M,-12.683,M,1.0,0000*5B
$GPGGA,025157.00,3030.67951521,N,11424.11567423,E,4,06,1.6,37.125,M,-12.683,M,1.0,0000*5B
$GPGGA,025158.00,3030.67951589,N,11424.11567152,E,4,06,1.6,37.144,M,-12.683,M,1.0,0000*52
$GPGGA,025159.00,3030.67951382,N,11424.11567416,E,4,06,1.6,37.138,M,-12.683,M,1.0,0000*50
$GPGGA,025200.00,3030.67951360,N,11424.11567425,E,4,06,1.4,37.138,M,-12.683,M,1.0,0000*51
$GPGGA,025201.00,3030.67951259,N,11424.11567344,E,4,06,1.4,37.138,M,-12.683,M,1.0,0000*5B
$GPGGA,025202.00,3030.67951455,N,11424.11567021,E,4,06,1.4,37.152,M,-12.683,M,1.0,0000*5E
$GPGGA,025203.00,3030.67951710,N,11424.11567419,E,4,06,1.4,37.146,M,-12.683,M,1.0,0000*57
$GPGGA,025204.00,3030.67951604,N,11424.11567235,E,4,06,1.4,37.148,M,-12.683,M,1.0,0000*52
