$GPGGA,030919.00,3030.67627506,N,11424.09076792,E,4,11,1.2,37.043,M,-12.685,M,1.0,0000*56
$GPGGA,030920.00,3030.67627180,N,11424.09076593,E,4,11,1.2,37.049,M,-12.685,M,1.0,0000*5F
$GPGGA,030921.00,3030.67627589,N,11424.09076795,E,4,11,1.2,37.042,M,-12.685,M,1.0,0000*5C
$GPGGA,030922.00,3030.67627354,N,11424.09076457,E,4,11,1.2,37.038,M,-12.685,M,1.0,0000*59
$GPGGA,030923.00,3030.67628074,N,11424.09076746,E,4,11,1.2,37.043,M,-12.685,M,1.0,0000*59
$GPGGA,030924.00,3030.67626998,N,11424.09076398,E,4,11,1.2,37.035,M,-12.685,M,1.0,0000*5D
$GPGGA,030925.00,3030.67627813,N,11424.09076894,E,4,11,1.2,37.042,M,-12.685,M,1.0,0000*58
$GPGGA,030926.00,3030.67627723,N,11424.09076882,E,4,11,1.2,37.044,M,-12.685,M,1.0,0000*56
$GPGGA,030927.00,3030.67628020,N,11424.09076727,E,4,11,1.2,37.040,M,-12.685,M,1.0,0000*58
$GPGGA,030928.00,3030.67627836,N,11424.09076776,E,4,11,1.2,37.043,M,-12.685,M,1.0,0000*50
$GPGGA,030929.00,3030.67627517,N,11424.09076523,E,4,11,1.2,37.049,M,-12.685,M,1.0,0000*57
$GPGGA,030930.00,3030.67627821,N,11424.09076918,E,4,11,1.2,37.050,M,-12.685,M,1.0,0000*5B
$GPGGA,030931.00,3030.67627868,N,11424.09076598,E,4,11,1.2,37.034,M,-12.685,M,1.0,0000*51
$GPGGA,030932.00,3030.67627646,N,11424.09076561,E,4,11,1.2,37.045,M,-12.685,M,1.0,0000*50
$GPGGA,030933.00,3030.67628048,N,11424.09076868,E,4,11,1.2,37.039,M,-12.685,M,1.0,0000*59
$GPGGA,030934.00,3030.67627763,N,11424.09076499,E,4,11,1.2,37.033,M,-12.685,M,1.0,0000*57
$GPGGA,030935.00,3030.67627693,N,11424.09076745,E,4,11,1.2,37.039,M,-12.685,M,1.0,0000*50
$GPGGA,030936.00,3030.67628207,N,11424.09076654,E,4,11,1.2,37.023,M,-12.685,M,1.0,0000*5F
$GPGGA,030937.00,3030.67628094,N,11424.09076862,E,4,11,1.2,37.034,M,-12.685,M,1.0,0000*5B
$GPGGA,030938.00,3030.67627528,N,11424.09076655,E,4,11,1.2,37.034,M,-12.685,M,1.0,0000*53
$GPGGA,030939.00,3030.67627469,N,11424.09076865,E,4,11,1.2,37.048,M,-12.685,M,1.0,0000*50
$GPGGA,030940.00,3030.67628196,N,11424.09076938,E,4,11,1.8,37.047,M,-12.685,M,1.0,0000*58
$GPGGA,030941.00,3030.67627383,N,11424.09076791,E,4,11,1.8,37.042,M,-12.685,M,1.0,0000*58
$GPGGA,030942.00,3030.67627536,N,11424.09076414,E,4,11,1.8,37.037,M,-12.685,M,1.0,0000*5F
$GPGGA,030943.00,3030.67627599,N,11424.09076856,E,4,11,1.2,37.051,M,-12.685,M,1.0,0000*5B
$GPGGA,030944.00,3030.67627797,N,11424.09076891,E,4,11,1.2,37.043,M,-12.685,M,1.0,0000*58
$GPGGA,030945.00,3030.67627587,N,11424.09076772,E,4,11,1.2,37.048,M,-12.685,M,1.0,0000*53
$GPGGA,030946.00,3030.67628021,N,11424.09076757,E,4,11,1.1,37.040,M,-12.685,M,1.0,0000*5A
$GPGGA,030947.00,3030.67627565,N,11424.09076652,E,4,11,1.1,37.055,M,-12.685,M,1.0,0000*51
$GPGGA,030948.00,3030.67627465,N,11424.09076502,E,4,11,1.2,37.052,M,-12.685,M,2.0,0000*5E
$GPGGA,030949.00,3030.67627909,N,11424.09076789,E,4,11,1.2,37.044,M,-12.685,M,2.0,0000*5E
$GPGGA,030950.00,3030.67627293,N,11424.09076687,E,4,11,1.2,37.057,M,-12.685,M,2.0,0000*53
$GPGGA,030951.00,3030.67627907,N,11424.09076030,E,4,07,1.2,37.033,M,-12.685,M,1.0,0000*58
$GPGGA,030952.00,3030.67628121,N,11424.09075534,E,4,07,1.2,37.019,M,-12.685,M,1.0,0000*52
$GPGGA,030953.00,3030.67627973,N,11424.09075495,E,4,07,1.2,37.013,M,-12.685,M,1.0,0000*53
$GPGGA,030954.00,3030.67627712,N,11424.09076719,E,4,11,1.2,37.039,M,-12.685,M,1.0,0000*56
$GPGGA,030955.00,3030.67627752,N,11424.09076871,E,4,11,1.2,37.035,M,-12.685,M,1.0,0000*5E
$GPGGA,030956.00,3030.67627895,N,11424.09076605,E,4,11,1.2,37.038,M,-12.685,M,1.0,0000*59
$GPGGA,030957.00,3030.67628352,N,11424.09076771,E,4,11,1.8,37.043,M,-12.685,M,1.0,0000*53
$GPGGA,030958.00,3030.67628030,N,11424.09076973,E,4,11,1.8,37.047,M,-12.685,M,1.0,0000*53
$GPGGA,030959.00,3030.67627920,N,11424.09077038,E,4,11,1.8,37.051,M,-12.685,M,1.0,0000*55
$GPGGA,031000.00,3030.67628232,N,11424.09076901,E,4,11,1.8,37.042,M,-12.685,M,1.0,0000*56
$GPGGA,031001.00,3030.67628042,N,11424.09076977,E,4,11,1.2,37.061,M,-12.685,M,1.0,0000*58
$GPGGA,031002.00,3030.67628013,N,11424.09076748,E,4,11,1.2,37.045,M,-12.685,M,1.0,0000*5B
$GPGGA,031003.00,3030.67628047,N,11424.09076922,E,4,11,1.2,37.050,M,-12.685,M,1.0,0000*5D
$GPGGA,031004.00,3030.67628254,N,11424.09076914,E,4,11,1.2,37.052,M,-12.685,M,1.0,0000*5D
$GPGGA,031005.00,3030.67628217,N,11424.09077078,E,4,11,1.2,37.052,M,-12.685,M,1.0,0000*59
$GPGGA,031006.00,3030.67627918,N,11424.09076976,E,4,11,1.2,37.058,M,-12.685,M,1.0,0000*5D
$GPGGA,031007.00,3030.67627614,N,11424.09076823,E,4,11,1.2,37.057,M,-12.685,M,1.0,0000*51
$GPGGA,031008.00,3030.67628235,N,11424.09076948,E,4,11,1.8,37.050,M,-12.685,M,1.0,0000*57
$GPGGA,031009.00,3030.67628477,N,11424.09077006,E,4,11,1.8,37.044,M,-12.685,M,1.0,0000*51
$GPGGA,031010.00,3030.67628077,N,11424.09076689,E,4,11,1.8,37.050,M,-12.685,M,1.0,0000*58
$GPGGA,031011.00,3030.67628505,N,11424.09077325,E,4,11,1.8,37.059,M,-12.685,M,1.0,0000*52
$GPGGA,031012.00,3030.67627889,N,11424.09076957,E,4,11,1.2,37.059,M,-12.685,M,1.0,0000*53
$GPGGA,031013.00,3030.67628176,N,11424.09076973,E,4,11,1.2,37.054,M,-12.685,M,1.0,0000*5F
$GPGGA,031014.00,3030.67627846,N,11424.09076900,E,4,11,1.2,37.055,M,-12.685,M,1.0,0000*58
$GPGGA,031015.00,3030.67628355,N,11424.09076606,E,4,11,1.2,37.056,M,-12.685,M,1.0,0000*55
$GPGGA,031016.00,3030.67627846,N,11424.09076782,E,4,11,1.2,37.049,M,-12.685,M,1.0,0000*53
$GPGGA,031017.00,3030.67628140,N,11424.09076873,E,4,11,1.2,37.045,M,-12.685,M,1.0,0000*5F
$GPGGA,031018.00,3030.67627897,N,11424.09076869,E,4,11,1.2,37.053,M,-12.685,M,1.0,0000*50
$GPGGA,031019.00,3030.67628223,N,11424.09076810,E,4,11,1.2,37.051,M,-12.685,M,1.0,0000*57
$GPGGA,031020.00,3030.67628121,N,11424.09076867,E,4,11,1.2,37.058,M,-12.685,M,1.0,0000*55
$GPGGA,031021.00,3030.67628486,N,11424.09077018,E,4,11,1.2,37.043,M,-12.685,M,1.0,0000*57
$GPGGA,031022.00,3030.67628189,N,11424.09077105,E,4,11,1.2,37.042,M,-12.685,M,1.0,0000*52
$GPGGA,031023.00,3030.67628764,N,11424.09077026,E,4,11,1.2,37.052,M,-12.685,M,1.0,0000*57
$GPGGA,031024.00,3030.67628159,N,11424.09077213,E,4,11,1.2,37.058,M,-12.685,M,1.0,0000*56
$GPGGA,031025.00,3030.67628634,N,11424.09077490,E,4,11,1.2,37.059,M,-12.685,M,1.0,0000*57
$GPGGA,031026.00,3030.67627622,N,11424.09076962,E,4,11,1.0,37.045,M,-12.685,M,1.0,0000*52
$GPGGA,031027.00,3030.67627883,N,11424.09077427,E,4,11,1.0,37.045,M,-12.685,M,2.0,0000*58
$GPGGA,031028.00,3030.67627910,N,11424.09076584,E,4,11,1.0,37.042,M,-12.685,M,1.0,0000*51
$GPGGA,031029.00,3030.67627598,N,11424.09076706,E,4,12,1.0,37.034,M,-12.685,M,1.0,0000*56
$GPGGA,031030.00,3030.67627845,N,11424.09076554,E,4,12,1.0,37.027,M,-12.685,M,1.0,0000*54
$GPGGA,031031.00,3030.67627939,N,11424.09076278,E,4,12,1.0,37.016,M,-12.685,M,1.0,0000*54
$GPGGA,031032.00,3030.67628432,N,11424.09076115,E,4,12,1.0,37.023,M,-12.685,M,1.0,0000*50
$GPGGA,031033.00,3030.67627589,N,11424.09076800,E,4,12,1.0,37.040,M,-12.685,M,1.0,0000*57
$GPGGA,031034.00,3030.67628171,N,11424.09076525,E,4,12,1.0,37.023,M,-12.685,M,1.0,0000*53
$GPGGA,031035.00,3030.67627886,N,11424.09076580,E,4,12,1.0,37.018,M,-12.685,M,1.0,0000*5B
$GPGGA,031036.00,3030.67628817,N,11424.09076617,E,4,12,1.0,37.031,M,-12.685,M,1.0,0000*59
$GPGGA,031037.00,3030.67628975,N,11424.09076043,E,4,12,1.0,37.018,M,-12.685,M,1.0,0000*51
$GPGGA,031038.00,3030.67628606,N,11424.09077440,E,4,12,1.0,37.043,M,-12.685,M,1.0,0000*5D
$GPGGA,031039.00,3030.67627944,N,11424.09076798,E,4,12,1.0,37.022,M,-12.685,M,1.0,0000*5A
$GPGGA,031040.00,3030.67627805,N,11424.09077020,E,4,12,1.0,37.030,M,-12.685,M,1.0,0000*56
$GPGGA,031041.00,3030.67627837,N,11424.09076813,E,4,11,1.2,37.032,M,-12.685,M,1.0,0000*5C
$GPGGA,031042.00,3030.67627937,N,11424.09076818,E,4,11,1.2,37.025,M,-12.685,M,1.0,0000*53
$GPGGA,031043.00,3030.67627025,N,11424.09076276,E,4,11,1.2,37.018,M,-12.685,M,1.0,0000*54
$GPGGA,031044.00,3030.67627628,N,11424.09076420,E,4,11,1.2,37.026,M,-12.685,M,1.0,0000*50
$GPGGA,031045.00,3030.67627382,N,11424.09076497,E,4,11,1.2,37.025,M,-12.685,M,1.0,0000*5B
$GPGGA,031046.00,3030.67627947,N,11424.09077023,E,4,11,1.2,37.040,M,-12.685,M,1.0,0000*52
$GPGGA,031047.00,3030.67627443,N,11424.09076526,E,4,11,1.2,37.011,M,-12.685,M,1.0,0000*5F
$GPGGA,031048.00,3030.67627369,N,11424.09076180,E,4,11,1.2,37.007,M,-12.685,M,1.0,0000*50
$GPGGA,031049.00,3030.67627560,N,11424.09076664,E,4,11,1.2,37.020,M,-12.685,M,1.0,0000*56
$GPGGA,031050.00,3030.67627264,N,11424.09076122,E,4,11,1.2,37.015,M,-12.685,M,1.0,0000*5E
$GPGGA,031051.00,3030.67627653,N,11424.09076503,E,4,11,1.2,37.010,M,-12.685,M,1.0,0000*5D
$GPGGA,031052.00,3030.67627545,N,11424.09076330,E,4,11,1.2,37.005,M,-12.685,M,1.0,0000*58
$GPGGA,031053.00,3030.67627595,N,11424.09076085,E,4,11,1.2,37.010,M,-12.685,M,1.0,0000*5D
$GPGGA,031054.00,3030.67627960,N,11424.09076626,E,4,11,1.2,37.019,M,-12.685,M,1.0,0000*5A
$GPGGA,031055.00,3030.67627942,N,11424.09076941,E,4,11,1.2,37.026,M,-12.685,M,1.0,0000*59
$GPGGA,031056.00,3030.67627528,N,11424.09076354,E,4,11,1.2,37.017,M,-12.685,M,1.0,0000*56
$GPGGA,031057.00,3030.67627881,N,11424.09076253,E,4,11,1.2,37.014,M,-12.685,M,1.0,0000*5C
$GPGGA,031058.00,3030.67627406,N,11424.09076254,E,4,11,1.2,37.020,M,-12.685,M,1.0,0000*50
$GPGGA,031059.00,3030.67627781,N,11424.09076268,E,4,11,1.2,37.005,M,-12.685,M,1.0,0000*55
$GPGGA,031100.00,3030.67627362,N,11424.09076070,E,4,11,1.2,37.003,M,-12.685,M,1.0,0000*5C
$GPGGA,031101.00,3030.67627792,N,11424.09076160,E,4,11,1.2,37.008,M,-12.685,M,1.0,0000*5D
$GPGGA,031102.00,3030.67627583,N,11424.09076050,E,4,11,1.2,37.018,M,-12.685,M,1.0,0000*5F
$GPGGA,031103.00,3030.67628326,N,11424.09076398,E,4,11,1.2,37.021,M,-12.685,M,1.0,0000*55
$GPGGA,031104.00,3030.67627788,N,11424.09076294,E,4,11,1.2,36.998,M,-12.685,M,1.0,0000*5A
$GPGGA,031105.00,3030.67627927,N,11424.09076015,E,4,11,1.2,37.000,M,-12.685,M,1.0,0000*52
$GPGGA,031106.00,3030.67627766,N,11424.09076203,E,4,11,1.2,37.008,M,-12.685,M,1.0,0000*57
$GPGGA,031107.00,3030.67627749,N,11424.09076320,E,4,11,1.2,37.015,M,-12.685,M,1.0,0000*57
$GPGGA,031108.00,3030.67626985,N,11424.09075745,E,4,11,1.2,37.002,M,-12.685,M,1.0,0000*55
$GPGGA,031109.00,3030.67627813,N,11424.09075971,E,4,11,1.2,36.985,M,-12.685,M,1.0,0000*55
$GPGGA,031110.00,3030.67627530,N,11424.09075875,E,4,11,1.2,36.991,M,-12.685,M,1.0,0000*51
$GPGGA,031111.00,3030.67627522,N,11424.09075571,E,4,11,1.2,36.988,M,-12.685,M,1.0,0000*52
$GPGGA,031112.00,3030.67628089,N,11424.09076885,E,4,12,1.2,37.023,M,-12.685,M,1.0,0000*55
$GPGGA,031113.00,3030.67628241,N,11424.09076876,E,4,12,1.2,37.021,M,-12.685,M,1.0,0000*5C
$GPGGA,031114.00,3030.67627444,N,11424.09076715,E,4,12,1.0,37.025,M,-12.685,M,1.0,0000*5B
$GPGGA,031115.00,3030.67628171,N,11424.09076517,E,4,12,1.0,37.020,M,-12.685,M,1.0,0000*53
$GPGGA,031116.00,3030.67628283,N,11424.09077119,E,4,12,1.0,37.030,M,-12.685,M,1.0,0000*54
$GPGGA,031117.00,3030.67628344,N,11424.09076932,E,4,12,1.0,37.029,M,-12.685,M,1.0,0000*57
$GPGGA,031118.00,3030.67628327,N,11424.09077221,E,4,12,1.0,37.026,M,-12.685,M,1.0,0000*5A
$GPGGA,031119.00,3030.67628370,N,11424.09076680,E,4,12,1.0,37.017,M,-12.685,M,1.0,0000*55
$GPGGA,031120.00,3030.67628313,N,11424.09076700,E,4,12,1.0,37.018,M,-12.685,M,1.0,0000*5C
$GPGGA,031121.00,3030.67628806,N,11424.09076628,E,4,12,1.0,37.005,M,-12.685,M,1.0,0000*55
$GPGGA,031122.00,3030.67628044,N,11424.09076924,E,4,12,1.0,37.009,M,-12.685,M,1.0,0000*57
$GPGGA,031123.00,3030.67628011,N,11424.09077012,E,4,12,1.0,37.017,M,-12.685,M,1.0,0000*54
$GPGGA,031124.00,3030.67628327,N,11424.09076920,E,4,12,1.0,37.024,M,-12.685,M,1.0,0000*5C
$GPGGA,031125.00,3030.67627434,N,11424.09076188,E,4,12,1.0,37.001,M,-12.685,M,1.0,0000*5A
$GPGGA,031126.00,3030.67628449,N,11424.09076782,E,4,12,1.0,37.004,M,-12.685,M,1.0,0000*55
$GPGGA,031127.00,3030.67627030,N,11424.09075775,E,4,12,1.0,36.994,M,-12.685,M,1.0,0000*5B
$GPGGA,031128.00,3030.67627711,N,11424.09075996,E,4,12,1.0,36.995,M,-12.685,M,1.0,0000*52
$GPGGA,031129.00,3030.67627717,N,11424.09076391,E,4,12,1.0,37.009,M,-12.685,M,1.0,0000*56
$GPGGA,031130.00,3030.67628740,N,11424.09077314,E,4,12,1.0,37.013,M,-12.685,M,1.0,0000*54
$GPGGA,031131.00,3030.67627140,N,11424.09076203,E,4,12,1.0,37.004,M,-12.685,M,1.0,0000*5C
$GPGGA,031132.00,3030.67628291,N,11424.09076514,E,4,12,1.0,37.006,M,-12.685,M,1.0,0000*5C
$GPGGA,031133.00,3030.67628092,N,11424.09076824,E,4,12,1.0,37.017,M,-12.685,M,1.0,0000*52
$GPGGA,031134.00,3030.67628195,N,11424.09076726,E,4,12,1.0,37.009,M,-12.685,M,1.0,0000*51
$GPGGA,031135.00,3030.67627724,N,11424.09076123,E,4,12,1.0,36.993,M,-12.685,M,1.0,0000*5B
$GPGGA,031136.00,3030.67628225,N,11424.09076398,E,4,12,1.0,36.997,M,-12.685,M,1.0,0000*55
$GPGGA,031137.00,3030.67627782,N,11424.09076339,E,4,12,1.0,37.002,M,-12.685,M,1.0,0000*5C
$GPGGA,031138.00,3030.67628744,N,11424.09076766,E,4,12,1.0,37.003,M,-12.685,M,1.0,0000*59
$GPGGA,031139.00,3030.67627992,N,11424.09076058,E,4,12,1.0,36.996,M,-12.685,M,1.0,0000*5C
$GPGGA,031140.00,3030.67628626,N,11424.09075754,E,4,12,1.0,36.983,M,-12.685,M,1.0,0000*51
$GPGGA,031141.00,3030.67628049,N,11424.09075847,E,4,12,1.0,36.991,M,-12.685,M,1.0,0000*51
$GPGGA,031142.00,3030.67628772,N,11424.09076398,E,4,11,1.0,36.990,M,-12.685,M,1.0,0000*55
$GPGGA,031143.00,3030.67627960,N,11424.09076310,E,4,11,1.0,37.007,M,-12.685,M,1.0,0000*50
$GPGGA,031144.00,3030.67628330,N,11424.09075930,E,4,11,1.0,37.007,M,-12.685,M,1.0,0000*5C
$GPGGA,031145.00,3030.67629076,N,11424.09076805,E,4,11,1.0,37.009,M,-12.685,M,1.0,0000*57
$GPGGA,031146.00,3030.67628236,N,11424.09076113,E,4,11,1.0,37.011,M,-12.685,M,1.0,0000*54
$GPGGA,031147.00,3030.67628578,N,11424.09076554,E,4,11,1.0,37.011,M,-12.685,M,1.0,0000*5F
$GPGGA,031148.00,3030.67628705,N,11424.09076718,E,4,11,1.0,37.016,M,-12.685,M,1.0,0000*55
$GPGGA,031149.00,3030.67628770,N,11424.09076830,E,4,11,1.0,37.022,M,-12.685,M,2.0,0000*57
$GPGGA,031150.00,3030.67628979,N,11424.09076857,E,4,11,1.0,37.019,M,-12.685,M,2.0,0000*51
$GPGGA,031151.00,3030.67629094,N,11424.09077070,E,4,11,1.0,37.025,M,-12.685,M,1.0,0000*5B
$GPGGA,031152.00,3030.67628572,N,11424.09076502,E,4,11,1.0,37.022,M,-12.685,M,1.0,0000*52
$GPGGA,031153.00,3030.67628459,N,11424.09076530,E,4,11,1.0,37.025,M,-12.685,M,1.0,0000*5D
$GPGGA,031154.00,3030.67628571,N,11424.09076607,E,4,11,1.0,37.016,M,-12.685,M,1.0,0000*56
$GPGGA,031155.00,3030.67628392,N,11424.09076694,E,4,11,1.0,37.025,M,-12.685,M,1.0,0000*56
$GPGGA,031156.00,3030.67628492,N,11424.09076584,E,4,11,1.0,37.023,M,-12.685,M,1.0,0000*56
$GPGGA,031157.00,3030.67629001,N,11424.09076422,E,4,11,1.0,37.026,M,-12.685,M,1.0,0000*50
$GPGGA,031158.00,3030.67628377,N,11424.09076566,E,4,11,1.0,37.027,M,-12.685,M,1.0,0000*5C
$GPGGA,031159.00,3030.67629011,N,11424.09076456,E,4,11,1.0,37.019,M,-12.685,M,1.0,0000*50
$GPGGA,031200.00,3030.67627923,N,11424.09076082,E,4,11,1.0,37.032,M,-12.685,M,1.0,0000*5D
$GPGGA,031201.00,3030.67628346,N,11424.09076573,E,4,11,1.0,37.031,M,-12.685,M,1.0,0000*52
$GPGGA,031202.00,3030.67628772,N,11424.09077032,E,4,11,1.0,37.054,M,-12.685,M,1.0,0000*50
$GPGGA,031203.00,3030.67628549,N,11424.09076202,E,4,11,1.0,37.018,M,-12.685,M,1.0,0000*53
$GPGGA,031204.00,3030.67628499,N,11424.09076557,E,4,11,1.0,37.025,M,-12.685,M,1.0,0000*51
$GPGGA,031205.00,3030.67629534,N,11424.09077095,E,4,11,1.0,37.030,M,-12.685,M,1.0,0000*59
$GPGGA,031206.00,3030.67628367,N,11424.09076326,E,4,11,1.0,37.029,M,-12.685,M,1.0,0000*59
$GPGGA,031207.00,3030.67629280,N,11424.09076768,E,4,11,1.0,37.029,M,-12.685,M,1.0,0000*5F
$GPGGA,031208.00,3030.67629573,N,11424.09076884,E,4,11,1.0,37.039,M,-12.685,M,2.0,0000*54
$GPGGA,031209.00,3030.67629300,N,11424.09076421,E,4,11,1.0,37.017,M,-12.685,M,3.0,0000*59
$GPGGA,031210.00,3030.67628391,N,11424.09076782,E,4,11,1.0,37.044,M,-12.685,M,1.0,0000*56
$GPGGA,031211.00,3030.67628346,N,11424.09076512,E,4,11,1.0,37.028,M,-12.685,M,1.0,0000*5C
$GPGGA,031212.00,3030.67628491,N,11424.09076346,E,4,11,1.0,37.026,M,-12.685,M,1.0,0000*5B
$GPGGA,031213.00,3030.67628094,N,11424.09076149,E,4,11,1.0,37.044,M,-12.685,M,1.0,0000*52
$GPGGA,031214.00,3030.67628700,N,11424.09076392,E,4,11,1.0,37.036,M,-12.685,M,1.0,0000*5E
$GPGGA,031215.00,3030.67628692,N,11424.09076518,E,4,11,1.0,37.030,M,-12.685,M,1.0,0000*57
$GPGGA,031216.00,3030.67628760,N,11424.09076410,E,4,11,1.0,37.030,M,-12.685,M,1.0,0000*51
$GPGGA,031217.00,3030.67628004,N,11424.09076199,E,4,11,1.0,37.024,M,-12.685,M,1.0,0000*54
$GPGGA,031218.00,3030.67628009,N,11424.09076194,E,4,11,1.0,37.034,M,-12.685,M,1.0,0000*5A
$GPGGA,031219.00,3030.67629129,N,11424.09076649,E,4,11,1.0,37.029,M,-12.685,M,1.0,0000*52
$GPGGA,031220.00,3030.67629015,N,11424.09076540,E,4,11,1.0,37.020,M,-12.685,M,1.0,0000*55
$GPGGA,031221.00,3030.67628713,N,11424.09076601,E,4,11,1.0,37.039,M,-12.685,M,1.0,0000*5A
$GPGGA,031222.00,3030.67629239,N,11424.09076608,E,4,11,1.0,37.033,M,-12.685,M,1.0,0000*56
$GPGGA,031223.00,3030.67628871,N,11424.09076497,E,4,11,1.0,37.022,M,-12.685,M,1.0,0000*54
$GPGGA,031224.00,3030.67629455,N,11424.09076644,E,4,11,1.0,37.030,M,-12.685,M,1.0,0000*57
$GPGGA,031225.00,3030.67628216,N,11424.09076566,E,4,11,1.0,37.041,M,-12.685,M,1.0,0000*53
$GPGGA,031226.00,3030.67629068,N,11424.09076708,E,4,11,1.0,37.039,M,-12.685,M,1.0,0000*5F
$GPGGA,031227.00,3030.67628709,N,11424.09076268,E,4,11,1.0,37.033,M,-12.685,M,1.0,0000*56
$GPGGA,031228.00,3030.67629193,N,11424.09076932,E,4,11,1.0,37.036,M,-12.685,M,1.0,0000*5C
$GPGGA,031229.00,3030.67629015,N,11424.09076501,E,4,11,1.0,37.034,M,-12.685,M,1.0,0000*5C
$GPGGA,031230.00,3030.67628857,N,11424.09076189,E,4,11,1.0,37.028,M,-12.685,M,1.0,0000*52
$GPGGA,031231.00,3030.67628448,N,11424.09076260,E,4,11,1.0,37.038,M,-12.685,M,1.0,0000*54
$GPGGA,031232.00,3030.67628600,N,11424.09076712,E,4,11,1.0,37.042,M,-12.685,M,1.0,0000*54
$GPGGA,031233.00,3030.67628886,N,11424.09076281,E,4,11,1.0,37.031,M,-12.685,M,1.0,0000*5E
$GPGGA,031234.00,3030.67628312,N,11424.09076169,E,4,11,1.0,37.041,M,-12.685,M,1.0,0000*5D
$GPGGA,031235.00,3030.67627866,N,11424.09075875,E,4,11,1.0,37.029,M,-12.685,M,1.0,0000*52
$GPGGA,031236.00,3030.67628952,N,11424.09076219,E,4,11,1.0,37.039,M,-12.685,M,1.0,0000*5A
$GPGGA,031237.00,3030.67628377,N,11424.09076606,E,4,11,1.0,37.040,M,-12.685,M,1.0,0000*52
$GPGGA,031238.00,3030.67628401,N,11424.09076616,E,4,11,1.0,37.038,M,-12.685,M,1.0,0000*55
$GPGGA,031239.00,3030.67628365,N,11424.09076705,E,4,11,1.0,37.072,M,-12.685,M,1.0,0000*5C
$GPGGA,031240.00,3030.67628696,N,11424.09076712,E,4,11,1.0,37.067,M,-12.685,M,1.0,0000*59
$GPGGA,031241.00,3030.67628876,N,11424.09076735,E,4,11,1.2,37.037,M,-12.685,M,1.0,0000*5A
$GPGGA,031242.00,3030.67628409,N,11424.09076082,E,4,10,1.2,37.034,M,-12.685,M,1.0,0000*54
$GPGGA,031243.00,3030.67628680,N,11424.09076466,E,4,11,1.2,37.040,M,-12.685,M,1.0,0000*5A
$GPGGA,031244.00,3030.67629187,N,11424.09076762,E,4,11,1.2,37.032,M,-12.685,M,1.0,0000*5E
$GPGGA,031245.00,3030.67628837,N,11424.09076252,E,4,11,1.2,37.035,M,-12.685,M,1.0,0000*5D
$GPGGA,031246.00,3030.67628392,N,11424.09076442,E,4,11,1.2,37.029,M,-12.685,M,1.0,0000*50
$GPGGA,031247.00,3030.67628855,N,11424.09076344,E,4,11,1.2,37.044,M,-12.685,M,1.0,0000*5B
$GPGGA,031248.00,3030.67628260,N,11424.09076228,E,4,11,1.2,37.035,M,-12.685,M,1.0,0000*55
$GPGGA,031249.00,3030.67628870,N,11424.09076364,E,4,11,1.2,37.043,M,-12.685,M,1.0,0000*57
$GPGGA,031250.00,3030.67628372,N,11424.09076087,E,4,11,1.2,37.033,M,-12.685,M,1.0,0000*5F
$GPGGA,031251.00,3030.67629361,N,11424.09076676,E,4,11,1.2,37.036,M,-12.685,M,1.0,0000*50
$GPGGA,031252.00,3030.67628434,N,11424.09076200,E,4,11,1.2,37.030,M,-12.685,M,1.0,0000*56
$GPGGA,031253.00,3030.67628780,N,11424.09076587,E,4,11,1.2,37.048,M,-12.685,M,1.0,0000*5C
$GPGGA,031254.00,3030.67628475,N,11424.09076310,E,4,11,1.2,37.033,M,-12.685,M,1.0,0000*56
$GPGGA,031255.00,3030.67628878,N,11424.09076454,E,4,11,1.2,37.035,M,-12.685,M,1.0,0000*57
$GPGGA,031256.00,3030.67628375,N,11424.09075934,E,4,11,1.2,37.053,M,-12.685,M,1.0,0000*5A
$GPGGA,031257.00,3030.67628551,N,11424.09076160,E,4,11,1.2,37.050,M,-12.685,M,1.0,0000*52
$GPGGA,031258.00,3030.67628583,N,11424.09076368,E,4,11,1.2,37.048,M,-12.685,M,1.0,0000*51
$GPGGA,031259.00,3030.67628802,N,11424.09076722,E,4,11,1.2,37.039,M,-12.685,M,1.0,0000*58
$GPGGA,031300.00,3030.67628630,N,11424.09076207,E,4,11,1.2,37.033,M,-12.685,M,1.0,0000*52
$GPGGA,031301.00,3030.67628409,N,11424.09076356,E,4,11,1.2,37.049,M,-12.685,M,1.0,0000*53
$GPGGA,031302.00,3030.67628904,N,11424.09076324,E,4,11,1.2,37.044,M,-12.685,M,1.0,0000*58
$GPGGA,031303.00,3030.67629442,N,11424.09076633,E,4,11,1.2,37.048,M,-12.685,M,1.0,0000*58
$GPGGA,031304.00,3030.67628842,N,11424.09076611,E,4,11,1.2,37.042,M,-12.685,M,1.0,0000*58
$GPGGA,031305.00,3030.67628602,N,11424.09076332,E,4,11,1.2,37.047,M,-12.685,M,1.0,0000*52
$GPGGA,031306.00,3030.67629528,N,11424.09076799,E,4,11,1.2,37.050,M,-12.685,M,1.0,0000*58
$GPGGA,031307.00,3030.67629098,N,11424.09076556,E,4,11,1.2,37.045,M,-12.685,M,1.0,0000*52
$GPGGA,031308.00,3030.67629282,N,11424.09076548,E,4,11,1.2,37.044,M,-12.685,M,1.0,0000*5A
$GPGGA,031309.00,3030.67628613,N,11424.09076352,E,4,11,1.2,37.056,M,-12.685,M,1.0,0000*58
$GPGGA,031310.00,3030.67629338,N,11424.09076239,E,4,11,1.2,37.034,M,-12.685,M,1.0,0000*55
$GPGGA,031311.00,3030.67628921,N,11424.09076608,E,4,11,1.2,37.057,M,-12.685,M,1.0,0000*54
$GPGGA,031312.00,3030.67629342,N,11424.09076514,E,4,11,1.2,37.062,M,-12.685,M,1.0,0000*51
$GPGGA,031313.00,3030.67629205,N,11424.09076199,E,4,11,1.2,37.038,M,-12.685,M,1.0,0000*5C
$GPGGA,031314.00,3030.67629483,N,11424.09077000,E,4,11,1.2,37.049,M,-12.685,M,1.0,0000*55
$GPGGA,031315.00,3030.67628827,N,11424.09075856,E,4,11,1.2,37.037,M,-12.685,M,1.0,0000*57
$GPGGA,031316.00,3030.67629504,N,11424.09076759,E,4,11,1.2,37.058,M,-12.685,M,1.0,0000*53
$GPGGA,031317.00,3030.67629270,N,11424.09076451,E,4,11,1.2,37.056,M,-12.685,M,1.0,0000*53
$GPGGA,031318.00,3030.67629839,N,11424.09076740,E,4,11,1.2,37.050,M,-12.685,M,1.0,0000*5E
$GPGGA,031319.00,3030.67629052,N,11424.09076233,E,4,11,1.2,37.047,M,-12.685,M,1.0,0000*5D
$GPGGA,031320.00,3030.67629742,N,11424.09076991,E,4,11,1.2,37.049,M,-12.685,M,1.0,0000*5C
$GPGGA,031321.00,3030.67629255,N,11424.09076101,E,4,11,1.2,37.041,M,-12.685,M,1.0,0000*57
$GPGGA,031322.00,3030.67629523,N,11424.09076674,E,4,11,1.2,37.039,M,-12.685,M,1.0,0000*58
$GPGGA,031323.00,3030.67629495,N,11424.09076681,E,4,11,1.2,37.033,M,-12.685,M,1.0,0000*55
$GPGGA,031324.00,3030.67629495,N,11424.09076637,E,4,11,1.2,37.047,M,-12.685,M,1.0,0000*5C
$GPGGA,031325.00,3030.67628776,N,11424.09076016,E,4,11,1.2,37.042,M,-12.685,M,1.0,0000*52
$GPGGA,031326.00,3030.67628856,N,11424.09076327,E,4,11,1.2,37.042,M,-12.685,M,1.0,0000*5D
$GPGGA,031327.00,3030.67629301,N,11424.09076452,E,4,11,1.2,37.034,M,-12.685,M,1.0,0000*50
$GPGGA,031328.00,3030.67629225,N,11424.09076387,E,4,11,1.2,37.044,M,-12.685,M,1.0,0000*50
$GPGGA,031329.00,3030.67629808,N,11424.09076402,E,4,11,1.2,37.058,M,-12.685,M,1.0,0000*53
$GPGGA,031330.00,3030.67629939,N,11424.09076454,E,4,11,1.2,37.054,M,-12.685,M,1.0,0000*57
$GPGGA,031331.00,3030.67628796,N,11424.09076530,E,4,11,1.2,37.029,M,-12.685,M,1.0,0000*55
$GPGGA,031332.00,3030.67629739,N,11424.09076510,E,4,11,1.2,37.042,M,-12.685,M,1.0,0000*5D
$GPGGA,031333.00,3030.67629030,N,11424.09075953,E,4,11,1.2,37.049,M,-12.685,M,1.0,0000*51
$GPGGA,031334.00,3030.67628983,N,11424.09076226,E,4,11,1.2,37.055,M,-12.685,M,1.0,0000*51
$GPGGA,031335.00,3030.67629704,N,11424.09076515,E,4,11,1.2,37.035,M,-12.685,M,1.0,0000*51
$GPGGA,031336.00,3030.67629126,N,11424.09076620,E,4,11,1.2,37.051,M,-12.685,M,1.0,0000*53
$GPGGA,031337.00,3030.67629558,N,11424.09076434,E,4,11,1.2,37.060,M,-12.685,M,1.0,0000*5A
$GPGGA,031338.00,3030.67628379,N,11424.09076071,E,4,11,1.2,37.049,M,-12.685,M,1.0,0000*5F
$GPGGA,031339.00,3030.67630070,N,11424.09076850,E,4,11,1.2,37.050,M,-12.685,M,1.0,0000*5E
$GPGGA,031340.00,3030.67629250,N,11424.09076195,E,4,11,1.2,37.033,M,-12.685,M,1.0,0000*5D
$GPGGA,031341.00,3030.67629566,N,11424.09076290,E,4,11,1.2,37.051,M,-12.685,M,1.0,0000*5C
$GPGGA,031342.00,3030.67629265,N,11424.09076502,E,4,11,1.2,37.057,M,-12.685,M,1.0,0000*51
$GPGGA,031343.00,3030.67629408,N,11424.09076681,E,4,11,1.2,37.049,M,-12.685,M,1.0,0000*5A
$GPGGA,031344.00,3030.67629205,N,11424.09076350,E,4,11,1.2,37.035,M,-12.685,M,1.0,0000*54
$GPGGA,031345.00,3030.67629284,N,11424.09076488,E,4,11,1.2,37.048,M,-12.685,M,1.0,0000*54
$GPGGA,031346.00,3030.67629184,N,11424.09076527,E,4,11,1.2,37.056,M,-12.685,M,1.0,0000*5F
$GPGGA,031347.00,3030.67629278,N,11424.09076582,E,4,11,1.2,37.042,M,-12.685,M,1.0,0000*54
$GPGGA,031348.00,3030.67628777,N,11424.09076398,E,4,11,1.2,37.054,M,-12.685,M,1.0,0000*5A
$GPGGA,031349.00,3030.67629301,N,11424.09076475,E,4,11,1.2,37.043,M,-12.685,M,1.0,0000*5D
$GPGGA,031350.00,3030.67628940,N,11424.09076111,E,4,11,1.2,37.045,M,-12.685,M,2.0,0000*59
$GPGGA,031351.00,3030.67629064,N,11424.09076095,E,4,11,1.2,37.064,M,-12.685,M,2.0,0000*58
$GPGGA,031352.00,3030.67628874,N,11424.09076280,E,4,11,1.2,37.053,M,-12.685,M,1.0,0000*52
$GPGGA,031353.00,3030.67629244,N,11424.09076429,E,4,11,1.2,37.054,M,-12.685,M,1.0,0000*59
$GPGGA,031354.00,3030.67629032,N,11424.09076470,E,4,11,1.2,37.051,M,-12.685,M,1.0,0000*54
$GPGGA,031355.00,3030.67629642,N,11424.09076573,E,4,11,1.2,37.075,M,-12.685,M,1.0,0000*50
$GPGGA,031356.00,3030.67629411,N,11424.09076896,E,4,11,1.2,37.071,M,-12.685,M,1.0,0000*55
$GPGGA,031357.00,3030.67629291,N,11424.09076414,E,4,11,1.2,37.034,M,-12.685,M,1.0,0000*5D
$GPGGA,031358.00,3030.67629807,N,11424.09076565,E,4,11,1.2,37.057,M,-12.685,M,1.0,0000*55
$GPGGA,031359.00,3030.67629221,N,11424.09076367,E,4,11,1.2,37.058,M,-12.685,M,1.0,0000*51
$GPGGA,031400.00,3030.67630008,N,11424.09076763,E,4,11,1.2,37.058,M,-12.685,M,1.0,0000*5B
$GPGGA,031401.00,3030.67629325,N,11424.09076705,E,4,11,1.2,37.058,M,-12.685,M,1.0,0000*5E
$GPGGA,031402.00,3030.67629127,N,11424.09076402,E,4,11,1.7,37.033,M,-12.685,M,1.0,0000*51
$GPGGA,031403.00,3030.67629738,N,11424.09076421,E,4,11,1.7,37.058,M,-12.685,M,1.0,0000*54
$GPGGA,031404.00,3030.67629220,N,11424.09076506,E,4,11,1.7,37.065,M,-12.685,M,1.0,0000*55
$GPGGA,031405.00,3030.67629066,N,11424.09076112,E,4,11,1.7,37.052,M,-12.685,M,1.0,0000*51
$GPGGA,031406.00,3030.67629720,N,11424.09076354,E,4,11,1.7,37.044,M,-12.685,M,1.0,0000*50
$GPGGA,031407.00,3030.67629512,N,11424.09076415,E,4,11,1.7,37.055,M,-12.685,M,2.0,0000*53
$GPGGA,031408.00,3030.67630189,N,11424.09076457,E,4,11,1.7,37.065,M,-12.685,M,1.0,0000*54
$GPGGA,031409.00,3030.67629576,N,11424.09076239,E,4,11,1.7,37.049,M,-12.685,M,1.0,0000*59
$GPGGA,031410.00,3030.67629116,N,11424.09076466,E,4,11,1.7,37.041,M,-12.685,M,1.0,0000*57
$GPGGA,031411.00,3030.67629735,N,11424.09076099,E,4,11,1.7,37.063,M,-12.685,M,1.0,0000*55
$GPGGA,031412.00,3030.67630280,N,11424.09076359,E,4,11,1.7,37.043,M,-12.685,M,1.0,0000*58
$GPGGA,031413.00,3030.67629450,N,11424.09076119,E,4,11,1.7,37.048,M,-12.685,M,1.0,0000*57
$GPGGA,031414.00,3030.67629663,N,11424.09076303,E,4,11,1.7,37.046,M,-12.685,M,1.0,0000*55
$GPGGA,031415.00,3030.67629578,N,11424.09076365,E,4,11,1.7,37.046,M,-12.685,M,1.0,0000*5D
$GPGGA,031416.00,3030.67629446,N,11424.09075981,E,4,11,1.7,37.052,M,-12.685,M,1.0,0000*54
$GPGGA,031417.00,3030.67629968,N,11424.09076419,E,4,11,1.7,37.053,M,-12.685,M,1.0,0000*5A
$GPGGA,031418.00,3030.67629491,N,11424.09076510,E,4,11,1.7,37.051,M,-12.685,M,1.0,0000*54
$GPGGA,031419.00,3030.67629888,N,11424.09076376,E,4,11,1.7,37.038,M,-12.685,M,1.0,0000*58
$GPGGA,031420.00,3030.67629677,N,11424.09076232,E,4,11,1.7,37.051,M,-12.685,M,1.0,0000*52
$GPGGA,031421.00,3030.67629480,N,11424.09076212,E,4,11,1.7,37.053,M,-12.685,M,1.0,0000*59
$GPGGA,031422.00,3030.67629311,N,11424.09075864,E,4,11,1.7,37.010,M,-12.685,M,1.0,0000*5A
$GPGGA,031423.00,3030.67627373,N,11424.09075737,E,4,09,1.9,37.083,M,-12.685,M,1.0,0000*55
$GPGGA,031424.00,3030.67630698,N,11424.09075814,E,4,09,1.9,37.233,M,-12.685,M,1.0,0000*53
$GPGGA,031425.00,3030.67629169,N,11424.09076386,E,4,09,1.9,37.086,M,-12.685,M,1.0,0000*5C
$GPGGA,031426.00,3030.67628793,N,11424.09076224,E,4,09,1.9,37.076,M,-12.685,M,1.0,0000*5B
$GPGGA,031427.00,3030.67629160,N,11424.09076207,E,4,10,1.9,37.049,M,-12.685,M,1.0,0000*54
$GPGGA,031428.00,3030.67628608,N,11424.09076463,E,4,10,1.9,37.061,M,-12.685,M,1.0,0000*5D
$GPGGA,031429.00,3030.67629038,N,11424.09076658,E,4,10,1.9,37.068,M,-12.685,M,1.0,0000*5B
$GPGGA,031430.00,3030.67628780,N,11424.09076356,E,4,10,1.9,37.059,M,-12.685,M,1.0,0000*5F
$GPGGA,031431.00,3030.67628656,N,11424.09076201,E,4,10,1.9,37.051,M,-12.685,M,2.0,0000*5C
$GPGGA,031432.00,3030.67628853,N,11424.09076310,E,4,10,1.9,37.045,M,-12.685,M,1.0,0000*53
$GPGGA,031433.00,3030.67629101,N,11424.09076280,E,4,10,1.9,37.048,M,-12.685,M,1.0,0000*58
$GPGGA,031434.00,3030.67628936,N,11424.09076177,E,4,10,1.9,37.055,M,-12.685,M,1.0,0000*55
$GPGGA,031435.00,3030.67629529,N,11424.09076449,E,4,10,1.9,37.052,M,-12.685,M,1.0,0000*58
$GPGGA,031436.00,3030.67628405,N,11424.09076260,E,4,10,1.9,37.048,M,-12.685,M,1.0,0000*53
$GPGGA,031437.00,3030.67629315,N,11424.09076217,E,4,10,1.2,37.049,M,-12.685,M,1.0,0000*5F
$GPGGA,031438.00,3030.67628683,N,11424.09076009,E,4,10,1.2,37.057,M,-12.685,M,1.0,0000*59
$GPGGA,031439.00,3030.67629142,N,11424.09076269,E,4,10,1.2,37.076,M,-12.685,M,1.0,0000*54
$GPGGA,031440.00,3030.67629086,N,11424.09076391,E,4,10,1.2,37.059,M,-12.685,M,1.0,0000*58
$GPGGA,031441.00,3030.67628745,N,11424.09076480,E,4,10,1.2,37.068,M,-12.685,M,1.0,0000*55
$GPGGA,031442.00,3030.67629481,N,11424.09076538,E,4,10,1.2,37.078,M,-12.685,M,1.0,0000*5F
$GPGGA,031443.00,3030.67628755,N,11424.09076275,E,4,10,1.2,37.038,M,-12.685,M,1.0,0000*5F
$GPGGA,031444.00,3030.67629337,N,11424.09076339,E,4,10,1.2,37.057,M,-12.685,M,1.0,0000*59
$GPGGA,031445.00,3030.67628927,N,11424.09076101,E,4,10,1.2,37.058,M,-12.685,M,1.0,0000*54
$GPGGA,031446.00,3030.67629485,N,11424.09076217,E,4,10,1.2,37.068,M,-12.685,M,1.0,0000*54
$GPGGA,031447.00,3030.67628714,N,11424.09076034,E,4,10,1.2,37.062,M,-12.685,M,1.0,0000*56
$GPGGA,031448.00,3030.67629383,N,11424.09076205,E,4,09,1.2,37.067,M,-12.685,M,1.0,0000*5F
$GPGGA,031449.00,3030.67628687,N,11424.09076305,E,4,10,1.2,37.044,M,-12.685,M,1.0,0000*56
$GPGGA,031450.00,3030.67628812,N,11424.09075914,E,4,10,1.2,37.056,M,-12.685,M,1.0,0000*56
$GPGGA,031451.00,3030.67629287,N,11424.09076266,E,4,11,1.2,37.055,M,-12.685,M,1.0,0000*5F
$GPGGA,031452.00,3030.67629882,N,11424.09075807,E,4,11,1.2,37.042,M,-12.685,M,1.0,0000*5B
$GPGGA,031453.00,3030.67628225,N,11424.09076394,E,4,11,1.2,37.079,M,-12.685,M,1.0,0000*56
$GPGGA,031454.00,3030.67629369,N,11424.09076015,E,4,11,1.2,37.037,M,-12.685,M,1.0,0000*59
$GPGGA,031455.00,3030.67629948,N,11424.09075689,E,4,11,1.2,37.043,M,-12.685,M,1.0,0000*52
$GPGGA,031456.00,3030.67629926,N,11424.09075847,E,4,11,1.2,37.038,M,-12.685,M,1.0,0000*59
$GPGGA,031457.00,3030.67630791,N,11424.09075154,E,4,10,1.2,37.034,M,-12.685,M,1.0,0000*54
$GPGGA,031458.00,3030.67630579,N,11424.09075096,E,4,10,1.2,37.016,M,-12.685,M,2.0,0000*53
$GPGGA,031459.00,3030.67628622,N,11424.09076245,E,4,10,1.2,37.054,M,-12.685,M,1.0,0000*5C
$GPGGA,031500.00,3030.67629268,N,11424.09076358,E,4,10,1.2,37.043,M,-12.685,M,1.0,0000*51
$GPGGA,031501.00,3030.67629068,N,11424.09076231,E,4,10,1.2,37.051,M,-12.685,M,1.0,0000*5F
$GPGGA,031502.00,3030.67628701,N,11424.09075960,E,4,10,1.2,37.051,M,-12.685,M,1.0,0000*59
$GPGGA,031503.00,3030.67628707,N,11424.09075931,E,4,10,1.2,37.062,M,-12.685,M,1.0,0000*5A
$GPGGA,031504.00,3030.67628758,N,11424.09076112,E,4,11,1.2,37.050,M,-12.685,M,1.0,0000*5D
$GPGGA,031505.00,3030.67628824,N,11424.09076423,E,4,11,1.2,37.048,M,-12.685,M,1.0,0000*56
$GPGGA,031506.00,3030.67629218,N,11424.09076108,E,4,11,1.2,37.056,M,-12.685,M,1.0,0000*52
$GPGGA,031507.00,3030.67629538,N,11424.09075704,E,4,11,1.2,37.022,M,-12.685,M,1.0,0000*5C
$GPGGA,031508.00,3030.67630133,N,11424.09075662,E,4,09,1.2,37.039,M,-12.685,M,1.0,0000*56
$GPGGA,031509.00,3030.67629692,N,11424.09076120,E,4,09,1.2,37.048,M,-12.685,M,1.0,0000*57
$GPGGA,031510.00,3030.67629669,N,11424.09075821,E,4,11,1.2,37.063,M,-12.685,M,1.0,0000*50
$GPGGA,031511.00,3030.67630076,N,11424.09076028,E,4,11,1.2,37.029,M,-12.685,M,1.0,0000*5D
$GPGGA,031512.00,3030.67630386,N,11424.09076100,E,4,11,1.2,37.054,M,-12.685,M,1.0,0000*53
$GPGGA,031513.00,3030.67629876,N,11424.09075991,E,4,11,1.2,37.038,M,-12.685,M,1.0,0000*57
$GPGGA,031514.00,3030.67630134,N,11424.09075963,E,4,11,1.2,37.040,M,-12.685,M,1.0,0000*55
$GPGGA,031515.00,3030.67630833,N,11424.09076008,E,4,11,1.2,37.029,M,-12.685,M,1.0,0000*52
$GPGGA,031516.00,3030.67629978,N,11424.09075638,E,4,11,1.2,37.033,M,-12.685,M,1.0,0000*5A
$GPGGA,031517.00,3030.67630432,N,11424.09076274,E,4,11,1.2,37.039,M,-12.685,M,1.0,0000*55
$GPGGA,031518.00,3030.67629926,N,11424.09075729,E,4,11,1.2,37.049,M,-12.685,M,1.0,0000*53
$GPGGA,031519.00,3030.67630041,N,11424.09076091,E,4,11,1.2,37.057,M,-12.685,M,1.0,0000*5A
$GPGGA,031520.00,3030.67630303,N,11424.09075859,E,4,11,1.2,37.040,M,-12.685,M,1.0,0000*5C
$GPGGA,031521.00,3030.67629995,N,11424.09076215,E,4,11,1.2,37.029,M,-12.685,M,1.0,0000*5E
$GPGGA,031522.00,3030.67629841,N,11424.09075759,E,4,11,1.2,37.048,M,-12.685,M,1.0,0000*5C
$GPGGA,031523.00,3030.67630156,N,11424.09075986,E,4,11,1.2,37.033,M,-12.685,M,1.0,0000*5A
$GPGGA,031524.00,3030.67630141,N,11424.09075918,E,4,11,1.2,37.046,M,-12.685,M,1.0,0000*5E
$GPGGA,031525.00,3030.67630505,N,11424.09075926,E,4,11,1.2,37.055,M,-12.685,M,1.0,0000*54
$GPGGA,031526.00,3030.67630444,N,11424.09075887,E,4,11,1.2,37.019,M,-12.685,M,1.0,0000*51
$GPGGA,031527.00,3030.67630210,N,11424.09075932,E,4,11,1.2,37.026,M,-12.685,M,1.0,0000*54
$GPGGA,031528.00,3030.67630060,N,11424.09076437,E,4,10,1.2,37.035,M,-12.685,M,1.0,0000*56
$GPGGA,031529.00,3030.67630768,N,11424.09075808,E,4,11,1.2,37.055,M,-12.685,M,1.0,0000*5C
$GPGGA,031530.00,3030.67630580,N,11424.09075804,E,4,10,1.2,37.012,M,-12.685,M,1.0,0000*5E
$GPGGA,031531.00,3030.67630302,N,11424.09075975,E,4,11,1.2,37.031,M,-12.685,M,1.0,0000*54
$GPGGA,031532.00,3030.67630254,N,11424.09075516,E,4,10,1.2,37.046,M,-12.685,M,1.0,0000*5D
$GPGGA,031533.00,3030.67630639,N,11424.09075729,E,4,11,1.2,37.028,M,-12.685,M,1.0,0000*54
$GPGGA,031534.00,3030.67630798,N,11424.09076141,E,4,11,1.2,37.039,M,-12.685,M,1.0,0000*52
$GPGGA,031535.00,3030.67630214,N,11424.09075775,E,4,11,1.2,37.051,M,-12.685,M,1.0,0000*5E
$GPGGA,031536.00,3030.67630609,N,11424.09075811,E,4,11,1.2,37.027,M,-12.685,M,1.0,0000*59
$GPGGA,031537.00,3030.67630474,N,11424.09075840,E,4,11,1.2,37.045,M,-12.685,M,1.0,0000*50
$GPGGA,031538.00,3030.67631407,N,11424.09076007,E,4,11,1.2,37.024,M,-12.685,M,1.0,0000*55
$GPGGA,031539.00,3030.67630374,N,11424.09075688,E,4,11,1.2,37.073,M,-12.685,M,1.0,0000*56
$GPGGA,031540.00,3030.67631124,N,11424.09076005,E,4,11,1.2,37.030,M,-12.685,M,1.0,0000*59
$GPGGA,031541.00,3030.67630103,N,11424.09075552,E,4,11,1.2,37.051,M,-12.685,M,1.0,0000*5F
$GPGGA,031542.00,3030.67631037,N,11424.09076028,E,4,11,1.2,37.034,M,-12.685,M,1.0,0000*53
$GPGGA,031543.00,3030.67630580,N,11424.09075598,E,4,11,1.2,37.063,M,-12.685,M,1.0,0000*55
$GPGGA,031544.00,3030.67630440,N,11424.09075612,E,4,11,1.2,37.059,M,-12.685,M,1.0,0000*57
$GPGGA,031545.00,3030.67630255,N,11424.09075474,E,4,11,1.2,37.056,M,-12.685,M,1.0,0000*59
$GPGGA,031546.00,3030.67630858,N,11424.09075761,E,4,11,1.2,37.025,M,-12.685,M,1.0,0000*5E
$GPGGA,031547.00,3030.67630882,N,11424.09075745,E,4,11,1.2,37.040,M,-12.685,M,1.0,0000*5D
$GPGGA,031548.00,3030.67631215,N,11424.09075660,E,4,11,1.2,37.049,M,-12.685,M,1.0,0000*58
$GPGGA,031549.00,3030.67630714,N,11424.09075651,E,4,11,1.2,37.058,M,-12.685,M,1.0,0000*5E
$GPGGA,031550.00,3030.67631040,N,11424.09075589,E,4,11,1.2,37.057,M,-12.685,M,1.0,0000*58
$GPGGA,031551.00,3030.67630886,N,11424.09075832,E,4,11,1.2,37.059,M,-12.685,M,2.0,0000*5A
$GPGGA,031552.00,3030.67630964,N,11424.09075782,E,4,11,1.2,37.048,M,-12.685,M,2.0,0000*50
$GPGGA,031553.00,3030.67631006,N,11424.09075574,E,4,11,1.2,37.032,M,-12.685,M,2.0,0000*5B
$GPGGA,031554.00,3030.67631341,N,11424.09075587,E,4,11,1.2,37.063,M,-12.685,M,1.0,0000*57
$GPGGA,031555.00,3030.67631012,N,11424.09075530,E,4,11,1.2,37.073,M,-12.685,M,1.0,0000*5E
$GPGGA,031556.00,3030.67631212,N,11424.09075425,E,4,11,1.2,37.053,M,-12.685,M,1.0,0000*58
$GPGGA,031557.00,3030.67631350,N,11424.09075273,E,4,11,1.2,37.016,M,-12.685,M,2.0,0000*59
$GPGGA,031558.00,3030.67631496,N,11424.09075679,E,4,11,1.2,37.079,M,-12.685,M,1.0,0000*5F
$GPGGA,031559.00,3030.67631769,N,11424.09075705,E,4,11,1.2,37.076,M,-12.685,M,1.0,0000*58
$GPGGA,031600.00,3030.67631664,N,11424.09075516,E,4,11,1.2,37.065,M,-12.685,M,1.0,0000*59
$GPGGA,031601.00,3030.67630900,N,11424.09075704,E,4,11,1.2,37.055,M,-12.685,M,1.0,0000*56
$GPGGA,031602.00,3030.67630880,N,11424.09075387,E,4,11,1.2,37.073,M,-12.685,M,1.0,0000*57
$GPGGA,031603.00,3030.67631650,N,11424.09075671,E,4,11,1.2,37.057,M,-12.685,M,1.0,0000*5E
$GPGGA,031604.00,3030.67631738,N,11424.09075385,E,4,11,1.2,37.066,M,-12.685,M,1.0,0000*5A
$GPGGA,031605.00,3030.67631545,N,11424.09075483,E,4,11,1.2,37.060,M,-12.685,M,1.0,0000*54
$GPGGA,031606.00,3030.67630833,N,11424.09075520,E,4,11,1.2,37.076,M,-12.685,M,1.0,0000*55
$GPGGA,031607.00,3030.67631352,N,11424.09075651,E,4,11,1.2,37.075,M,-12.685,M,1.0,0000*5F
$GPGGA,031608.00,3030.67631225,N,11424.09075218,E,4,09,1.2,37.081,M,-12.685,M,1.0,0000*5A
$GPGGA,031609.00,3030.67631761,N,11424.09075622,E,4,09,1.2,37.071,M,-12.685,M,1.0,0000*5C
$GPGGA,031610.00,3030.67631637,N,11424.09075646,E,4,11,1.2,37.083,M,-12.685,M,1.0,0000*50
$GPGGA,031611.00,3030.67631161,N,11424.09075784,E,4,10,1.2,37.036,M,-12.685,M,1.0,0000*55
$GPGGA,031612.00,3030.67630350,N,11424.09074799,E,4,10,1.2,37.296,M,-12.685,M,1.0,0000*52
$GPGGA,031613.00,3030.67629688,N,11424.09075144,E,4,10,1.2,37.237,M,-12.685,M,1.0,0000*57
$GPGGA,031614.00,3030.67630253,N,11424.09074937,E,4,10,1.2,37.212,M,-12.685,M,1.0,0000*50
$GPGGA,031615.00,3030.67630004,N,11424.09074443,E,4,10,1.2,37.290,M,-12.685,M,1.0,0000*55
$GPGGA,031616.00,3030.67630269,N,11424.09074882,E,4,10,1.2,37.262,M,-12.685,M,1.0,0000*53
$GPGGA,031617.00,3030.67630797,N,11424.09075167,E,4,10,1.2,37.228,M,-12.685,M,1.0,0000*5B
$GPGGA,031618.00,3030.67630115,N,11424.09074991,E,4,10,1.2,37.274,M,-12.685,M,1.0,0000*51
$GPGGA,031619.00,3030.67630159,N,11424.09074874,E,4,10,1.2,37.279,M,-12.685,M,1.0,0000*5F
$GPGGA,031620.00,3030.67630079,N,11424.09074714,E,4,10,1.2,37.261,M,-12.685,M,1.0,0000*56
$GPGGA,031621.00,3030.67629739,N,11424.09074681,E,4,10,1.2,37.259,M,-12.685,M,1.0,0000*5A
$GPGGA,031622.00,3030.67630274,N,11424.09075075,E,4,10,1.2,37.239,M,-12.685,M,1.0,0000*57
$GPGGA,031623.00,3030.67630179,N,11424.09075180,E,4,10,1.2,37.214,M,-12.685,M,1.0,0000*5C
$GPGGA,031624.00,3030.67630279,N,11424.09074889,E,4,10,1.2,37.279,M,-12.685,M,1.0,0000*52
$GPGGA,031625.00,3030.67629942,N,11424.09074743,E,4,10,1.2,37.279,M,-12.685,M,1.0,0000*51
$GPGGA,031626.00,3030.67630267,N,11424.09074893,E,4,10,1.2,37.269,M,-12.685,M,1.0,0000*55
$GPGGA,031627.00,3030.67630357,N,11424.09075096,E,4,10,1.2,37.272,M,-12.685,M,1.0,0000*50
$GPGGA,031628.00,3030.67630031,N,11424.09075158,E,4,10,1.2,37.275,M,-12.685,M,1.0,0000*58
$GPGGA,031629.00,3030.67629693,N,11424.09074933,E,4,10,1.2,37.279,M,-12.685,M,1.0,0000*57
$GPGGA,031630.00,3030.67629801,N,11424.09075201,E,4,10,1.2,37.253,M,-12.685,M,1.0,0000*59
$GPGGA,031631.00,3030.67629476,N,11424.09074843,E,4,10,1.2,37.299,M,-12.685,M,1.0,0000*5F
$GPGGA,031632.00,3030.67630331,N,11424.09075150,E,4,10,1.2,37.280,M,-12.685,M,1.0,0000*52
$GPGGA,031633.00,3030.67630464,N,11424.09075139,E,4,10,1.2,37.292,M,-12.685,M,1.0,0000*58
$GPGGA,031634.00,3030.67629658,N,11424.09074877,E,4,10,1.2,37.290,M,-12.685,M,1.0,0000*5A
$GPGGA,031635.00,3030.67630205,N,11424.09074855,E,4,09,1.2,37.301,M,-12.685,M,1.0,0000*5E
$GPGGA,031636.00,3030.67629878,N,11424.09074928,E,4,10,1.2,37.248,M,-12.685,M,1.0,0000*5A
$GPGGA,031637.00,3030.67629800,N,11424.09074920,E,4,10,1.2,37.250,M,-12.685,M,1.0,0000*55
$GPGGA,031638.00,3030.67629875,N,11424.09075037,E,4,10,1.2,37.280,M,-12.685,M,1.0,0000*5B
$GPGGA,031639.00,3030.67630477,N,11424.09074793,E,4,10,1.2,37.326,M,-12.685,M,1.0,0000*59
$GPGGA,031640.00,3030.67629354,N,11424.09074889,E,4,10,1.2,37.307,M,-12.685,M,1.0,0000*5E
$GPGGA,031641.00,3030.67629867,N,11424.09075118,E,4,10,1.2,37.281,M,-12.685,M,1.0,0000*5B
$GPGGA,031642.00,3030.67629838,N,11424.09074723,E,4,10,1.2,37.310,M,-12.685,M,1.0,0000*54
$GPGGA,031643.00,3030.67630075,N,11424.09074986,E,4,10,1.2,37.336,M,-12.685,M,1.0,0000*59
$GPGGA,031644.00,3030.67629569,N,11424.09075074,E,4,10,1.2,37.284,M,-12.685,M,1.0,0000*53
$GPGGA,031645.00,3030.67629828,N,11424.09075031,E,4,10,1.2,37.292,M,-12.685,M,1.0,0000*5C
$GPGGA,031646.00,3030.67630170,N,11424.09075273,E,4,10,1.2,37.322,M,-12.685,M,1.0,0000*5D
$GPGGA,031647.00,3030.67629772,N,11424.09075155,E,4,10,1.2,37.304,M,-12.685,M,1.0,0000*53
$GPGGA,031648.00,3030.67629596,N,11424.09074836,E,4,10,1.2,37.307,M,-12.685,M,1.0,0000*5A
$GPGGA,031649.00,3030.67629402,N,11424.09075126,E,4,10,1.2,37.328,M,-12.685,M,1.0,0000*53
$GPGGA,031650.00,3030.67630129,N,11424.09075000,E,4,10,1.8,37.352,M,-12.685,M,1.0,0000*5D
$GPGGA,031651.00,3030.67629592,N,11424.09075325,E,4,10,1.8,37.310,M,-12.685,M,1.0,0000*52
$GPGGA,031652.00,3030.67630008,N,11424.09075133,E,4,10,1.8,37.356,M,-12.685,M,1.0,0000*58
$GPGGA,031653.00,3030.67630070,N,11424.09074797,E,4,10,1.8,37.327,M,-12.685,M,1.0,0000*59
$GPGGA,031654.00,3030.67629553,N,11424.09075309,E,4,10,1.8,37.336,M,-12.685,M,1.0,0000*50
$GPGGA,031655.00,3030.67629464,N,11424.09075021,E,4,10,1.8,37.320,M,-12.685,M,1.0,0000*5A
$GPGGA,031656.00,3030.67629698,N,11424.09074838,E,4,10,1.8,37.333,M,-12.685,M,1.0,0000*5B
$GPGGA,031657.00,3030.67629753,N,11424.09075169,E,4,10,1.8,37.313,M,-12.685,M,1.0,0000*52
$GPGGA,031658.00,3030.67629961,N,11424.09075445,E,4,10,1.8,37.281,M,-12.685,M,1.0,0000*53
$GPGGA,031659.00,3030.67629869,N,11424.09075170,E,4,10,1.8,37.279,M,-12.685,M,1.0,0000*5F
$GPGGA,031700.00,3030.67629451,N,11424.09075328,E,4,10,1.8,37.304,M,-12.685,M,1.0,0000*51
$GPGGA,031701.00,3030.67629606,N,11424.09075387,E,4,10,1.8,37.298,M,-12.685,M,1.0,0000*51
$GPGGA,031702.00,3030.67629893,N,11424.09075509,E,4,10,1.8,37.286,M,-12.685,M,1.0,0000*5F
$GPGGA,031703.00,3030.67629185,N,11424.09075395,E,4,10,1.8,37.292,M,-12.685,M,1.0,0000*56
$GPGGA,031704.00,3030.67629945,N,11424.09075378,E,4,10,1.8,37.328,M,-12.685,M,1.0,0000*56
$GPGGA,031705.00,3030.67629809,N,11424.09075369,E,4,10,1.8,37.306,M,-12.685,M,1.0,0000*52
$GPGGA,031706.00,3030.67629381,N,11424.09075378,E,4,10,1.8,37.284,M,-12.685,M,1.0,0000*51
$GPGGA,031707.00,3030.67629899,N,11424.09075817,E,4,10,1.8,37.271,M,-12.685,M,1.0,0000*5A
$GPGGA,031708.00,3030.67630055,N,11424.09075730,E,4,10,1.8,37.309,M,-12.685,M,1.0,0000*51
$GPGGA,031709.00,3030.67629511,N,11424.09075365,E,4,10,1.8,37.307,M,-12.685,M,1.0,0000*57
$GPGGA,031710.00,3030.67629823,N,11424.09075254,E,4,10,1.8,37.306,M,-12.685,M,1.0,0000*51
$GPGGA,031711.00,3030.67629219,N,11424.09075745,E,4,10,1.8,37.261,M,-12.685,M,1.0,0000*56
$GPGGA,031712.00,3030.67629942,N,11424.09075168,E,4,09,1.8,37.312,M,-12.685,M,1.0,0000*54
$GPGGA,031713.00,3030.67630016,N,11424.09075455,E,4,10,1.8,37.331,M,-12.685,M,1.0,0000*57
$GPGGA,031714.00,3030.67629113,N,11424.09075157,E,4,10,1.8,37.316,M,-12.685,M,1.0,0000*5E
$GPGGA,031715.00,3030.67629237,N,11424.09075341,E,4,10,1.8,37.337,M,-12.685,M,1.0,0000*5C
$GPGGA,031716.00,3030.67629603,N,11424.09075759,E,4,10,1.7,37.278,M,-12.685,M,1.0,0000*54
$GPGGA,031717.00,3030.67629459,N,11424.09075585,E,4,11,1.7,37.289,M,-12.685,M,2.0,0000*57
$GPGGA,031718.00,3030.67629048,N,11424.09075231,E,4,11,1.7,37.354,M,-12.685,M,1.0,0000*56
$GPGGA,031719.00,3030.67629360,N,11424.09075662,E,4,11,1.7,37.322,M,-12.685,M,1.0,0000*5D
$GPGGA,031720.00,3030.67629372,N,11424.09075221,E,4,11,1.7,37.343,M,-12.685,M,1.0,0000*50
$GPGGA,031721.00,3030.67629128,N,11424.09075165,E,4,11,1.7,37.353,M,-12.685,M,1.0,0000*5E
$GPGGA,031722.00,3030.67629829,N,11424.09075249,E,4,11,1.7,37.345,M,-12.685,M,1.0,0000*5F
$GPGGA,031723.00,3030.67629365,N,11424.09074858,E,4,11,1.7,37.381,M,-12.685,M,1.0,0000*5E
$GPGGA,031724.00,3030.67629707,N,11424.09075109,E,4,11,1.7,37.419,M,-12.685,M,1.0,0000*53
$GPGGA,031725.00,3030.67629700,N,11424.09075117,E,4,11,1.7,37.394,M,-12.685,M,1.0,0000*58
$GPGGA,031726.00,3030.67629998,N,11424.09075065,E,4,11,1.7,37.399,M,-12.685,M,1.0,0000*5D
$GPGGA,031727.00,3030.67629509,N,11424.09075139,E,4,11,1.7,37.395,M,-12.685,M,1.0,0000*5C
$GPGGA,031728.00,3030.67629966,N,11424.09075088,E,4,11,1.7,37.404,M,-12.685,M,1.0,0000*52
$GPGGA,031729.00,3030.67629438,N,11424.09074999,E,4,11,1.7,37.360,M,-12.685,M,1.0,0000*58
$GPGGA,031730.00,3030.67629569,N,11424.09074778,E,4,11,1.7,37.407,M,-12.685,M,1.0,0000*52
$GPGGA,031731.00,3030.67629700,N,11424.09075245,E,4,11,1.7,37.384,M,-12.685,M,1.0,0000*58
$GPGGA,031732.00,3030.67629505,N,11424.09074899,E,4,11,1.7,37.403,M,-12.685,M,1.0,0000*5E
$GPGGA,031733.00,3030.67629944,N,11424.09075308,E,4,11,1.7,37.404,M,-12.685,M,1.0,0000*53
$GPGGA,031734.00,3030.67629938,N,11424.09074704,E,4,11,1.7,37.431,M,-12.685,M,1.0,0000*50
$GPGGA,031735.00,3030.67629774,N,11424.09074929,E,4,11,1.7,37.394,M,-12.685,M,1.0,0000*5E
$GPGGA,031736.00,3030.67629784,N,11424.09074709,E,4,11,1.7,37.405,M,-12.685,M,1.0,0000*51
$GPGGA,031737.00,3030.67629650,N,11424.09074689,E,4,11,1.7,37.416,M,-12.685,M,1.0,0000*53
$GPGGA,031738.00,3030.67629996,N,11424.09074910,E,4,11,1.7,37.430,M,-12.685,M,1.0,0000*52
$GPGGA,031739.00,3030.67629484,N,11424.09075081,E,4,11,1.7,37.421,M,-12.685,M,1.0,0000*5D
$GPGGA,031740.00,3030.67629579,N,11424.09075043,E,4,11,1.7,37.411,M,-12.685,M,1.0,0000*5D
$GPGGA,031741.00,3030.67629504,N,11424.09074751,E,4,11,1.7,37.403,M,-12.685,M,1.0,0000*50
$GPGGA,031742.00,3030.67629693,N,11424.09075097,E,4,11,1.7,37.412,M,-12.685,M,1.0,0000*52
$GPGGA,031743.00,3030.67629685,N,11424.09074774,E,4,11,1.7,37.430,M,-12.685,M,1.0,0000*5F
$GPGGA,031744.00,3030.67630111,N,11424.09075064,E,4,11,1.7,37.407,M,-12.685,M,1.0,0000*59
$GPGGA,031745.00,3030.67630270,N,11424.09074836,E,4,11,1.7,37.422,M,-12.685,M,1.0,0000*55
$GPGGA,031746.00,3030.67630158,N,11424.09074856,E,4,11,1.7,37.418,M,-12.685,M,1.0,0000*50
$GPGGA,031747.00,3030.67630207,N,11424.09074973,E,4,11,1.7,37.422,M,-12.685,M,1.0,0000*57
$GPGGA,031748.00,3030.67629684,N,11424.09074534,E,4,11,1.7,37.455,M,-12.685,M,1.0,0000*50
$GPGGA,031749.00,3030.67630131,N,11424.09074592,E,4,10,1.7,37.493,M,-12.685,M,1.0,0000*57
$GPGGA,031750.00,3030.67629538,N,11424.09074656,E,4,11,1.7,37.460,M,-12.685,M,1.0,0000*5C
$GPGGA,031751.00,3030.67629852,N,11424.09074546,E,4,11,1.7,37.445,M,-12.685,M,1.0,0000*59
$GPGGA,031752.00,3030.67629732,N,11424.09074478,E,4,11,1.7,37.457,M,-12.685,M,2.0,0000*5F
$GPGGA,031753.00,3030.67630008,N,11424.09074941,E,4,11,1.7,37.398,M,-12.685,M,2.0,0000*5B
$GPGGA,031754.00,3030.67629387,N,11424.09074813,E,4,11,1.7,37.431,M,-12.685,M,2.0,0000*52
$GPGGA,031755.00,3030.67629811,N,11424.09075002,E,4,10,1.7,37.462,M,-12.685,M,1.0,0000*5A
$GPGGA,031756.00,3030.67629812,N,11424.09074884,E,4,11,1.7,37.453,M,-12.685,M,1.0,0000*5E
$GPGGA,031757.00,3030.67630497,N,11424.09074784,E,4,11,1.7,37.458,M,-12.685,M,1.0,0000*52
$GPGGA,031758.00,3030.67629630,N,11424.09074443,E,4,11,1.7,37.432,M,-12.685,M,1.0,0000*5E
$GPGGA,031759.00,3030.67629632,N,11424.09074643,E,4,11,1.7,37.435,M,-12.685,M,1.0,0000*58
$GPGGA,031800.00,3030.67629941,N,11424.09074801,E,4,11,1.7,37.448,M,-12.685,M,1.0,0000*52
$GPGGA,031801.00,3030.67630181,N,11424.09074456,E,4,11,1.7,37.442,M,-12.685,M,1.0,0000*5B
$GPGGA,031802.00,3030.67629938,N,11424.09074485,E,4,11,1.7,37.456,M,-12.685,M,1.0,0000*51
$GPGGA,031803.00,3030.67630014,N,11424.09074777,E,4,11,1.7,37.453,M,-12.685,M,1.0,0000*54
$GPGGA,031804.00,3030.67630024,N,11424.09074721,E,4,10,1.7,37.406,M,-12.685,M,1.0,0000*52
$GPGGA,031805.00,3030.67629303,N,11424.09074817,E,4,11,1.7,37.389,M,-12.685,M,1.0,0000*56
$GPGGA,031806.00,3030.67629600,N,11424.09074781,E,4,11,1.7,37.428,M,-12.685,M,1.0,0000*5F
$GPGGA,031807.00,3030.67629933,N,11424.09075194,E,4,11,1.7,37.402,M,-12.685,M,1.0,0000*5A
$GPGGA,031808.00,3030.67629542,N,11424.09074740,E,4,11,1.7,37.442,M,-12.685,M,1.0,0000*55
$GPGGA,031809.00,3030.67629628,N,11424.09074670,E,4,11,1.7,37.467,M,-12.685,M,1.0,0000*5E
$GPGGA,031810.00,3030.67628975,N,11424.09074752,E,4,11,1.7,37.444,M,-12.685,M,1.0,0000*50
$GPGGA,031811.00,3030.67629271,N,11424.09075002,E,4,11,1.7,37.416,M,-12.685,M,1.0,0000*5B
$GPGGA,031812.00,3030.67629474,N,11424.09074837,E,4,11,1.7,37.464,M,-12.685,M,1.0,0000*51
$GPGGA,031813.00,3030.67628808,N,11424.09074531,E,4,11,1.7,37.465,M,-12.685,M,1.0,0000*5C
$GPGGA,031814.00,3030.67629465,N,11424.09074923,E,4,11,1.7,37.465,M,-12.685,M,1.0,0000*52
$GPGGA,031815.00,3030.67628579,N,11424.09074663,E,4,11,1.7,37.439,M,-12.685,M,1.0,0000*5C
$GPGGA,031816.00,3030.67629403,N,11424.09074720,E,4,11,1.7,37.441,M,-12.685,M,1.0,0000*5B
$GPGGA,031817.00,3030.67629134,N,11424.09074290,E,4,10,1.7,37.506,M,-12.685,M,1.0,0000*56
$GPGGA,031818.00,3030.67628385,N,11424.09077040,E,4,10,1.7,37.159,M,-12.685,M,1.0,0000*52
$GPGGA,031819.00,3030.67629005,N,11424.09076888,E,4,10,1.7,37.178,M,-12.685,M,1.0,0000*57
$GPGGA,031820.00,3030.67628750,N,11424.09076908,E,4,11,1.7,37.172,M,-12.685,M,1.0,0000*59
$GPGGA,031821.00,3030.67628379,N,11424.09076592,E,4,11,1.1,37.168,M,-12.685,M,1.0,0000*55
$GPGGA,031822.00,3030.67628097,N,11424.09077258,E,4,11,1.1,37.168,M,-12.685,M,1.0,0000*55
$GPGGA,031823.00,3030.67627517,N,11424.09077360,E,4,11,1.1,37.164,M,-12.685,M,1.0,0000*50
$GPGGA,031824.00,3030.67626713,N,11424.09077398,E,4,11,1.1,37.136,M,-12.685,M,1.0,0000*50
$GPGGA,031825.00,3030.67628592,N,11424.09074550,E,4,11,1.1,37.448,M,-12.685,M,1.0,0000*59
$GPGGA,031826.00,3030.67629306,N,11424.09074253,E,4,11,1.1,37.462,M,-12.685,M,1.0,0000*5C
$GPGGA,031827.00,3030.67628396,N,11424.09074513,E,4,11,1.1,37.440,M,-12.685,M,1.0,0000*56
$GPGGA,031828.00,3030.67628879,N,11424.09074315,E,4,11,1.1,37.461,M,-12.685,M,1.0,0000*50
$GPGGA,031829.00,3030.67628944,N,11424.09074229,E,4,11,1.1,37.502,M,-12.685,M,1.0,0000*54
$GPGGA,031830.00,3030.67629266,N,11424.09074653,E,4,11,1.1,37.470,M,-12.685,M,1.0,0000*5B
$GPGGA,031831.00,3030.67628337,N,11424.09074483,E,4,11,1.1,37.441,M,-12.685,M,1.0,0000*53
$GPGGA,031832.00,3030.67628642,N,11424.09074452,E,4,11,1.1,37.494,M,-12.685,M,1.0,0000*53
$GPGGA,031833.00,3030.67628841,N,11424.09074356,E,4,11,1.1,37.463,M,-12.685,M,1.0,0000*54
$GPGGA,031834.00,3030.67628678,N,11424.09074166,E,4,11,1.1,37.478,M,-12.685,M,1.0,0000*5C
$GPGGA,031835.00,3030.67629037,N,11424.09074467,E,4,10,1.1,37.460,M,-12.685,M,1.0,0000*5D
$GPGGA,031836.00,3030.67628919,N,11424.09074371,E,4,10,1.1,37.443,M,-12.685,M,1.0,0000*5B
$GPGGA,031837.00,3030.67628507,N,11424.09074304,E,4,10,1.1,37.484,M,-12.685,M,1.0,0000*50
$GPGGA,031838.00,3030.67628962,N,11424.09074232,E,4,10,1.1,37.449,M,-12.685,M,1.0,0000*55
$GPGGA,031839.00,3030.67628340,N,11424.09074332,E,4,10,1.1,37.461,M,-12.685,M,1.0,0000*55
$GPGGA,031840.00,3030.67627810,N,11424.09076532,E,4,09,1.1,37.158,M,-12.685,M,1.0,0000*59
$GPGGA,031841.00,3030.67628600,N,11424.09076570,E,4,09,1.1,37.166,M,-12.685,M,1.0,0000*53
$GPGGA,031842.00,3030.67628496,N,11424.09076572,E,4,09,1.1,37.179,M,-12.685,M,1.0,0000*51
$GPGGA,031843.00,3030.67628589,N,11424.09076670,E,4,09,1.1,37.179,M,-12.685,M,1.0,0000*5E
$GPGGA,031844.00,3030.67628162,N,11424.09076536,E,4,09,1.1,37.154,M,-12.685,M,1.0,0000*56
$GPGGA,031845.00,3030.67628379,N,11424.09076274,E,4,09,1.1,37.162,M,-12.685,M,1.0,0000*5B
$GPGGA,031846.00,3030.67628321,N,11424.09076820,E,4,10,1.1,37.144,M,-12.685,M,1.0,0000*52
$GPGGA,031847.00,3030.67628416,N,11424.09076317,E,4,10,1.1,37.175,M,-12.685,M,1.0,0000*5D
$GPGGA,031848.00,3030.67629460,N,11424.09076091,E,4,10,1.1,37.168,M,-12.685,M,1.0,0000*53
$GPGGA,031849.00,3030.67628591,N,11424.09075983,E,4,10,1.1,37.152,M,-12.685,M,1.0,0000*5C
$GPGGA,031850.00,3030.67628519,N,11424.09075781,E,4,10,1.1,37.179,M,-12.685,M,1.0,0000*51
$GPGGA,031851.00,3030.67628505,N,11424.09075377,E,4,11,1.1,37.136,M,-12.685,M,1.0,0000*5A
$GPGGA,031852.00,3030.67628842,N,11424.09075457,E,4,11,1.1,37.120,M,-12.685,M,1.0,0000*55
$GPGGA,031853.00,3030.67628528,N,11424.09075421,E,4,11,1.1,37.161,M,-12.685,M,1.0,0000*51
$GPGGA,031854.00,3030.67627784,N,11424.09074650,E,4,11,1.1,37.098,M,-12.685,M,1.0,0000*5F
$GPGGA,031855.00,3030.67627677,N,11424.09074593,E,4,11,1.1,37.115,M,-12.685,M,1.0,0000*5B
$GPGGA,031856.00,3030.67627723,N,11424.09074533,E,4,11,1.1,37.090,M,-12.685,M,1.0,0000*5E
$GPGGA,031857.00,3030.67628194,N,11424.09073590,E,4,11,1.1,37.123,M,-12.685,M,1.0,0000*5D
$GPGGA,031858.00,3030.67628265,N,11424.09074216,E,4,11,1.1,37.090,M,-12.685,M,1.0,0000*58
$GPGGA,031859.00,3030.67627623,N,11424.09073511,E,4,11,1.1,37.085,M,-12.685,M,1.0,0000*53
$GPGGA,031900.00,3030.67627756,N,11424.09073404,E,4,11,1.1,37.079,M,-12.685,M,1.0,0000*5B
$GPGGA,031901.00,3030.67627566,N,11424.09072539,E,4,11,1.1,37.100,M,-12.685,M,1.0,0000*5A
$GPGGA,031902.00,3030.67627924,N,11424.09073029,E,4,11,1.1,37.047,M,-12.685,M,1.0,0000*54
$GPGGA,031903.00,3030.67627461,N,11424.09072375,E,4,11,1.1,37.075,M,-12.685,M,1.0,0000*53
$GPGGA,031904.00,3030.67627743,N,11424.09071617,E,4,11,1.1,37.079,M,-12.685,M,1.0,0000*59
$GPGGA,031905.00,3030.67627726,N,11424.09071625,E,4,11,1.1,37.084,M,-12.685,M,1.0,0000*58
$GPGGA,031906.00,3030.67627804,N,11424.09071769,E,4,11,1.1,37.040,M,-12.685,M,1.0,0000*55
$GPGGA,031907.00,3030.67627785,N,11424.09071695,E,4,11,1.1,37.039,M,-12.685,M,2.0,0000*5D
$GPGGA,031908.00,3030.67627680,N,11424.09070802,E,4,11,1.1,37.025,M,-12.685,M,1.0,0000*59
$GPGGA,031909.00,3030.67627322,N,11424.09070206,E,4,10,1.1,37.016,M,-12.685,M,1.0,0000*5A
$GPGGA,031910.00,3030.67627182,N,11424.09070171,E,4,10,1.1,36.996,M,-12.685,M,1.0,0000*59
$GPGGA,031911.00,3030.67627511,N,11424.09070402,E,4,09,1.2,36.998,M,-12.685,M,1.0,0000*52
$GPGGA,031912.00,3030.67627345,N,11424.09070455,E,4,09,1.2,36.947,M,-12.685,M,1.0,0000*56
$GPGGA,031913.00,3030.67626852,N,11424.09070010,E,4,09,1.2,36.953,M,-12.685,M,1.0,0000*5B
$GPGGA,031914.00,3030.67627204,N,11424.09070022,E,4,09,1.2,36.932,M,-12.685,M,1.0,0000*52
$GPGGA,031915.00,3030.67627502,N,11424.09069755,E,4,09,1.2,36.924,M,-12.685,M,1.0,0000*5A
$GPGGA,031916.00,3030.67627348,N,11424.09069890,E,4,09,1.2,36.890,M,-12.685,M,1.0,0000*59
$GPGGA,031917.00,3030.67628051,N,11424.09069613,E,4,09,1.2,36.918,M,-12.685,M,1.0,0000*58
$GPGGA,031918.00,3030.67627418,N,11424.09069583,E,4,09,1.2,36.867,M,-12.685,M,1.0,0000*52
$GPGGA,031919.00,3030.67626917,N,11424.09069374,E,4,09,1.2,36.840,M,-12.685,M,1.0,0000*5B
$GPGGA,031920.00,3030.67626616,N,11424.09069311,E,4,09,1.2,36.801,M,-12.685,M,1.0,0000*59
$GPGGA,031921.00,3030.67627104,N,11424.09069328,E,4,09,1.2,36.768,M,-12.685,M,1.0,0000*57
$GPGGA,031922.00,3030.67627279,N,11424.09069053,E,4,09,1.2,36.795,M,-12.685,M,1.0,0000*50
$GPGGA,031923.00,3030.67627034,N,11424.09068913,E,4,09,1.2,36.738,M,-12.685,M,1.0,0000*51
$GPGGA,031924.00,3030.67626841,N,11424.09068579,E,4,09,1.2,36.745,M,-12.685,M,1.0,0000*57
$GPGGA,031925.00,3030.67626413,N,11424.09068382,E,4,09,1.1,36.705,M,-12.685,M,1.0,0000*58
$GPGGA,031926.00,3030.67626588,N,11424.09068528,E,4,08,1.1,36.689,M,-12.685,M,1.0,0000*5A
$GPGGA,031927.00,3030.67627406,N,11424.09068609,E,4,09,1.1,36.696,M,-12.685,M,1.0,0000*52
$GPGGA,031928.00,3030.67626936,N,11424.09067724,E,4,09,1.1,36.676,M,-12.685,M,1.0,0000*5D
$GPGGA,031929.00,3030.67626744,N,11424.09068344,E,4,09,1.1,36.606,M,-12.685,M,1.0,0000*5D
$GPGGA,031930.00,3030.67626570,N,11424.09067898,E,4,09,1.1,36.648,M,-12.685,M,1.0,0000*5F
$GPGGA,031931.00,3030.67626721,N,11424.09067699,E,4,10,1.1,36.601,M,-12.685,M,1.0,0000*52
$GPGGA,031932.00,3030.67626584,N,11424.09067509,E,4,09,1.1,36.602,M,-12.685,M,1.0,0000*5D
$GPGGA,031933.00,3030.67626802,N,11424.09067454,E,4,10,1.1,36.574,M,-12.685,M,1.0,0000*5C
$GPGGA,031934.00,3030.67626639,N,11424.09066914,E,4,10,1.1,36.590,M,-12.685,M,1.0,0000*5F
$GPGGA,031935.00,3030.67626629,N,11424.09067052,E,4,10,1.1,36.563,M,-12.685,M,1.0,0000*59
$GPGGA,031936.00,3030.67626603,N,11424.09066323,E,4,10,1.1,36.555,M,-12.685,M,1.0,0000*53
$GPGGA,031937.00,3030.67626119,N,11424.09066449,E,4,10,1.1,36.536,M,-12.685,M,1.0,0000*50
$GPGGA,031938.00,3030.67626275,N,11424.09066159,E,4,10,1.1,36.566,M,-12.685,M,1.0,0000*57
$GPGGA,031939.00,3030.67626320,N,11424.09066123,E,4,09,1.1,36.499,M,-12.685,M,1.0,0000*53
$GPGGA,031940.00,3030.67626219,N,11424.09065524,E,4,10,1.1,36.528,M,-12.685,M,1.0,0000*55
$GPGGA,031941.00,3030.67626294,N,11424.09065416,E,4,09,1.1,36.507,M,-12.685,M,1.0,0000*54
$GPGGA,031942.00,3030.67626260,N,11424.09065604,E,4,10,1.1,36.478,M,-12.685,M,1.0,0000*5C
$GPGGA,031943.00,3030.67626401,N,11424.09064746,E,4,10,1.1,36.506,M,-12.685,M,1.0,0000*52
$GPGGA,031944.00,3030.67626416,N,11424.09064296,E,4,10,1.1,36.477,M,-12.685,M,1.0,0000*5C
$GPGGA,031945.00,3030.67626270,N,11424.09064366,E,4,10,1.1,36.440,M,-12.685,M,1.0,0000*51
$GPGGA,031946.00,3030.67626028,N,11424.09064268,E,4,10,1.1,36.431,M,-12.685,M,1.0,0000*54
$GPGGA,031947.00,3030.67626062,N,11424.09063743,E,4,10,1.1,36.419,M,-12.685,M,1.0,0000*5A
$GPGGA,031948.00,3030.67626523,N,11424.09063394,E,4,10,1.1,36.425,M,-12.685,M,1.0,0000*54
$GPGGA,031949.00,3030.67625941,N,11424.09063044,E,4,11,1.1,36.425,M,-12.685,M,1.0,0000*51
$GPGGA,031950.00,3030.67626250,N,11424.09062962,E,4,11,1.1,36.397,M,-12.685,M,1.0,0000*53
$GPGGA,031951.00,3030.67626618,N,11424.09062416,E,4,11,1.1,36.429,M,-12.685,M,1.0,0000*56
$GPGGA,031952.00,3030.67626031,N,11424.09062780,E,4,11,1.1,36.364,M,-12.685,M,1.0,0000*5A
$GPGGA,031953.00,3030.67625931,N,11424.09062811,E,4,11,1.1,36.375,M,-12.685,M,2.0,0000*55
$GPGGA,031954.00,3030.67625790,N,11424.09061968,E,4,11,1.1,36.361,M,-12.685,M,2.0,0000*5E
$GPGGA,031955.00,3030.67625652,N,11424.09061673,E,4,11,1.1,36.348,M,-12.685,M,1.0,0000*5D
$GPGGA,031956.00,3030.67625909,N,11424.09061455,E,4,11,1.1,36.331,M,-12.685,M,1.0,0000*57
$GPGGA,031957.00,3030.67625619,N,11424.09061027,E,4,11,1.1,36.340,M,-12.685,M,1.0,0000*5F
$GPGGA,031958.00,3030.67625516,N,11424.09061097,E,4,10,1.2,36.267,M,-12.685,M,1.0,0000*51
$GPGGA,031959.00,3030.67625421,N,11424.09060652,E,4,10,1.2,36.312,M,-12.685,M,1.0,0000*58
$GPGGA,032000.00,3030.67625834,N,11424.09060981,E,4,10,1.2,36.252,M,-12.685,M,1.0,0000*52
$GPGGA,032001.00,3030.67625233,N,11424.09060534,E,4,09,1.2,36.271,M,-12.685,M,1.0,0000*55
$GPGGA,032002.00,3030.67625796,N,11424.09060691,E,4,10,1.2,36.232,M,-12.685,M,1.0,0000*5F
$GPGGA,032003.00,3030.67625533,N,11424.09060324,E,4,11,1.1,36.234,M,-12.685,M,1.0,0000*5C
$GPGGA,032004.00,3030.67625986,N,11424.09060296,E,4,10,1.1,36.217,M,-12.685,M,1.0,0000*51
$GPGGA,032005.00,3030.67625549,N,11424.09059932,E,4,11,1.1,36.225,M,-12.685,M,1.0,0000*50
$GPGGA,032006.00,3030.67625372,N,11424.09059962,E,4,10,1.1,36.193,M,-12.685,M,1.0,0000*57
$GPGGA,032007.00,3030.67624891,N,11424.09059515,E,4,11,1.1,36.176,M,-12.685,M,1.0,0000*57
$GPGGA,032008.00,3030.67629897,N,11424.09076239,E,4,11,1.1,37.190,M,-12.685,M,1.0,0000*5E
$GPGGA,032009.00,3030.67629769,N,11424.09076130,E,4,10,1.1,37.174,M,-12.685,M,1.0,0000*50
$GPGGA,032010.00,3030.67629683,N,11424.09075862,E,4,11,1.1,37.202,M,-12.685,M,1.0,0000*53
$GPGGA,032011.00,3030.67630258,N,11424.09076255,E,4,11,1.1,37.210,M,-12.685,M,1.0,0000*56
$GPGGA,032012.00,3030.67630171,N,11424.09076014,E,4,11,1.1,37.182,M,-12.685,M,1.0,0000*52
$GPGGA,032013.00,3030.67629821,N,11424.09075948,E,4,11,1.1,37.174,M,-12.685,M,1.0,0000*5D
$GPGGA,032014.00,3030.67629575,N,11424.09075945,E,4,11,1.1,37.187,M,-12.685,M,1.0,0000*57
$GPGGA,032015.00,3030.67630010,N,11424.09075990,E,4,11,1.1,37.160,M,-12.685,M,1.0,0000*59
$GPGGA,032016.00,3030.67629255,N,11424.09075526,E,4,11,1.1,37.194,M,-12.685,M,1.0,0000*5B
$GPGGA,032017.00,3030.67629679,N,11424.09075320,E,4,11,1.1,37.138,M,-12.685,M,1.0,0000*56
$GPGGA,032018.00,3030.67629628,N,11424.09074902,E,4,11,1.1,37.177,M,-12.685,M,1.0,0000*5D
$GPGGA,032019.00,3030.67629108,N,11424.09076079,E,4,10,1.1,37.152,M,-12.685,M,1.0,0000*58
$GPGGA,032020.00,3030.67628945,N,11424.09076103,E,4,11,1.1,37.165,M,-12.685,M,1.0,0000*5B
$GPGGA,032021.00,3030.67628979,N,11424.09076201,E,4,11,1.1,37.151,M,-12.685,M,1.0,0000*53
$GPGGA,032022.00,3030.67628706,N,11424.09075930,E,4,11,1.1,37.153,M,-12.685,M,1.0,0000*5E
$GPGGA,032023.00,3030.67628984,N,11424.09076054,E,4,11,1.1,37.151,M,-12.685,M,1.0,0000*51
$GPGGA,032024.00,3030.67628534,N,11424.09075422,E,4,11,1.1,37.147,M,-12.685,M,1.0,0000*50
