$GPGGA,124700.00,3030.67700677,N,11424.10642063,E,4,10,1.0,37.273,M,-12.684,M,1.0,0000*56
$GPGGA,124701.00,3030.67700969,N,11424.10641958,E,4,10,1.0,37.271,M,-12.684,M,1.0,0000*57
$GPGGA,124702.00,3030.67700610,N,11424.10642196,E,4,10,1.0,37.258,M,-12.684,M,1.0,0000*57
$GPGGA,124703.00,3030.67701065,N,11424.10642235,E,4,10,1.0,37.264,M,-12.684,M,1.0,0000*56
$GPGGA,124704.00,3030.67700685,N,11424.10642128,E,4,09,1.0,37.259,M,-12.684,M,1.0,0000*51
$GPGGA,124705.00,3030.67700670,N,11424.10642302,E,4,10,1.0,37.265,M,-12.684,M,1.0,0000*57
$GPGGA,124706.00,3030.67700928,N,11424.10642457,E,4,10,1.0,37.264,M,-12.684,M,2.0,0000*53
$GPGGA,124707.00,3030.67701080,N,11424.10641995,E,4,10,1.0,37.271,M,-12.684,M,1.0,0000*5F
$GPGGA,124708.00,3030.67701040,N,11424.10641963,E,4,10,1.0,37.275,M,-12.684,M,1.0,0000*51
$GPGGA,124709.00,3030.67701116,N,11424.10642267,E,4,10,1.0,37.261,M,-12.684,M,1.0,0000*5B
$GPGGA,124710.00,3030.67701077,N,11424.10642122,E,4,10,1.0,37.272,M,-12.684,M,1.0,0000*55
$GPGGA,124711.00,3030.67701102,N,11424.10642108,E,4,10,1.0,37.259,M,-12.684,M,1.0,0000*56
$GPGGA,124712.00,3030.67700635,N,11424.10641947,E,4,10,1.0,37.259,M,-12.684,M,1.0,0000*57
$GPGGA,124713.00,3030.67700622,N,11424.10642145,E,4,10,1.0,37.270,M,-12.684,M,1.0,0000*52
$GPGGA,124714.00,3030.67700546,N,11424.10642181,E,4,10,1.0,37.264,M,-12.684,M,1.0,0000*59
$GPGGA,124715.00,3030.67700985,N,11424.10642358,E,4,10,1.0,37.267,M,-12.684,M,1.0,0000*5E
$GPGGA,124716.00,3030.67700857,N,11424.10642018,E,4,09,1.0,37.273,M,-12.684,M,1.0,0000*59
$GPGGA,124717.00,3030.67700705,N,11424.10642208,E,4,10,1.0,37.269,M,-12.684,M,1.0,0000*50
$GPGGA,124718.00,3030.67700772,N,11424.10641702,E,4,10,1.0,37.274,M,-12.684,M,1.0,0000*5F
$GPGGA,124719.00,3030.67700349,N,11424.10641818,E,4,10,1.0,37.252,M,-12.684,M,1.0,0000*52
$GPGGA,124720.00,3030.67700449,N,11424.10642392,E,4,10,1.0,37.264,M,-12.684,M,1.0,0000*50
$GPGGA,124721.00,3030.67700486,N,11424.10642167,E,4,09,1.2,37.258,M,-12.684,M,1.0,0000*5F
$GPGGA,124722.00,3030.67700527,N,11424.10642305,E,4,09,1.2,37.268,M,-12.684,M,1.0,0000*53
$GPGGA,124723.00,3030.67700357,N,11424.10642077,E,4,09,1.2,37.266,M,-12.684,M,1.0,0000*5B
$GPGGA,124724.00,3030.67700386,N,11424.10642323,E,4,09,1.2,37.266,M,-12.684,M,1.0,0000*52
$GPGGA,124725.00,3030.67700383,N,11424.10642332,E,4,09,1.2,37.255,M,-12.684,M,1.0,0000*56
$GPGGA,124726.00,3030.67700058,N,11424.10642027,E,4,09,1.2,37.262,M,-12.684,M,1.0,0000*53
$GPGGA,124727.00,3030.67700265,N,11424.10642326,E,4,09,1.2,37.263,M,-12.684,M,1.0,0000*5D
$GPGGA,124728.00,3030.67700465,N,11424.10642280,E,4,09,1.2,37.257,M,-12.684,M,1.0,0000*5E
$GPGGA,124729.00,3030.67700314,N,11424.10641810,E,4,09,1.2,37.279,M,-12.684,M,1.0,0000*52
$GPGGA,124730.00,3030.67700666,N,11424.10642314,E,4,09,1.2,37.261,M,-12.684,M,1.0,0000*5F
$GPGGA,124731.00,3030.67700197,N,11424.10642305,E,4,09,1.2,37.260,M,-12.684,M,1.0,0000*56
$GPGGA,124732.00,3030.67700337,N,11424.10642426,E,4,09,1.2,37.254,M,-12.684,M,1.0,0000*5C
$GPGGA,124733.00,3030.67700521,N,11424.10641902,E,4,09,1.2,37.261,M,-12.684,M,1.0,0000*52
$GPGGA,124734.00,3030.67700518,N,11424.10641819,E,4,09,1.2,37.270,M,-12.684,M,1.0,0000*54
$GPGGA,124735.00,3030.67700396,N,11424.10642180,E,4,09,1.2,37.261,M,-12.684,M,1.0,0000*5F
$GPGGA,124736.00,3030.67700470,N,11424.10642050,E,4,09,1.2,37.262,M,-12.684,M,1.0,0000*5C
$GPGGA,124737.00,3030.67700403,N,11424.10642036,E,4,09,1.2,37.258,M,-12.684,M,1.0,0000*50
$GPGGA,124738.00,3030.67700230,N,11424.10641833,E,4,09,1.2,37.256,M,-12.684,M,1.0,0000*59
$GPGGA,124739.00,3030.67700440,N,11424.10641920,E,4,09,1.2,37.262,M,-12.684,M,1.0,0000*5D
$GPGGA,124740.00,3030.67700319,N,11424.10642164,E,4,09,1.2,37.261,M,-12.684,M,1.0,0000*50
$GPGGA,124741.00,3030.67700501,N,11424.10642379,E,4,10,1.2,37.254,M,-12.684,M,1.0,0000*5E
$GPGGA,124742.00,3030.67700506,N,11424.10642241,E,4,10,1.0,37.259,M,-12.684,M,1.0,0000*5F
$GPGGA,124743.00,3030.67700509,N,11424.10642216,E,4,09,1.2,37.255,M,-12.684,M,1.0,0000*55
$GPGGA,124744.00,3030.67700446,N,11424.10642126,E,4,10,1.0,37.263,M,-12.684,M,1.0,0000*57
$GPGGA,124745.00,3030.67700506,N,11424.10641481,E,4,10,1.0,37.257,M,-12.684,M,1.0,0000*5F
$GPGGA,124746.00,3030.67700712,N,11424.10641955,E,4,10,1.0,37.250,M,-12.684,M,1.0,0000*58
$GPGGA,124747.00,3030.67700455,N,11424.10642058,E,4,10,1.0,37.252,M,-12.684,M,1.0,0000*5C
$GPGGA,124748.00,3030.67700464,N,11424.10641923,E,4,10,1.0,37.255,M,-12.684,M,1.0,0000*50
$GPGGA,124749.00,3030.67700465,N,11424.10642149,E,4,08,1.2,37.250,M,-12.684,M,1.0,0000*59
$GPGGA,124750.00,3030.67700578,N,11424.10642113,E,4,10,1.0,37.258,M,-12.684,M,1.0,0000*50
$GPGGA,124751.00,3030.67700399,N,11424.10641724,E,4,10,1.0,37.260,M,-12.684,M,1.0,0000*52
$GPGGA,124752.00,3030.67700542,N,11424.10641606,E,4,10,1.0,37.285,M,-12.684,M,1.0,0000*5B
$GPGGA,124753.00,3030.67700678,N,11424.10640922,E,4,10,1.0,37.293,M,-12.684,M,1.0,0000*5F
$GPGGA,124754.00,3030.67700874,N,11424.10641277,E,4,09,1.0,37.301,M,-12.684,M,1.0,0000*52
$GPGGA,124755.00,3030.67701271,N,11424.10641595,E,4,10,1.0,37.290,M,-12.684,M,1.0,0000*57
$GPGGA,124756.00,3030.67700556,N,11424.10641222,E,4,10,1.0,37.293,M,-12.684,M,1.0,0000*5F
$GPGGA,124757.00,3030.67700645,N,11424.10641564,E,4,10,1.0,37.303,M,-12.684,M,1.0,0000*52
$GPGGA,124758.00,3030.67701026,N,11424.10641453,E,4,10,1.1,37.285,M,-12.684,M,1.0,0000*54
$GPGGA,124759.00,3030.67700520,N,11424.10641433,E,4,10,1.1,37.298,M,-12.684,M,1.0,0000*5D
$GPGGA,124800.00,3030.67700718,N,11424.10640987,E,4,10,1.1,37.300,M,-12.684,M,1.0,0000*54
$GPGGA,124801.00,3030.67701025,N,11424.10641385,E,4,10,1.1,37.298,M,-12.684,M,1.0,0000*54
$GPGGA,124802.00,3030.67700903,N,11424.10641694,E,4,10,1.1,37.289,M,-12.684,M,1.0,0000*5E
$GPGGA,124803.00,3030.67700673,N,11424.10641408,E,4,10,1.1,37.292,M,-12.684,M,1.0,0000*5A
$GPGGA,124804.00,3030.67700895,N,11424.10641325,E,4,10,1.1,37.289,M,-12.684,M,1.0,0000*59
$GPGGA,124805.00,3030.67700729,N,11424.10641454,E,4,10,1.1,37.281,M,-12.684,M,1.0,0000*59
$GPGGA,124806.00,3030.67700934,N,11424.10640947,E,4,10,1.1,37.293,M,-12.684,M,1.0,0000*55
$GPGGA,124807.00,3030.67700616,N,11424.10640626,E,4,10,1.1,37.306,M,-12.684,M,1.0,0000*5E
$GPGGA,124808.00,3030.67700792,N,11424.10641199,E,4,10,1.1,37.289,M,-12.684,M,1.0,0000*58
$GPGGA,124809.00,3030.67700813,N,11424.10640798,E,4,10,1.1,37.285,M,-12.684,M,1.0,0000*55
$GPGGA,124810.00,3030.67700927,N,11424.10641337,E,4,10,1.1,37.283,M,-12.684,M,1.0,0000*5D
$GPGGA,124811.00,3030.67700750,N,11424.10641002,E,4,10,1.1,37.304,M,-12.684,M,1.0,0000*59
$GPGGA,124812.00,3030.67700770,N,11424.10641045,E,4,10,1.1,37.283,M,-12.684,M,1.0,0000*55
$GPGGA,124813.00,3030.67700962,N,11424.10641661,E,4,10,1.1,37.282,M,-12.684,M,1.0,0000*58
$GPGGA,124814.00,3030.67700932,N,11424.10640907,E,4,10,1.1,37.288,M,-12.684,M,1.0,0000*5E
$GPGGA,124815.00,3030.67700980,N,11424.10641049,E,4,10,1.1,37.285,M,-12.684,M,2.0,0000*5A
$GPGGA,124816.00,3030.67701076,N,11424.10641139,E,4,10,1.1,37.285,M,-12.684,M,1.0,0000*5D
$GPGGA,124817.00,3030.67700970,N,11424.10641238,E,4,10,1.1,37.279,M,-12.684,M,1.0,0000*53
$GPGGA,124818.00,3030.67700825,N,11424.10640922,E,4,09,1.1,37.298,M,-12.684,M,1.0,0000*5B
$GPGGA,124819.00,3030.67701115,N,11424.10641099,E,4,09,1.1,37.284,M,-12.684,M,1.0,0000*54
$GPGGA,124820.00,3030.67700829,N,11424.10640894,E,4,10,1.1,37.286,M,-12.684,M,1.0,0000*57
$GPGGA,124821.00,3030.67700967,N,11424.10641096,E,4,10,1.1,37.294,M,-12.684,M,1.0,0000*55
$GPGGA,124822.00,3030.67700572,N,11424.10640945,E,4,10,1.1,37.282,M,-12.684,M,1.0,0000*5F
$GPGGA,124823.00,3030.67700438,N,11424.10641176,E,4,10,1.1,37.275,M,-12.684,M,1.0,0000*50
$GPGGA,124824.00,3030.67700757,N,11424.10641421,E,4,10,1.1,37.266,M,-12.684,M,1.0,0000*58
$GPGGA,124825.00,3030.67700788,N,11424.10640989,E,4,09,1.1,37.291,M,-12.684,M,1.0,0000*55
$GPGGA,124826.00,3030.67701021,N,11424.10641306,E,4,10,1.1,37.279,M,-12.684,M,1.0,0000*51
$GPGGA,124827.00,3030.67701008,N,11424.10640922,E,4,10,1.1,37.292,M,-12.684,M,1.0,0000*53
$GPGGA,124828.00,3030.67700811,N,11424.10640839,E,4,10,1.1,37.294,M,-12.684,M,1.0,0000*50
$GPGGA,124829.00,3030.67700985,N,11424.10640664,E,4,10,1.1,37.296,M,-12.684,M,1.0,0000*59
$GPGGA,124830.00,3030.67700973,N,11424.10641070,E,4,09,1.1,37.294,M,-12.684,M,1.0,0000*50
$GPGGA,124831.00,3030.67700863,N,11424.10640709,E,4,09,1.5,37.296,M,-12.684,M,1.0,0000*5F
$GPGGA,124832.00,3030.67700950,N,11424.10640350,E,4,09,1.5,37.292,M,-12.684,M,1.0,0000*51
$GPGGA,124833.00,3030.67701046,N,11424.10640645,E,4,09,1.5,37.290,M,-12.684,M,2.0,0000*5F
$GPGGA,124834.00,3030.67700884,N,11424.10640579,E,4,09,1.5,37.295,M,-12.684,M,1.0,0000*55
$GPGGA,124835.00,3030.67700947,N,11424.10640593,E,4,10,1.1,37.301,M,-12.684,M,1.0,0000*5E
$GPGGA,124836.00,3030.67700629,N,11424.10640302,E,4,09,1.5,37.295,M,-12.684,M,1.0,0000*54
$GPGGA,124837.00,3030.67701079,N,11424.10641024,E,4,09,1.5,37.283,M,-12.684,M,1.0,0000*56
$GPGGA,124838.00,3030.67701043,N,11424.10640680,E,4,09,1.5,37.300,M,-12.684,M,1.0,0000*53
$GPGGA,124839.00,3030.67700938,N,11424.10640525,E,4,09,1.5,37.292,M,-12.684,M,1.0,0000*50
$GPGGA,124840.00,3030.67700893,N,11424.10640642,E,4,10,1.1,37.296,M,-12.684,M,1.0,0000*54
$GPGGA,124841.00,3030.67700833,N,11424.10640290,E,4,10,1.1,37.301,M,-12.684,M,2.0,0000*58
$GPGGA,124842.00,3030.67701145,N,11424.10640563,E,4,10,1.1,37.286,M,-12.684,M,2.0,0000*57
$GPGGA,124843.00,3030.67700972,N,11424.10641316,E,4,10,1.1,37.267,M,-12.684,M,2.0,0000*51
$GPGGA,124844.00,3030.67700711,N,11424.10640571,E,4,10,1.1,37.292,M,-12.684,M,1.0,0000*52
$GPGGA,124845.00,3030.67701026,N,11424.10640835,E,4,10,1.1,37.289,M,-12.684,M,1.0,0000*56
$GPGGA,124846.00,3030.67700788,N,11424.10640843,E,4,10,1.1,37.283,M,-12.684,M,1.0,0000*5C
$GPGGA,124847.00,3030.67701081,N,11424.10640854,E,4,10,1.1,37.290,M,-12.684,M,1.0,0000*56
$GPGGA,124848.00,3030.67700628,N,11424.10640465,E,4,09,1.1,37.294,M,-12.684,M,1.0,0000*5F
$GPGGA,124849.00,3030.67700820,N,11424.10639998,E,4,10,1.0,37.303,M,-12.684,M,1.0,0000*5F
$GPGGA,124850.00,3030.67701059,N,11424.10641043,E,4,10,1.0,37.290,M,-12.684,M,1.0,0000*5B
$GPGGA,124851.00,3030.67700796,N,11424.10640282,E,4,10,1.0,37.299,M,-12.684,M,1.0,0000*58
$GPGGA,124852.00,3030.67700998,N,11424.10640986,E,4,10,1.0,37.289,M,-12.684,M,1.0,0000*55
$GPGGA,124853.00,3030.67701015,N,11424.10641098,E,4,10,1.0,37.287,M,-12.684,M,1.0,0000*50
$GPGGA,124854.00,3030.67700671,N,11424.10640424,E,4,10,1.0,37.299,M,-12.684,M,1.0,0000*5F
$GPGGA,124855.00,3030.67700007,N,11424.10639651,E,4,10,1.0,37.320,M,-12.684,M,1.0,0000*54
$GPGGA,124856.00,3030.67700515,N,11424.10639774,E,4,10,1.0,37.310,M,-12.684,M,1.0,0000*54
$GPGGA,124857.00,3030.67700166,N,11424.10639262,E,4,10,1.0,37.331,M,-12.684,M,1.0,0000*54
$GPGGA,124858.00,3030.67700293,N,11424.10639990,E,4,10,1.0,37.316,M,-12.684,M,1.0,0000*51
$GPGGA,124859.00,3030.67700369,N,11424.10640165,E,4,10,1.0,37.306,M,-12.684,M,1.0,0000*59
$GPGGA,124900.00,3030.67700595,N,11424.10640231,E,4,10,1.0,37.312,M,-12.684,M,1.0,0000*56
$GPGGA,124901.00,3030.67700395,N,11424.10639629,E,4,10,1.0,37.314,M,-12.684,M,1.0,0000*54
$GPGGA,124902.00,3030.67700420,N,11424.10639995,E,4,10,1.0,37.324,M,-12.684,M,1.0,0000*55
$GPGGA,124903.00,3030.67700626,N,11424.10640104,E,4,09,1.0,37.306,M,-12.684,M,1.0,0000*56
$GPGGA,124904.00,3030.67700634,N,11424.10640112,E,4,10,1.0,37.300,M,-12.684,M,1.0,0000*5B
$GPGGA,124905.00,3030.67700530,N,11424.10639919,E,4,10,1.0,37.315,M,-12.684,M,1.0,0000*54
$GPGGA,124906.00,3030.67700249,N,11424.10639883,E,4,09,1.0,37.321,M,-12.684,M,1.0,0000*53
$GPGGA,124907.00,3030.67700785,N,11424.10639829,E,4,10,1.0,37.307,M,-12.684,M,1.0,0000*5B
$GPGGA,124908.00,3030.67700585,N,11424.10640256,E,4,10,1.0,37.308,M,-12.684,M,1.0,0000*55
$GPGGA,124909.00,3030.67700486,N,11424.10639780,E,4,10,1.0,37.312,M,-12.684,M,1.0,0000*5D
$GPGGA,124910.00,3030.67700218,N,11424.10639851,E,4,10,1.0,37.311,M,-12.684,M,1.0,0000*54
$GPGGA,124911.00,3030.67700437,N,11424.10640073,E,4,10,1.0,37.315,M,-12.684,M,1.0,0000*5C
$GPGGA,124912.00,3030.67700297,N,11424.10639764,E,4,10,1.0,37.327,M,-12.684,M,1.0,0000*5D
$GPGGA,124913.00,3030.67700171,N,11424.10639699,E,4,10,1.0,37.315,M,-12.684,M,1.0,0000*55
$GPGGA,124914.00,3030.67700374,N,11424.10639209,E,4,09,1.0,37.319,M,-12.684,M,1.0,0000*5C
$GPGGA,124915.00,3030.67700670,N,11424.10640182,E,4,10,1.0,37.322,M,-12.684,M,1.0,0000*52
$GPGGA,124916.00,3030.67700506,N,11424.10639584,E,4,09,1.0,37.318,M,-12.684,M,1.0,0000*5E
$GPGGA,124917.00,3030.67700319,N,11424.10639723,E,4,10,1.0,37.314,M,-12.684,M,1.0,0000*5C
$GPGGA,124918.00,3030.67700478,N,11424.10639650,E,4,10,1.0,37.321,M,-12.684,M,1.0,0000*50
$GPGGA,124919.00,3030.67700335,N,11424.10639499,E,4,10,1.0,37.329,M,-12.684,M,1.0,0000*50
$GPGGA,124920.00,3030.67700163,N,11424.10639563,E,4,10,1.0,37.320,M,-12.684,M,1.0,0000*56
$GPGGA,124921.00,3030.67699855,N,11424.10639474,E,4,10,1.0,37.317,M,-12.684,M,1.0,0000*59
$GPGGA,124922.00,3030.67700221,N,11424.10639679,E,4,10,1.0,37.324,M,-12.684,M,1.0,0000*5D
$GPGGA,124923.00,3030.67700077,N,11424.10639757,E,4,10,1.0,37.322,M,-12.684,M,1.0,0000*56
$GPGGA,124924.00,3030.67700281,N,11424.10640108,E,4,10,1.0,37.327,M,-12.684,M,1.0,0000*5D
$GPGGA,124925.00,3030.67700220,N,11424.10639497,E,4,09,1.0,37.323,M,-12.684,M,1.0,0000*56
$GPGGA,124926.00,3030.67700092,N,11424.10640173,E,4,10,1.0,37.311,M,-12.684,M,1.0,0000*56
$GPGGA,124927.00,3030.67700238,N,11424.10639694,E,4,10,1.0,37.326,M,-12.684,M,1.0,0000*51
$GPGGA,124928.00,3030.67699973,N,11424.10640069,E,4,10,1.0,37.316,M,-12.684,M,1.0,0000*52
$GPGGA,124929.00,3030.67699841,N,11424.10640219,E,4,10,1.0,37.314,M,-12.684,M,1.0,0000*54
$GPGGA,124930.00,3030.67699980,N,11424.10640387,E,4,09,1.5,37.307,M,-12.684,M,2.0,0000*5A
$GPGGA,124931.00,3030.67700066,N,11424.10640266,E,4,09,1.5,37.305,M,-12.684,M,1.0,0000*54
$GPGGA,124932.00,3030.67700147,N,11424.10640466,E,4,09,1.5,37.302,M,-12.684,M,1.0,0000*54
$GPGGA,124933.00,3030.67699958,N,11424.10639817,E,4,09,1.5,37.313,M,-12.684,M,1.0,0000*56
$GPGGA,124934.00,3030.67700054,N,11424.10640165,E,4,09,1.5,37.303,M,-12.684,M,1.0,0000*56
$GPGGA,124935.00,3030.67699903,N,11424.10639950,E,4,09,1.5,37.311,M,-12.684,M,1.0,0000*5E
$GPGGA,124936.00,3030.67700271,N,11424.10640295,E,4,10,1.0,37.303,M,-12.684,M,1.0,0000*50
$GPGGA,124937.00,3030.67699895,N,11424.10640071,E,4,10,1.0,37.314,M,-12.684,M,1.0,0000*5E
$GPGGA,124938.00,3030.67700006,N,11424.10640184,E,4,10,1.0,37.302,M,-12.684,M,1.0,0000*5E
$GPGGA,124939.00,3030.67699973,N,11424.10640117,E,4,10,1.0,37.305,M,-12.684,M,1.0,0000*58
$GPGGA,124940.00,3030.67699894,N,11424.10640259,E,4,10,1.0,37.299,M,-12.684,M,1.0,0000*53
$GPGGA,124941.00,3030.67700200,N,11424.10640328,E,4,09,1.0,37.287,M,-12.684,M,1.0,0000*54
$GPGGA,124942.00,3030.67700311,N,11424.10640613,E,4,10,1.0,37.295,M,-12.684,M,1.0,0000*50
$GPGGA,124943.00,3030.67699506,N,11424.10639869,E,4,10,1.0,37.308,M,-12.684,M,1.0,0000*58
$GPGGA,124944.00,3030.67699912,N,11424.10639849,E,4,10,1.0,37.302,M,-12.684,M,1.0,0000*5E
$GPGGA,124945.00,3030.67700401,N,11424.10640485,E,4,10,1.0,37.303,M,-12.684,M,1.0,0000*52
$GPGGA,124946.00,3030.67700053,N,11424.10640517,E,4,10,1.0,37.289,M,-12.684,M,1.0,0000*5B
$GPGGA,124947.00,3030.67699983,N,11424.10640381,E,4,10,1.0,37.288,M,-12.684,M,1.0,0000*57
$GPGGA,124948.00,3030.67699928,N,11424.10640284,E,4,10,1.0,37.298,M,-12.684,M,1.0,0000*5C
$GPGGA,124949.00,3030.67699984,N,11424.10640375,E,4,09,1.0,37.297,M,-12.684,M,1.0,0000*53
$GPGGA,124950.00,3030.67699899,N,11424.10640655,E,4,10,1.0,37.294,M,-12.684,M,1.0,0000*5A
$GPGGA,124951.00,3030.67700004,N,11424.10640207,E,4,09,1.0,37.310,M,-12.684,M,1.0,0000*50
$GPGGA,124952.00,3030.67699987,N,11424.10640042,E,4,09,1.0,37.295,M,-12.684,M,1.0,0000*5F
$GPGGA,124953.00,3030.67699645,N,11424.10640285,E,4,10,1.0,37.297,M,-12.684,M,1.0,0000*5C
$GPGGA,124954.00,3030.67699983,N,11424.10640613,E,4,10,1.0,37.291,M,-12.684,M,1.0,0000*53
$GPGGA,124955.00,3030.67699732,N,11424.10640202,E,4,09,1.5,37.303,M,-12.684,M,1.0,0000*55
$GPGGA,124956.00,3030.67699849,N,11424.10639895,E,4,09,1.5,37.298,M,-12.684,M,1.0,0000*5C
$GPGGA,124957.00,3030.67699893,N,11424.10640575,E,4,09,1.5,37.291,M,-12.684,M,1.0,0000*5E
$GPGGA,124958.00,3030.67699921,N,11424.10640316,E,4,09,1.5,37.297,M,-12.684,M,1.0,0000*5C
$GPGGA,124959.00,3030.67699823,N,11424.10640156,E,4,09,1.5,37.299,M,-12.684,M,1.0,0000*56
$GPGGA,125000.00,3030.67699611,N,11424.10640038,E,4,09,1.5,37.299,M,-12.684,M,1.0,0000*54
$GPGGA,125001.00,3030.67699689,N,11424.10640106,E,4,09,1.5,37.296,M,-12.684,M,1.0,0000*57
$GPGGA,125002.00,3030.67699893,N,11424.10640332,E,4,09,1.5,37.288,M,-12.684,M,1.0,0000*5B
$GPGGA,125003.00,3030.67699717,N,11424.10640401,E,4,09,1.5,37.293,M,-12.684,M,1.0,0000*54
$GPGGA,125004.00,3030.67699666,N,11424.10640328,E,4,09,1.5,37.300,M,-12.684,M,1.0,0000*53
$GPGGA,125005.00,3030.67699848,N,11424.10640258,E,4,09,1.5,37.291,M,-12.684,M,1.0,0000*5F
$GPGGA,125006.00,3030.67699972,N,11424.10640515,E,4,09,1.5,37.290,M,-12.684,M,1.0,0000*5B
$GPGGA,125007.00,3030.67699835,N,11424.10640624,E,4,09,1.5,37.294,M,-12.684,M,1.0,0000*5D
$GPGGA,125008.00,3030.67699835,N,11424.10640479,E,4,09,1.5,37.287,M,-12.684,M,1.0,0000*5A
$GPGGA,125009.00,3030.67699547,N,11424.10640281,E,4,09,1.5,37.302,M,-12.684,M,1.0,0000*5E
$GPGGA,125010.00,3030.67699714,N,11424.10640505,E,4,09,1.5,37.297,M,-12.684,M,1.0,0000*54
$GPGGA,125011.00,3030.67699732,N,11424.10640428,E,4,09,1.5,37.294,M,-12.684,M,1.0,0000*5C
$GPGGA,125012.00,3030.67699817,N,11424.10640497,E,4,09,1.5,37.299,M,-12.684,M,1.0,0000*5E
$GPGGA,125013.00,3030.67699634,N,11424.10640801,E,4,09,1.5,37.297,M,-12.684,M,1.0,0000*5D
$GPGGA,125014.00,3030.67699587,N,11424.10640313,E,4,09,1.5,37.293,M,-12.684,M,1.0,0000*5D
$GPGGA,125015.00,3030.67699587,N,11424.10640120,E,4,09,1.5,37.308,M,-12.684,M,1.0,0000*5D
$GPGGA,125016.00,3030.67699394,N,11424.10640104,E,4,09,1.5,37.311,M,-12.684,M,1.0,0000*54
$GPGGA,125017.00,3030.67699414,N,11424.10640117,E,4,08,1.5,37.307,M,-12.684,M,1.0,0000*5E
$GPGGA,125018.00,3030.67699407,N,11424.10640264,E,4,08,1.5,37.303,M,-12.684,M,1.0,0000*50
$GPGGA,125019.00,3030.67699680,N,11424.10640169,E,4,08,1.5,37.299,M,-12.684,M,1.0,0000*50
$GPGGA,125020.00,3030.67699692,N,11424.10640239,E,4,08,1.5,37.302,M,-12.684,M,1.0,0000*5C
$GPGGA,125021.00,3030.67699857,N,11424.10640135,E,4,08,1.5,37.299,M,-12.684,M,1.0,0000*56
$GPGGA,125022.00,3030.67699415,N,11424.10640136,E,4,08,1.5,37.311,M,-12.684,M,1.0,0000*5D
$GPGGA,125023.00,3030.67699693,N,11424.10640449,E,4,08,1.5,37.308,M,-12.684,M,1.0,0000*55
$GPGGA,125024.00,3030.67699452,N,11424.10640222,E,4,07,1.5,37.312,M,-12.684,M,1.0,0000*52
$GPGGA,125025.00,3030.67699502,N,11424.10640584,E,4,07,1.5,37.310,M,-12.684,M,1.0,0000*5E
$GPGGA,125026.00,3030.67699445,N,11424.10640199,E,4,07,1.5,37.310,M,-12.684,M,1.0,0000*57
$GPGGA,125027.00,3030.67699317,N,11424.10640158,E,4,07,1.5,37.311,M,-12.684,M,1.0,0000*5A
$GPGGA,125028.00,3030.67699449,N,11424.10640156,E,4,07,1.5,37.309,M,-12.684,M,1.0,0000*5E
$GPGGA,125029.00,3030.67699163,N,11424.10639881,E,4,09,1.5,37.320,M,-12.684,M,1.0,0000*5A
$GPGGA,125030.00,3030.67699307,N,11424.10640136,E,4,07,1.5,37.319,M,-12.684,M,1.0,0000*5D
$GPGGA,125031.00,3030.67699611,N,11424.10640201,E,4,07,1.5,37.311,M,-12.684,M,1.0,0000*51
$GPGGA,125032.00,3030.67699332,N,11424.10640155,E,4,07,1.5,37.319,M,-12.684,M,1.0,0000*5C
$GPGGA,125033.00,3030.67699396,N,11424.10639702,E,4,07,1.5,37.322,M,-12.684,M,1.0,0000*51
$GPGGA,125034.00,3030.67699544,N,11424.10639803,E,4,07,1.5,37.323,M,-12.684,M,1.0,0000*50
$GPGGA,125035.00,3030.67698918,N,11424.10640130,E,4,08,1.5,37.328,M,-12.684,M,1.0,0000*56
$GPGGA,125036.00,3030.67699184,N,11424.10640280,E,4,08,1.5,37.317,M,-12.684,M,1.0,0000*5D
$GPGGA,125037.00,3030.67699404,N,11424.10640239,E,4,08,1.5,37.318,M,-12.684,M,1.0,0000*5C
$GPGGA,125038.00,3030.67699257,N,11424.10640179,E,4,07,1.5,37.318,M,-12.684,M,1.0,0000*5B
$GPGGA,125039.00,3030.67699485,N,11424.10640187,E,4,08,1.5,37.320,M,-12.684,M,1.0,0000*56
$GPGGA,125040.00,3030.67699080,N,11424.10639963,E,4,07,1.5,37.316,M,-12.684,M,1.0,0000*5F
$GPGGA,125041.00,3030.67699239,N,11424.10639664,E,4,08,1.5,37.338,M,-12.684,M,1.0,0000*55
$GPGGA,125042.00,3030.67699253,N,11424.10639798,E,4,08,1.5,37.332,M,-12.684,M,2.0,0000*51
$GPGGA,125043.00,3030.67699308,N,11424.10639801,E,4,07,1.5,37.330,M,-12.684,M,2.0,0000*5D
$GPGGA,125044.00,3030.67699426,N,11424.10639983,E,4,07,1.5,37.314,M,-12.684,M,2.0,0000*5C
$GPGGA,125045.00,3030.67699128,N,11424.10639681,E,4,07,1.5,37.321,M,-12.684,M,1.0,0000*5E
$GPGGA,125046.00,3030.67699172,N,11424.10640025,E,4,08,1.5,37.327,M,-12.684,M,1.0,0000*5D
$GPGGA,125047.00,3030.67699421,N,11424.10639921,E,4,07,1.5,37.318,M,-12.684,M,1.0,0000*5F
$GPGGA,125048.00,3030.67699021,N,11424.10639547,E,4,08,1.5,37.338,M,-12.684,M,1.0,0000*55
$GPGGA,125049.00,3030.67699170,N,11424.10639894,E,4,08,1.5,37.321,M,-12.684,M,1.0,0000*5A
$GPGGA,125050.00,3030.67699177,N,11424.10639754,E,4,08,1.5,37.328,M,-12.684,M,1.0,0000*5F
$GPGGA,125051.00,3030.67699456,N,11424.10639203,E,4,07,1.5,37.322,M,-12.684,M,1.0,0000*5A
$GPGGA,125052.00,3030.67699438,N,11424.10639789,E,4,08,1.5,37.315,M,-12.684,M,1.0,0000*5D
$GPGGA,125053.00,3030.67699139,N,11424.10639505,E,4,07,1.5,37.334,M,-12.684,M,1.0,0000*52
$GPGGA,125054.00,3030.67698933,N,11424.10639446,E,4,08,1.5,37.336,M,-12.684,M,1.0,0000*5D
$GPGGA,125055.00,3030.67699076,N,11424.10639858,E,4,08,1.5,37.328,M,-12.684,M,1.0,0000*59
$GPGGA,125056.00,3030.67699201,N,11424.10639601,E,4,07,1.5,37.338,M,-12.684,M,1.0,0000*54
$GPGGA,125057.00,3030.67699166,N,11424.10639886,E,4,07,1.5,37.328,M,-12.684,M,1.0,0000*57
$GPGGA,125058.00,3030.67699164,N,11424.10639878,E,4,07,1.5,37.334,M,-12.684,M,1.0,0000*56
$GPGGA,125059.00,3030.67699246,N,11424.10639820,E,4,07,1.5,37.335,M,-12.684,M,1.0,0000*58
$GPGGA,125100.00,3030.67699321,N,11424.10639832,E,4,08,1.5,37.322,M,-12.684,M,1.0,0000*5F
$GPGGA,125101.00,3030.67699464,N,11424.10639514,E,4,07,1.5,37.326,M,-12.684,M,1.0,0000*5A
$GPGGA,125102.00,3030.67699648,N,11424.10639843,E,4,07,1.5,37.310,M,-12.684,M,1.0,0000*5F
$GPGGA,125103.00,3030.67699942,N,11424.10639166,E,4,08,1.5,37.317,M,-12.684,M,1.0,0000*5D
$GPGGA,125104.00,3030.67699812,N,11424.10639607,E,4,07,1.5,37.300,M,-12.684,M,1.0,0000*57
$GPGGA,125105.00,3030.67700241,N,11424.10639489,E,4,08,1.5,37.294,M,-12.684,M,1.0,0000*5C
$GPGGA,125106.00,3030.67700237,N,11424.10639585,E,4,07,1.5,37.296,M,-12.684,M,2.0,0000*5D
$GPGGA,125107.00,3030.67699225,N,11424.10639393,E,4,06,1.5,37.338,M,-12.684,M,1.0,0000*58
$GPGGA,125108.00,3030.67699113,N,11424.10639492,E,4,06,1.5,37.347,M,-12.684,M,1.0,0000*5F
$GPGGA,125109.00,3030.67699527,N,11424.10639658,E,4,06,1.5,37.336,M,-12.684,M,1.0,0000*5F
$GPGGA,125110.00,3030.67699135,N,11424.10639493,E,4,07,1.5,37.344,M,-12.684,M,1.0,0000*51
$GPGGA,125111.00,3030.67699101,N,11424.10639656,E,4,06,1.5,37.337,M,-12.684,M,1.0,0000*59
$GPGGA,125112.00,3030.67699213,N,11424.10639719,E,4,07,1.5,37.337,M,-12.684,M,1.0,0000*51
$GPGGA,125113.00,3030.67699461,N,11424.10639322,E,4,07,1.5,37.328,M,-12.684,M,1.0,0000*51
$GPGGA,125114.00,3030.67699386,N,11424.10639598,E,4,06,1.5,37.341,M,-12.684,M,1.0,0000*51
$GPGGA,125115.00,3030.67699403,N,11424.10639246,E,4,06,1.5,37.342,M,-12.684,M,1.0,0000*5D
$GPGGA,125116.00,3030.67699145,N,11424.10639455,E,4,06,1.5,37.347,M,-12.684,M,1.0,0000*58
$GPGGA,125117.00,3030.67699198,N,11424.10639348,E,4,07,1.5,37.338,M,-12.684,M,1.0,0000*5B
$GPGGA,125118.00,3030.67699431,N,11424.10639400,E,4,06,1.5,37.343,M,-12.684,M,1.0,0000*54
$GPGGA,125119.00,3030.67698838,N,11424.10639288,E,4,06,1.5,37.341,M,-12.684,M,1.0,0000*55
$GPGGA,125120.00,3030.67699028,N,11424.10639344,E,4,06,1.5,37.337,M,-12.684,M,1.0,0000*57
$GPGGA,125121.00,3030.67699081,N,11424.10639192,E,4,06,1.5,37.343,M,-12.684,M,1.0,0000*5F
$GPGGA,125122.00,3030.67698829,N,11424.10639209,E,4,06,1.5,37.349,M,-12.684,M,1.0,0000*5C
$GPGGA,125123.00,3030.67699148,N,11424.10639260,E,4,06,1.5,37.347,M,-12.684,M,1.0,0000*53
$GPGGA,125124.00,3030.67698913,N,11424.10639096,E,4,06,1.5,37.352,M,-12.684,M,1.0,0000*5C
$GPGGA,125125.00,3030.67698853,N,11424.10639699,E,4,07,1.5,37.343,M,-12.684,M,1.0,0000*50
$GPGGA,125126.00,3030.67699075,N,11424.10639161,E,4,06,1.5,37.344,M,-12.684,M,1.0,0000*58
$GPGGA,125127.00,3030.67699018,N,11424.10639183,E,4,06,1.5,37.344,M,-12.684,M,1.0,0000*5E
$GPGGA,125128.00,3030.67699134,N,11424.10639605,E,4,06,1.5,37.329,M,-12.684,M,1.0,0000*5C
$GPGGA,125129.00,3030.67698913,N,11424.10639170,E,4,06,1.5,37.344,M,-12.684,M,1.0,0000*5F
$GPGGA,125130.00,3030.67699058,N,11424.10639502,E,4,06,1.5,37.348,M,-12.684,M,1.0,0000*5D
$GPGGA,125131.00,3030.67699256,N,11424.10639631,E,4,06,1.5,37.336,M,-12.684,M,1.0,0000*5A
$GPGGA,125132.00,3030.67698962,N,11424.10639007,E,4,06,1.5,37.347,M,-12.684,M,1.0,0000*51
$GPGGA,125133.00,3030.67699066,N,11424.10639490,E,4,06,1.5,37.345,M,-12.684,M,1.0,0000*54
$GPGGA,125134.00,3030.67699533,N,11424.10639776,E,4,06,1.5,37.340,M,-12.684,M,1.0,0000*58
$GPGGA,125135.00,3030.67699029,N,11424.10639515,E,4,06,1.5,37.338,M,-12.684,M,1.0,0000*5F
$GPGGA,125136.00,3030.67699114,N,11424.10639357,E,4,06,1.5,37.347,M,-12.684,M,1.0,0000*5B
$GPGGA,125137.00,3030.67698918,N,11424.10638722,E,4,06,1.5,37.359,M,-12.684,M,1.0,0000*57
$GPGGA,125138.00,3030.67699208,N,11424.10639267,E,4,06,1.5,37.345,M,-12.684,M,1.0,0000*5B
$GPGGA,125139.00,3030.67699053,N,11424.10639462,E,4,06,1.5,37.348,M,-12.684,M,1.0,0000*58
$GPGGA,125140.00,3030.67699089,N,11424.10639394,E,4,06,1.5,37.356,M,-12.684,M,1.0,0000*50
$GPGGA,125141.00,3030.67699077,N,11424.10640053,E,4,06,1.5,37.349,M,-12.684,M,1.0,0000*58
$GPGGA,125142.00,3030.67699079,N,11424.10639654,E,4,06,1.5,37.351,M,-12.684,M,1.0,0000*53
$GPGGA,125143.00,3030.67698976,N,11424.10639508,E,4,06,1.5,37.364,M,-12.684,M,1.0,0000*59
$GPGGA,125144.00,3030.67699053,N,11424.10639241,E,4,06,1.5,37.364,M,-12.684,M,1.0,0000*5B
$GPGGA,125145.00,3030.67699109,N,11424.10639222,E,4,07,1.5,37.361,M,-12.684,M,1.0,0000*55
$GPGGA,125146.00,3030.67699157,N,11424.10639479,E,4,06,1.5,37.360,M,-12.684,M,1.0,0000*55
$GPGGA,125147.00,3030.67699046,N,11424.10639443,E,4,06,1.5,37.357,M,-12.684,M,1.0,0000*58
$GPGGA,125148.00,3030.67699022,N,11424.10639376,E,4,06,1.5,37.356,M,-12.684,M,1.0,0000*55
$GPGGA,125149.00,3030.67699290,N,11424.10639523,E,4,06,1.5,37.356,M,-12.684,M,1.0,0000*59
$GPGGA,125150.00,3030.67699124,N,11424.10639733,E,4,06,1.5,37.358,M,-12.684,M,1.0,0000*50
$GPGGA,125151.00,3030.67698863,N,11424.10639265,E,4,07,1.5,37.354,M,-12.684,M,1.0,0000*51
$GPGGA,125152.00,3030.67699238,N,11424.10639630,E,4,06,1.5,37.359,M,-12.684,M,1.0,0000*5F
$GPGGA,125153.00,3030.67698895,N,11424.10639530,E,4,06,1.5,37.369,M,-12.684,M,1.0,0000*52
$GPGGA,125154.00,3030.67698982,N,11424.10639504,E,4,06,1.5,37.362,M,-12.684,M,1.0,0000*5E
$GPGGA,125155.00,3030.67699104,N,11424.10639111,E,4,06,1.5,37.372,M,-12.684,M,1.0,0000*59
$GPGGA,125156.00,3030.67699165,N,11424.10639143,E,4,06,1.5,37.372,M,-12.684,M,2.0,0000*59
$GPGGA,125157.00,3030.67699408,N,11424.10639614,E,4,06,1.5,37.356,M,-12.684,M,1.0,0000*56
$GPGGA,125158.00,3030.67699340,N,11424.10639428,E,4,06,1.5,37.363,M,-12.684,M,1.0,0000*59
$GPGGA,125159.00,3030.67699035,N,11424.10639378,E,4,06,1.5,37.369,M,-12.684,M,1.0,0000*51
$GPGGA,125200.00,3030.67699193,N,11424.10639771,E,4,06,1.5,37.350,M,-12.684,M,1.0,0000*54
$GPGGA,125201.00,3030.67699012,N,11424.10639516,E,4,07,1.5,37.370,M,-12.684,M,1.0,0000*5D
$GPGGA,125202.00,3030.67699124,N,11424.10639069,E,4,06,1.5,37.367,M,-12.684,M,1.0,0000*50
$GPGGA,125203.00,3030.67698640,N,11424.10639627,E,4,06,1.5,37.372,M,-12.684,M,1.0,0000*5D
$GPGGA,125204.00,3030.67699059,N,11424.10639270,E,4,06,1.5,37.366,M,-12.684,M,1.0,0000*56
$GPGGA,125205.00,3030.67699278,N,11424.10640195,E,4,06,1.5,37.360,M,-12.684,M,1.0,0000*56
$GPGGA,125206.00,3030.67699288,N,11424.10639288,E,4,06,1.5,37.370,M,-12.684,M,1.0,0000*5A
$GPGGA,125207.00,3030.67699200,N,11424.10639338,E,4,06,1.5,37.368,M,-12.684,M,1.0,0000*58
$GPGGA,125208.00,3030.67698943,N,11424.10639722,E,4,06,1.5,37.363,M,-12.684,M,1.0,0000*5E
$GPGGA,125209.00,3030.67698969,N,11424.10639301,E,4,06,1.5,37.371,M,-12.684,M,1.0,0000*51
$GPGGA,125210.00,3030.67699110,N,11424.10639644,E,4,06,1.5,37.368,M,-12.684,M,1.0,0000*52
$GPGGA,125211.00,3030.67699199,N,11424.10639524,E,4,06,1.5,37.364,M,-12.684,M,1.0,0000*5B
$GPGGA,125212.00,3030.67699160,N,11424.10639349,E,4,06,1.5,37.366,M,-12.684,M,1.0,0000*51
$GPGGA,125213.00,3030.67699080,N,11424.10639091,E,4,06,1.5,37.368,M,-12.684,M,1.0,0000*57
$GPGGA,125214.00,3030.67699006,N,11424.10639048,E,4,06,1.5,37.374,M,-12.684,M,1.0,0000*57
$GPGGA,125215.00,3030.67699091,N,11424.10639410,E,4,06,1.5,37.358,M,-12.684,M,1.0,0000*5F
$GPGGA,125216.00,3030.67698771,N,11424.10639447,E,4,06,1.5,37.377,M,-12.684,M,1.0,0000*5B
$GPGGA,125217.00,3030.67699093,N,11424.10639347,E,4,06,1.5,37.368,M,-12.684,M,1.0,0000*59
$GPGGA,125218.00,3030.67699037,N,11424.10639179,E,4,06,1.5,37.367,M,-12.684,M,1.0,0000*58
$GPGGA,125219.00,3030.67699280,N,11424.10639369,E,4,06,1.5,37.368,M,-12.684,M,1.0,0000*5B
$GPGGA,125220.00,3030.67698831,N,11424.10639204,E,4,06,1.5,37.375,M,-12.684,M,1.0,0000*56
$GPGGA,125221.00,3030.67699109,N,11424.10639174,E,4,06,1.5,37.364,M,-12.684,M,1.0,0000*50
$GPGGA,125222.00,3030.67699183,N,11424.10639167,E,4,06,1.5,37.374,M,-12.684,M,1.0,0000*52
$GPGGA,125223.00,3030.67698932,N,11424.10639540,E,4,06,1.5,37.372,M,-12.684,M,1.0,0000*57
$GPGGA,125224.00,3030.67699086,N,11424.10639409,E,4,06,1.5,37.373,M,-12.684,M,1.0,0000*5A
$GPGGA,125225.00,3030.67699346,N,11424.10639667,E,4,06,1.5,37.366,M,-12.684,M,1.0,0000*5A
$GPGGA,125226.00,3030.67699225,N,11424.10639330,E,4,07,1.5,37.376,M,-12.684,M,1.0,0000*5A
$GPGGA,125227.00,3030.67699159,N,11424.10639415,E,4,06,1.5,37.366,M,-12.684,M,1.0,0000*53
$GPGGA,125228.00,3030.67698958,N,11424.10639531,E,4,06,1.5,37.371,M,-12.684,M,1.0,0000*55
$GPGGA,125229.00,3030.67698960,N,11424.10639135,E,4,06,1.5,37.371,M,-12.684,M,1.0,0000*5F
$GPGGA,125230.00,3030.67699010,N,11424.10639576,E,4,06,1.5,37.377,M,-12.684,M,1.0,0000*5D
$GPGGA,125231.00,3030.67698881,N,11424.10639360,E,4,06,1.5,37.375,M,-12.684,M,1.0,0000*5E
$GPGGA,125232.00,3030.67698805,N,11424.10639129,E,4,06,1.5,37.381,M,-12.684,M,1.0,0000*55
$GPGGA,125233.00,3030.67699041,N,11424.10639446,E,4,06,1.5,37.367,M,-12.684,M,1.0,0000*59
$GPGGA,125234.00,3030.67698800,N,11424.10639460,E,4,06,1.5,37.378,M,-12.684,M,1.0,0000*58
$GPGGA,125235.00,3030.67699017,N,11424.10639625,E,4,06,1.5,37.370,M,-12.684,M,1.0,0000*5D
$GPGGA,125236.00,3030.67699214,N,11424.10639598,E,4,06,1.5,37.370,M,-12.684,M,1.0,0000*5A
$GPGGA,125237.00,3030.67698852,N,11424.10639661,E,4,06,1.5,37.374,M,-12.684,M,1.0,0000*53
$GPGGA,125238.00,3030.67699062,N,11424.10639291,E,4,06,1.5,37.369,M,-12.684,M,1.0,0000*51
$GPGGA,125239.00,3030.67698972,N,11424.10639750,E,4,06,1.5,37.360,M,-12.684,M,1.0,0000*58
$GPGGA,125240.00,3030.67699016,N,11424.10639975,E,4,06,1.5,37.366,M,-12.684,M,1.0,0000*53
$GPGGA,125241.00,3030.67699035,N,11424.10639926,E,4,06,1.5,37.371,M,-12.684,M,1.0,0000*53
$GPGGA,125242.00,3030.67698995,N,11424.10640118,E,4,06,1.5,37.370,M,-12.684,M,1.0,0000*58
$GPGGA,125243.00,3030.67698935,N,11424.10639921,E,4,06,1.5,37.371,M,-12.684,M,2.0,0000*5D
$GPGGA,125244.00,3030.67699115,N,11424.10640028,E,4,06,1.5,37.370,M,-12.684,M,3.0,0000*5F
$GPGGA,125245.00,3030.67698952,N,11424.10639773,E,4,06,1.5,37.356,M,-12.684,M,2.0,0000*56
$GPGGA,125246.00,3030.67699080,N,11424.10639705,E,4,06,1.5,37.359,M,-12.684,M,1.0,0000*5F
$GPGGA,125247.00,3030.67698860,N,11424.10639777,E,4,06,1.5,37.366,M,-12.684,M,1.0,0000*50
$GPGGA,125248.00,3030.67698777,N,11424.10639693,E,4,06,1.5,37.369,M,-12.684,M,1.0,0000*52
$GPGGA,125249.00,3030.67698929,N,11424.10639693,E,4,06,1.5,37.366,M,-12.684,M,2.0,0000*5A
$GPGGA,125250.00,3030.67698988,N,11424.10639525,E,4,06,1.5,37.363,M,-12.684,M,3.0,0000*53
$GPGGA,125251.00,3030.67698893,N,11424.10639523,E,4,06,1.5,37.369,M,-12.684,M,4.0,0000*52
$GPGGA,125252.00,3030.67699107,N,11424.10639700,E,4,06,1.5,37.355,M,-12.684,M,3.0,0000*5F
$GPGGA,125253.00,3030.67698981,N,11424.10639877,E,4,06,1.5,37.357,M,-12.684,M,2.0,0000*55
$GPGGA,125254.00,3030.67699048,N,11424.10639346,E,4,06,1.5,37.364,M,-12.684,M,1.0,0000*55
$GPGGA,125255.00,3030.67699119,N,11424.10639623,E,4,06,1.5,37.365,M,-12.684,M,1.0,0000*56
$GPGGA,125256.00,3030.67699315,N,11424.10639607,E,4,06,1.5,37.356,M,-12.684,M,1.0,0000*5D
$GPGGA,125257.00,3030.67699159,N,11424.10639428,E,4,06,1.5,37.359,M,-12.684,M,1.0,0000*56
$GPGGA,125258.00,3030.67699069,N,11424.10639323,E,4,06,1.5,37.361,M,-12.684,M,1.0,0000*5C
$GPGGA,125259.00,3030.67699126,N,11424.10639697,E,4,06,1.5,37.351,M,-12.684,M,1.0,0000*5E
$GPGGA,125300.00,3030.67699178,N,11424.10639622,E,4,06,1.5,37.361,M,-12.684,M,1.0,0000*55
$GPGGA,125301.00,3030.67699153,N,11424.10639288,E,4,06,1.5,37.348,M,-12.684,M,1.0,0000*52
$GPGGA,125302.00,3030.67699214,N,11424.10639665,E,4,08,1.5,37.341,M,-12.684,M,1.0,0000*51
$GPGGA,125303.00,3030.67699085,N,11424.10639286,E,4,08,1.5,37.346,M,-12.684,M,1.0,0000*54
$GPGGA,125304.00,3030.67699115,N,11424.10638848,E,4,08,1.5,37.356,M,-12.684,M,1.0,0000*53
$GPGGA,125305.00,3030.67699093,N,11424.10639542,E,4,08,1.5,37.336,M,-12.684,M,1.0,0000*5D
$GPGGA,125306.00,3030.67699302,N,11424.10639586,E,4,08,1.5,37.340,M,-12.684,M,1.0,0000*5C
$GPGGA,125307.00,3030.67699230,N,11424.10639619,E,4,08,1.5,37.342,M,-12.684,M,1.0,0000*5A
$GPGGA,125308.00,3030.67699148,N,11424.10639486,E,4,08,1.5,37.345,M,-12.684,M,1.0,0000*5A
$GPGGA,125309.00,3030.67699134,N,11424.10639000,E,4,08,1.5,37.352,M,-12.684,M,1.0,0000*5C
$GPGGA,125310.00,3030.67699476,N,11424.10639605,E,4,08,1.5,37.337,M,-12.684,M,1.0,0000*57
$GPGGA,125311.00,3030.67699246,N,11424.10639367,E,4,08,1.5,37.343,M,-12.684,M,1.0,0000*51
$GPGGA,125312.00,3030.67699279,N,11424.10639861,E,4,08,1.5,37.334,M,-12.684,M,1.0,0000*53
$GPGGA,125313.00,3030.67699178,N,11424.10639471,E,4,08,1.5,37.341,M,-12.684,M,1.0,0000*5F
$GPGGA,125314.00,3030.67699469,N,11424.10639453,E,4,08,1.5,37.337,M,-12.684,M,1.0,0000*5C
$GPGGA,125315.00,3030.67699204,N,11424.10639366,E,4,08,1.5,37.346,M,-12.684,M,1.0,0000*57
$GPGGA,125316.00,3030.67699208,N,11424.10639309,E,4,07,1.5,37.342,M,-12.684,M,1.0,0000*5A
$GPGGA,125317.00,3030.67699307,N,11424.10639293,E,4,08,1.5,37.343,M,-12.684,M,1.0,0000*59
$GPGGA,125318.00,3030.67699339,N,11424.10639689,E,4,08,1.5,37.331,M,-12.684,M,1.0,0000*51
$GPGGA,125319.00,3030.67699393,N,11424.10639187,E,4,06,1.5,37.338,M,-12.684,M,1.0,0000*5E
$GPGGA,125320.00,3030.67699424,N,11424.10639584,E,4,06,1.5,37.328,M,-12.684,M,1.0,0000*59
$GPGGA,125321.00,3030.67699499,N,11424.10639802,E,4,06,1.5,37.327,M,-12.684,M,1.0,0000*52
$GPGGA,125322.00,3030.67699384,N,11424.10639337,E,4,06,1.5,37.333,M,-12.684,M,1.0,0000*52
$GPGGA,125323.00,3030.67699359,N,11424.10639567,E,4,06,1.5,37.333,M,-12.684,M,1.0,0000*50
$GPGGA,125324.00,3030.67699492,N,11424.10639943,E,4,06,1.5,37.331,M,-12.684,M,1.0,0000*5F
$GPGGA,125325.00,3030.67699238,N,11424.10639307,E,4,06,1.5,37.325,M,-12.684,M,1.0,0000*57
$GPGGA,125326.00,3030.67699320,N,11424.10639507,E,4,06,1.5,37.330,M,-12.684,M,1.0,0000*5E
$GPGGA,125327.00,3030.67699433,N,11424.10639748,E,4,06,1.5,37.324,M,-12.684,M,1.0,0000*56
$GPGGA,125328.00,3030.67699713,N,11424.10639899,E,4,06,1.5,37.314,M,-12.684,M,1.0,0000*58
$GPGGA,125329.00,3030.67699603,N,11424.10639663,E,4,06,1.5,37.320,M,-12.684,M,2.0,0000*56
$GPGGA,125330.00,3030.67699509,N,11424.10639713,E,4,06,1.5,37.321,M,-12.684,M,1.0,0000*53
$GPGGA,125331.00,3030.67699579,N,11424.10639946,E,4,06,1.5,37.319,M,-12.684,M,1.0,0000*50
$GPGGA,125332.00,3030.67699422,N,11424.10639671,E,4,06,1.5,37.327,M,-12.684,M,1.0,0000*5A
$GPGGA,125333.00,3030.67699586,N,11424.10639929,E,4,06,1.5,37.327,M,-12.684,M,1.0,0000*56
$GPGGA,125334.00,3030.67699622,N,11424.10639830,E,4,06,1.5,37.324,M,-12.684,M,1.0,0000*56
$GPGGA,125335.00,3030.67699445,N,11424.10639368,E,4,06,1.5,37.322,M,-12.684,M,1.0,0000*54
$GPGGA,125336.00,3030.67699523,N,11424.10639373,E,4,06,1.5,37.327,M,-12.684,M,1.0,0000*59
$GPGGA,125337.00,3030.67699331,N,11424.10639511,E,4,06,1.5,37.324,M,-12.684,M,1.0,0000*5C
$GPGGA,125338.00,3030.67699548,N,11424.10639460,E,4,06,1.5,37.327,M,-12.684,M,1.0,0000*5F
$GPGGA,125339.00,3030.67699548,N,11424.10639864,E,4,06,1.5,37.323,M,-12.684,M,1.0,0000*52
$GPGGA,125340.00,3030.67699542,N,11424.10639883,E,4,06,1.5,37.321,M,-12.684,M,1.0,0000*5D
$GPGGA,125341.00,3030.67699392,N,11424.10639735,E,4,06,1.5,37.325,M,-12.684,M,1.0,0000*51
$GPGGA,125342.00,3030.67699576,N,11424.10639766,E,4,06,1.5,37.318,M,-12.684,M,1.0,0000*56
$GPGGA,125343.00,3030.67699339,N,11424.10639682,E,4,06,1.5,37.324,M,-12.684,M,2.0,0000*5D
$GPGGA,125344.00,3030.67699524,N,11424.10640071,E,4,06,1.5,37.316,M,-12.684,M,1.0,0000*56
$GPGGA,125345.00,3030.67699731,N,11424.10639971,E,4,06,1.5,37.310,M,-12.684,M,1.0,0000*50
$GPGGA,125346.00,3030.67699499,N,11424.10639818,E,4,06,1.5,37.315,M,-12.684,M,1.0,0000*59
$GPGGA,125347.00,3030.67699703,N,11424.10639991,E,4,06,1.5,37.322,M,-12.684,M,1.0,0000*5C
$GPGGA,125348.00,3030.67699525,N,11424.10639399,E,4,08,1.5,37.331,M,-12.684,M,1.0,0000*5B
$GPGGA,125349.00,3030.67699572,N,11424.10639815,E,4,07,1.5,37.323,M,-12.684,M,1.0,0000*5B
$GPGGA,125350.00,3030.67699322,N,11424.10640070,E,4,08,1.5,37.313,M,-12.684,M,1.0,0000*59
$GPGGA,125351.00,3030.67699670,N,11424.10639859,E,4,06,1.5,37.326,M,-12.684,M,1.0,0000*5F
$GPGGA,125352.00,3030.67699451,N,11424.10639786,E,4,06,1.5,37.326,M,-12.684,M,1.0,0000*50
$GPGGA,125353.00,3030.67699780,N,11424.10639923,E,4,06,1.5,37.328,M,-12.684,M,1.0,0000*51
$GPGGA,125354.00,3030.67699960,N,11424.10639594,E,4,06,1.5,37.323,M,-12.684,M,1.0,0000*5D
$GPGGA,125355.00,3030.67699646,N,11424.10640336,E,4,06,1.5,37.316,M,-12.684,M,1.0,0000*51
$GPGGA,125356.00,3030.67699340,N,11424.10639713,E,4,06,1.5,37.321,M,-12.684,M,1.0,0000*58
$GPGGA,125357.00,3030.67699678,N,11424.10639939,E,4,06,1.5,37.321,M,-12.684,M,1.0,0000*51
$GPGGA,125358.00,3030.67699593,N,11424.10639910,E,4,06,1.5,37.323,M,-12.684,M,1.0,0000*51
$GPGGA,125359.00,3030.67699391,N,11424.10639661,E,4,06,1.5,37.329,M,-12.684,M,1.0,0000*57
$GPGGA,125400.00,3030.67699824,N,11424.10639513,E,4,06,1.5,37.330,M,-12.684,M,1.0,0000*57
$GPGGA,125401.00,3030.67699622,N,11424.10639991,E,4,06,1.5,37.322,M,-12.684,M,1.0,0000*5B
$GPGGA,125402.00,3030.67699512,N,11424.10640109,E,4,06,1.5,37.324,M,-12.684,M,1.0,0000*59
$GPGGA,125403.00,3030.67699743,N,11424.10640258,E,4,06,1.5,37.320,M,-12.684,M,1.0,0000*5D
$GPGGA,125404.00,3030.67699495,N,11424.10639672,E,4,06,1.5,37.320,M,-12.684,M,1.0,0000*50
$GPGGA,125405.00,3030.67699905,N,11424.10639604,E,4,06,1.5,37.329,M,-12.684,M,1.0,0000*5D
$GPGGA,125406.00,3030.67699677,N,11424.10639422,E,4,06,1.5,37.332,M,-12.684,M,1.0,0000*58
$GPGGA,125407.00,3030.67699864,N,11424.10639669,E,4,07,1.5,37.333,M,-12.684,M,1.0,0000*58
$GPGGA,125408.00,3030.67699595,N,11424.10639868,E,4,06,1.5,37.328,M,-12.684,M,1.0,0000*50
$GPGGA,125409.00,3030.67699925,N,11424.10640151,E,4,06,1.5,37.320,M,-12.684,M,1.0,0000*53
$GPGGA,125410.00,3030.67699741,N,11424.10639933,E,4,06,1.5,37.322,M,-12.684,M,1.0,0000*57
$GPGGA,125411.00,3030.67699928,N,11424.10640703,E,4,06,1.5,37.304,M,-12.684,M,1.0,0000*50
$GPGGA,125412.00,3030.67699747,N,11424.10640112,E,4,06,1.5,37.318,M,-12.684,M,1.0,0000*5F
$GPGGA,125413.00,3030.67699609,N,11424.10639963,E,4,06,1.5,37.317,M,-12.684,M,1.0,0000*5A
$GPGGA,125414.00,3030.67699759,N,11424.10640187,E,4,06,1.5,37.322,M,-12.684,M,1.0,0000*53
$GPGGA,125415.00,3030.67699926,N,11424.10640105,E,4,07,1.5,37.318,M,-12.684,M,1.0,0000*56
$GPGGA,125416.00,3030.67699767,N,11424.10640196,E,4,06,1.5,37.317,M,-12.684,M,1.0,0000*5A
$GPGGA,125417.00,3030.67700119,N,11424.10640288,E,4,06,1.5,37.317,M,-12.684,M,1.0,0000*59
$GPGGA,125418.00,3030.67700228,N,11424.10640711,E,4,06,1.5,37.314,M,-12.684,M,1.0,0000*51
$GPGGA,125419.00,3030.67699874,N,11424.10640249,E,4,06,1.5,37.322,M,-12.684,M,1.0,0000*5F
$GPGGA,125420.00,3030.67699964,N,11424.10640314,E,4,06,1.5,37.321,M,-12.684,M,1.0,0000*5F
$GPGGA,125421.00,3030.67700003,N,11424.10640398,E,4,06,1.5,37.322,M,-12.684,M,1.0,0000*50
$GPGGA,125422.00,3030.67699930,N,11424.10640553,E,4,06,1.5,37.314,M,-12.684,M,1.0,0000*5F
$GPGGA,125423.00,3030.67699695,N,11424.10640116,E,4,06,1.5,37.325,M,-12.684,M,1.0,0000*59
$GPGGA,125424.00,3030.67700121,N,11424.10640667,E,4,06,1.5,37.311,M,-12.684,M,1.0,0000*51
$GPGGA,125425.00,3030.67700170,N,11424.10640588,E,4,06,1.5,37.305,M,-12.684,M,1.0,0000*53
$GPGGA,125426.00,3030.67699831,N,11424.10640488,E,4,06,1.5,37.316,M,-12.684,M,1.0,0000*5E
$GPGGA,125427.00,3030.67700177,N,11424.10640263,E,4,06,1.5,37.318,M,-12.684,M,1.0,0000*58
$GPGGA,125428.00,3030.67700062,N,11424.10640653,E,4,06,1.5,37.316,M,-12.684,M,1.0,0000*5B
$GPGGA,125429.00,3030.67700222,N,11424.10640983,E,4,06,1.5,37.303,M,-12.684,M,1.0,0000*5A
$GPGGA,125430.00,3030.67700197,N,11424.10640666,E,4,06,1.5,37.310,M,-12.684,M,1.0,0000*59
$GPGGA,125431.00,3030.67700221,N,11424.10640720,E,4,07,1.5,37.322,M,-12.684,M,1.0,0000*55
$GPGGA,125432.00,3030.67700151,N,11424.10640933,E,4,06,1.5,37.296,M,-12.684,M,1.0,0000*51
$GPGGA,125433.00,3030.67700146,N,11424.10640601,E,4,06,1.5,37.316,M,-12.684,M,1.0,0000*51
$GPGGA,125434.00,3030.67700092,N,11424.10640831,E,4,06,1.5,37.315,M,-12.684,M,1.0,0000*50
$GPGGA,125435.00,3030.67700494,N,11424.10640655,E,4,06,1.5,37.302,M,-12.684,M,1.0,0000*59
$GPGGA,125436.00,3030.67700697,N,11424.10640709,E,4,06,1.5,37.297,M,-12.684,M,1.0,0000*5E
$GPGGA,125437.00,3030.67700916,N,11424.10640337,E,4,06,1.5,37.294,M,-12.684,M,1.0,0000*53
$GPGGA,125438.00,3030.67701136,N,11424.10640444,E,4,06,1.5,37.290,M,-12.684,M,1.0,0000*50
$GPGGA,125439.00,3030.67700303,N,11424.10640597,E,4,07,1.5,37.316,M,-12.684,M,1.0,0000*55
$GPGGA,125440.00,3030.67700214,N,11424.10640661,E,4,07,1.5,37.310,M,-12.684,M,1.0,0000*50
$GPGGA,125441.00,3030.67700519,N,11424.10640499,E,4,07,1.5,37.298,M,-12.684,M,1.0,0000*5F
$GPGGA,125442.00,3030.67700747,N,11424.10640310,E,4,06,1.5,37.296,M,-12.684,M,1.0,0000*5C
$GPGGA,125443.00,3030.67701042,N,11424.10640364,E,4,06,1.5,37.273,M,-12.684,M,1.0,0000*56
$GPGGA,125444.00,3030.67701008,N,11424.10640527,E,4,06,1.5,37.274,M,-12.684,M,2.0,0000*5A
$GPGGA,125445.00,3030.67701245,N,11424.10640594,E,4,06,1.5,37.266,M,-12.684,M,3.0,0000*5A
$GPGGA,125446.00,3030.67701579,N,11424.10640763,E,4,06,1.5,37.262,M,-12.684,M,2.0,0000*5E
$GPGGA,125447.00,3030.67701765,N,11424.10640116,E,4,06,1.5,37.261,M,-12.684,M,1.0,0000*54
$GPGGA,125448.00,3030.67701597,N,11424.10640522,E,4,06,1.5,37.250,M,-12.684,M,2.0,0000*56
$GPGGA,125449.00,3030.67701808,N,11424.10640370,E,4,06,1.5,37.257,M,-12.684,M,3.0,0000*5B
$GPGGA,125450.00,3030.67702144,N,11424.10640367,E,4,06,1.5,37.242,M,-12.684,M,3.0,0000*53
$GPGGA,125451.00,3030.67702542,N,11424.10640660,E,4,06,1.5,37.225,M,-12.684,M,2.0,0000*52
$GPGGA,125452.00,3030.67702987,N,11424.10640842,E,4,06,1.5,37.202,M,-12.684,M,1.0,0000*5C
$GPGGA,125453.00,3030.67700209,N,11424.10640812,E,4,06,1.5,37.312,M,-12.684,M,1.0,0000*57
$GPGGA,125454.00,3030.67700248,N,11424.10640349,E,4,06,1.5,37.310,M,-12.684,M,1.0,0000*52
$GPGGA,125455.00,3030.67701052,N,11424.10640984,E,4,07,1.5,37.305,M,-12.684,M,1.0,0000*55
$GPGGA,125456.00,3030.67700895,N,11424.10641194,E,4,06,1.5,37.284,M,-12.684,M,1.0,0000*55
$GPGGA,125457.00,3030.67701378,N,11424.10640536,E,4,06,1.5,37.292,M,-12.684,M,1.0,0000*57
$GPGGA,125458.00,3030.67700248,N,11424.10641301,E,4,06,1.5,37.302,M,-12.684,M,1.0,0000*50
$GPGGA,125459.00,3030.67700650,N,11424.10641077,E,4,07,1.5,37.314,M,-12.684,M,1.0,0000*58
$GPGGA,125500.00,3030.67700530,N,11424.10641261,E,4,07,1.5,37.310,M,-12.684,M,1.0,0000*51
$GPGGA,125501.00,3030.67700439,N,11424.10641213,E,4,07,1.5,37.307,M,-12.684,M,1.0,0000*5B
$GPGGA,125502.00,3030.67700263,N,11424.10641374,E,4,07,1.5,37.313,M,-12.684,M,1.0,0000*54
$GPGGA,125503.00,3030.67700417,N,11424.10640993,E,4,07,1.5,37.315,M,-12.684,M,1.0,0000*54
$GPGGA,125504.00,3030.67700589,N,11424.10641445,E,4,06,1.5,37.313,M,-12.684,M,1.0,0000*55
$GPGGA,125505.00,3030.67700624,N,11424.10641465,E,4,06,1.5,37.309,M,-12.684,M,1.0,0000*59
$GPGGA,125506.00,3030.67700766,N,11424.10641961,E,4,07,1.5,37.301,M,-12.684,M,1.0,0000*5D
$GPGGA,125507.00,3030.67700284,N,11424.10641837,E,4,07,1.5,37.311,M,-12.684,M,1.0,0000*56
$GPGGA,125508.00,3030.67700678,N,11424.10641359,E,4,06,1.5,37.315,M,-12.684,M,1.0,0000*58
$GPGGA,125509.00,3030.67700611,N,11424.10641445,E,4,07,1.5,37.312,M,-12.684,M,1.0,0000*5A
$GPGGA,125510.00,3030.67700445,N,11424.10641689,E,4,07,1.5,37.307,M,-12.684,M,1.0,0000*57
$GPGGA,125511.00,3030.67699827,N,11424.10642388,E,4,06,1.5,37.250,M,-12.684,M,1.0,0000*5A
$GPGGA,125512.00,3030.67700585,N,11424.10642040,E,4,06,1.5,37.300,M,-12.684,M,1.0,0000*5E
$GPGGA,125513.00,3030.67700776,N,11424.10641567,E,4,07,1.5,37.304,M,-12.684,M,1.0,0000*57
$GPGGA,125514.00,3030.67700520,N,11424.10641925,E,4,07,1.5,37.308,M,-12.684,M,1.0,0000*57
$GPGGA,125515.00,3030.67700882,N,11424.10642022,E,4,07,1.5,37.305,M,-12.684,M,1.0,0000*53
$GPGGA,125516.00,3030.67700751,N,11424.10641985,E,4,07,1.5,37.308,M,-12.684,M,1.0,0000*5B
$GPGGA,125517.00,3030.67700644,N,11424.10642007,E,4,06,1.5,37.313,M,-12.684,M,1.0,0000*54
$GPGGA,125518.00,3030.67700719,N,11424.10641986,E,4,06,1.5,37.315,M,-12.684,M,1.0,0000*57
$GPGGA,125519.00,3030.67699901,N,11424.10642646,E,4,07,1.5,37.260,M,-12.684,M,1.0,0000*52
$GPGGA,125520.00,3030.67700578,N,11424.10642092,E,4,06,1.5,37.299,M,-12.684,M,1.0,0000*53
$GPGGA,125521.00,3030.67700564,N,11424.10641891,E,4,07,1.5,37.308,M,-12.684,M,1.0,0000*5F
$GPGGA,125522.00,3030.67700520,N,11424.10642240,E,4,06,1.5,37.307,M,-12.684,M,1.0,0000*57
$GPGGA,125523.00,3030.67700455,N,11424.10641770,E,4,07,1.5,37.309,M,-12.684,M,1.0,0000*5F
$GPGGA,125524.00,3030.67700778,N,11424.10642192,E,4,07,1.5,37.292,M,-12.684,M,1.0,0000*5E
$GPGGA,125525.00,3030.67700622,N,11424.10641855,E,4,07,1.5,37.309,M,-12.684,M,1.0,0000*53
$GPGGA,125526.00,3030.67700350,N,11424.10642469,E,4,06,1.5,37.290,M,-12.684,M,1.0,0000*50
$GPGGA,125527.00,3030.67700506,N,11424.10642074,E,4,06,1.9,37.303,M,-12.684,M,1.0,0000*5B
$GPGGA,125528.00,3030.67700274,N,11424.10642162,E,4,07,1.9,37.305,M,-12.684,M,1.0,0000*57
$GPGGA,125529.00,3030.67698258,N,11424.10643860,E,5,06,1.9,37.184,M,-12.684,M,2.0,0000*5A
$GPGGA,125530.00,3030.67700465,N,11424.10642295,E,4,06,1.9,37.292,M,-12.684,M,1.0,0000*5D
$GPGGA,125531.00,3030.67700413,N,11424.10642099,E,4,06,1.9,37.307,M,-12.684,M,1.0,0000*5E
$GPGGA,125532.00,3030.67700646,N,11424.10642376,E,4,07,1.9,37.303,M,-12.684,M,1.0,0000*58
$GPGGA,125533.00,3030.67700253,N,11424.10642369,E,4,06,1.9,37.297,M,-12.684,M,1.0,0000*5A
$GPGGA,125534.00,3030.67700795,N,11424.10642317,E,4,07,1.9,37.297,M,-12.684,M,1.0,0000*5A
$GPGGA,125535.00,3030.67700576,N,11424.10642136,E,4,06,1.9,37.300,M,-12.684,M,1.0,0000*5B
$GPGGA,125536.00,3030.67700656,N,11424.10642303,E,4,06,1.9,37.300,M,-12.684,M,1.0,0000*5D
$GPGGA,125537.00,3030.67700566,N,11424.10642218,E,4,06,1.9,37.307,M,-12.684,M,1.0,0000*50
$GPGGA,125538.00,3030.67700504,N,11424.10642356,E,4,06,1.9,37.305,M,-12.684,M,1.0,0000*52
$GPGGA,125539.00,3030.67700767,N,11424.10642425,E,4,06,1.9,37.302,M,-12.684,M,1.0,0000*50
$GPGGA,125540.00,3030.67700505,N,11424.10642282,E,4,07,1.9,37.303,M,-12.684,M,1.0,0000*53
$GPGGA,125541.00,3030.67700862,N,11424.10642418,E,4,06,1.9,37.299,M,-12.684,M,1.0,0000*58
$GPGGA,125542.00,3030.67700377,N,11424.10642295,E,4,06,1.9,37.299,M,-12.684,M,1.0,0000*57
$GPGGA,125543.00,3030.67700877,N,11424.10642519,E,4,06,1.9,37.306,M,-12.684,M,1.0,0000*59
$GPGGA,125544.00,3030.67700626,N,11424.10642625,E,4,06,1.9,37.300,M,-12.684,M,1.0,0000*5E
$GPGGA,125545.00,3030.67700070,N,11424.10643355,E,4,06,1.9,37.244,M,-12.684,M,1.0,0000*58
$GPGGA,125546.00,3030.67700858,N,11424.10642781,E,4,07,1.9,37.290,M,-12.684,M,1.0,0000*5D
$GPGGA,125547.00,3030.67700961,N,11424.10642717,E,4,06,1.9,37.304,M,-12.684,M,1.0,0000*55
$GPGGA,125548.00,3030.67700788,N,11424.10642761,E,4,06,1.9,37.297,M,-12.684,M,1.0,0000*59
$GPGGA,125549.00,3030.67700778,N,11424.10642588,E,4,06,1.9,37.303,M,-12.684,M,1.0,0000*5E
$GPGGA,125550.00,3030.67700688,N,11424.10642932,E,4,06,1.9,37.305,M,-12.684,M,1.0,0000*53
$GPGGA,125551.00,3030.67700604,N,11424.10642533,E,4,06,1.9,37.305,M,-12.684,M,1.0,0000*5B
$GPGGA,125552.00,3030.67700916,N,11424.10643093,E,4,06,1.9,37.291,M,-12.684,M,1.0,0000*56
$GPGGA,125553.00,3030.67700728,N,11424.10642407,E,4,06,1.9,37.310,M,-12.684,M,1.0,0000*54
$GPGGA,125554.00,3030.67701019,N,11424.10642952,E,4,06,1.9,37.298,M,-12.684,M,1.0,0000*5B
$GPGGA,125555.00,3030.67700751,N,11424.10642467,E,4,07,1.9,37.309,M,-12.684,M,1.0,0000*53
$GPGGA,125556.00,3030.67700696,N,11424.10642645,E,4,07,1.9,37.312,M,-12.684,M,1.0,0000*52
$GPGGA,125557.00,3030.67700864,N,11424.10642687,E,4,06,1.9,37.310,M,-12.684,M,1.0,0000*5D
$GPGGA,125558.00,3030.67700903,N,11424.10642837,E,4,06,1.9,37.303,M,-12.684,M,1.0,0000*55
$GPGGA,125559.00,3030.67700633,N,11424.10642763,E,4,06,1.9,37.308,M,-12.684,M,1.0,0000*5D
$GPGGA,125600.00,3030.67700768,N,11424.10642561,E,4,06,1.9,37.310,M,-12.684,M,1.0,0000*54
$GPGGA,125601.00,3030.67700905,N,11424.10642793,E,4,06,1.9,37.306,M,-12.684,M,1.0,0000*58
$GPGGA,125602.00,3030.67700652,N,11424.10642564,E,4,06,1.9,37.305,M,-12.684,M,1.0,0000*5F
$GPGGA,125603.00,3030.67700721,N,11424.10642352,E,4,06,1.9,37.310,M,-12.684,M,1.0,0000*5C
$GPGGA,125604.00,3030.67701069,N,11424.10642892,E,4,06,1.9,37.307,M,-12.684,M,2.0,0000*53
$GPGGA,125605.00,3030.67700732,N,11424.10642543,E,4,06,1.9,37.304,M,-12.684,M,1.0,0000*5B
$GPGGA,125606.00,3030.67700692,N,11424.10642453,E,4,06,1.9,37.311,M,-12.684,M,1.0,0000*57
$GPGGA,125607.00,3030.67700794,N,11424.10642666,E,4,07,1.9,37.311,M,-12.684,M,1.0,0000*54
$GPGGA,125608.00,3030.67701047,N,11424.10642957,E,4,06,1.9,37.305,M,-12.684,M,1.0,0000*5A
$GPGGA,125609.00,3030.67700946,N,11424.10642722,E,4,07,1.9,37.313,M,-12.684,M,1.0,0000*58
$GPGGA,125610.00,3030.67700809,N,11424.10643490,E,4,06,1.9,37.293,M,-12.684,M,1.0,0000*59
$GPGGA,125611.00,3030.67700942,N,11424.10643107,E,4,06,1.9,37.304,M,-12.684,M,1.0,0000*52
$GPGGA,125612.00,3030.67700956,N,11424.10642503,E,4,06,1.9,37.315,M,-12.684,M,1.0,0000*55
$GPGGA,125613.00,3030.67701061,N,11424.10642786,E,4,06,1.9,37.314,M,-12.684,M,1.0,0000*56
$GPGGA,125614.00,3030.67701122,N,11424.10643488,E,4,06,1.9,37.300,M,-12.684,M,1.0,0000*5E
$GPGGA,125615.00,3030.67700878,N,11424.10642611,E,4,06,1.9,37.321,M,-12.684,M,1.0,0000*58
$GPGGA,125616.00,3030.67701039,N,11424.10643024,E,4,06,1.9,37.303,M,-12.684,M,1.0,0000*56
$GPGGA,125617.00,3030.67700555,N,11424.10642809,E,4,06,1.9,37.303,M,-12.684,M,1.0,0000*5F
$GPGGA,125618.00,3030.67700681,N,11424.10642492,E,4,07,1.9,37.308,M,-12.684,M,1.0,0000*5E
$GPGGA,125619.00,3030.67700867,N,11424.10642787,E,4,06,1.9,37.302,M,-12.684,M,1.0,0000*55
$GPGGA,125620.00,3030.67700880,N,11424.10642982,E,4,06,1.9,37.302,M,-12.684,M,1.0,0000*5D
$GPGGA,125621.00,3030.67700750,N,11424.10643038,E,4,06,1.9,37.304,M,-12.684,M,1.0,0000*51
$GPGGA,125622.00,3030.67700911,N,11424.10642813,E,4,06,1.9,37.309,M,-12.684,M,1.0,0000*54
$GPGGA,125623.00,3030.67700751,N,11424.10642447,E,4,06,1.9,37.317,M,-12.684,M,1.0,0000*5D
$GPGGA,125624.00,3030.67700926,N,11424.10642925,E,4,06,1.9,37.309,M,-12.684,M,1.0,0000*52
$GPGGA,125625.00,3030.67700840,N,11424.10642721,E,4,06,1.9,37.301,M,-12.684,M,1.0,0000*50
$GPGGA,125626.00,3030.67700902,N,11424.10642633,E,4,06,1.9,37.323,M,-12.684,M,1.0,0000*56
$GPGGA,125627.00,3030.67701096,N,11424.10642822,E,5,06,1.9,37.317,M,-12.684,M,2.0,0000*59
$GPGGA,125628.00,3030.67701115,N,11424.10642860,E,4,06,1.9,37.312,M,-12.684,M,1.0,0000*5D
$GPGGA,125629.00,3030.67700883,N,11424.10642583,E,4,06,1.9,37.320,M,-12.684,M,1.0,0000*5A
$GPGGA,125630.00,3030.67701014,N,11424.10642736,E,4,07,1.9,37.317,M,-12.684,M,1.0,0000*5C
$GPGGA,125631.00,3030.67701064,N,11424.10642796,E,4,06,1.9,37.319,M,-12.684,M,1.0,0000*5F
$GPGGA,125632.00,3030.67700986,N,11424.10643176,E,4,06,1.9,37.309,M,-12.684,M,1.0,0000*50
$GPGGA,125633.00,3030.67700940,N,11424.10642987,E,4,06,1.9,37.303,M,-12.684,M,1.0,0000*56
$GPGGA,125634.00,3030.67701077,N,11424.10643184,E,4,06,1.9,37.306,M,-12.684,M,1.0,0000*52
$GPGGA,125635.00,3030.67701113,N,11424.10642899,E,4,06,1.9,37.313,M,-12.684,M,1.0,0000*50
$GPGGA,125636.00,3030.67701336,N,11424.10642718,E,4,06,1.9,37.322,M,-12.684,M,1.0,0000*52
$GPGGA,125637.00,3030.67701427,N,11424.10643186,E,4,06,1.9,37.292,M,-12.684,M,1.0,0000*5E
$GPGGA,125638.00,3030.67701095,N,11424.10642568,E,4,06,1.9,37.316,M,-12.684,M,1.0,0000*54
$GPGGA,125639.00,3030.67701073,N,11424.10642627,E,4,06,1.9,37.317,M,-12.684,M,1.0,0000*54
$GPGGA,125640.00,3030.67701368,N,11424.10643062,E,4,06,1.9,37.308,M,-12.684,M,1.0,0000*5B
$GPGGA,125641.00,3030.67701033,N,11424.10642799,E,4,06,1.9,37.303,M,-12.684,M,1.0,0000*5E
$GPGGA,125642.00,3030.67701078,N,11424.10642992,E,4,06,1.9,37.295,M,-12.684,M,1.0,0000*59
$GPGGA,125643.00,3030.67700965,N,11424.10643034,E,4,06,1.9,37.310,M,-12.684,M,1.0,0000*54
$GPGGA,125644.00,3030.67701136,N,11424.10642606,E,4,07,1.9,37.312,M,-12.684,M,1.0,0000*59
$GPGGA,125645.00,3030.67700968,N,11424.10642571,E,5,07,1.9,37.307,M,-12.684,M,2.0,0000*5F
$GPGGA,125646.00,3030.67701163,N,11424.10642741,E,5,06,1.9,37.307,M,-12.684,M,3.0,0000*5F
$GPGGA,125647.00,3030.67701223,N,11424.10643278,E,5,06,1.9,37.295,M,-12.684,M,2.0,0000*5C
$GPGGA,125648.00,3030.67701132,N,11424.10643003,E,4,07,1.9,37.295,M,-12.684,M,1.0,0000*5D
$GPGGA,125649.00,3030.67701240,N,11424.10642902,E,4,07,1.9,37.308,M,-12.684,M,1.0,0000*56
$GPGGA,125650.00,3030.67701204,N,11424.10642610,E,4,06,1.9,37.299,M,-12.684,M,1.0,0000*5A
$GPGGA,125651.00,3030.67701212,N,11424.10643180,E,4,06,1.9,37.303,M,-12.684,M,1.0,0000*51
$GPGGA,125652.00,3030.67701090,N,11424.10642822,E,4,06,1.9,37.295,M,-12.684,M,1.0,0000*54
$GPGGA,125653.00,3030.67701021,N,11424.10642699,E,4,07,1.9,37.300,M,-12.684,M,1.0,0000*5D
$GPGGA,125654.00,3030.67701234,N,11424.10642713,E,4,06,1.9,37.304,M,-12.684,M,1.0,0000*5A
$GPGGA,125655.00,3030.67701125,N,11424.10642613,E,4,06,1.9,37.303,M,-12.684,M,1.0,0000*5E
$GPGGA,125656.00,3030.67701049,N,11424.10642826,E,4,06,1.9,37.310,M,-12.684,M,1.0,0000*5C
$GPGGA,125657.00,3030.67700955,N,11424.10642604,E,4,07,1.9,37.303,M,-12.684,M,1.0,0000*55
$GPGGA,125658.00,3030.67700963,N,11424.10642299,E,5,07,1.9,37.312,M,-12.684,M,2.0,0000*5D
$GPGGA,125659.00,3030.67701349,N,11424.10642851,E,4,06,1.9,37.302,M,-12.684,M,1.0,0000*53
$GPGGA,125700.00,3030.67701144,N,11424.10642763,E,5,07,1.9,37.308,M,-12.684,M,1.0,0000*55
$GPGGA,125701.00,3030.67701128,N,11424.10642728,E,4,07,1.9,37.305,M,-12.684,M,1.0,0000*5D
$GPGGA,125702.00,3030.67701119,N,11424.10642709,E,4,07,1.9,37.296,M,-12.684,M,1.0,0000*54
$GPGGA,125703.00,3030.67701249,N,11424.10642626,E,4,06,1.9,37.299,M,-12.684,M,1.0,0000*51
$GPGGA,125704.00,3030.67701170,N,11424.10642387,E,5,06,1.9,37.307,M,-12.684,M,1.0,0000*56
$GPGGA,125705.00,3030.67701225,N,11424.10642573,E,5,06,1.9,37.307,M,-12.684,M,2.0,0000*5A
$GPGGA,125706.00,3030.67701062,N,11424.10642642,E,5,07,1.9,37.298,M,-12.684,M,1.0,0000*5C
$GPGGA,125707.00,3030.67701151,N,11424.10642887,E,5,06,1.9,37.285,M,-12.684,M,1.0,0000*56
$GPGGA,125708.00,3030.67700958,N,11424.10642109,E,4,06,1.9,37.313,M,-12.684,M,1.0,0000*59
$GPGGA,125709.00,3030.67701409,N,11424.10642918,E,5,07,1.9,37.301,M,-12.684,M,1.0,0000*5B
$GPGGA,125710.00,3030.67701198,N,11424.10642772,E,5,06,1.9,37.294,M,-12.684,M,2.0,0000*53
$GPGGA,125711.00,3030.67701212,N,11424.10643119,E,5,07,1.9,37.297,M,-12.684,M,1.0,0000*58
$GPGGA,125712.00,3030.67701228,N,11424.10642546,E,5,07,1.9,37.304,M,-12.684,M,1.0,0000*56
$GPGGA,125713.00,3030.67701167,N,11424.10642745,E,5,06,1.9,37.299,M,-12.684,M,1.0,0000*5A
$GPGGA,125714.00,3030.67700989,N,11424.10642190,E,5,06,1.9,37.299,M,-12.684,M,1.0,0000*5A
$GPGGA,125715.00,3030.67700918,N,11424.10642279,E,5,06,1.9,37.294,M,-12.684,M,1.0,0000*5A
$GPGGA,125716.00,3030.67701100,N,11424.10642327,E,5,06,1.9,37.299,M,-12.684,M,1.0,0000*5E
$GPGGA,125717.00,3030.67701047,N,11424.10642770,E,5,06,1.9,37.293,M,-12.684,M,1.0,0000*51
$GPGGA,125718.00,3030.67701207,N,11424.10642841,E,5,06,1.9,37.298,M,-12.684,M,1.0,0000*5E
$GPGGA,125719.00,3030.67700967,N,11424.10641950,E,5,07,1.9,37.305,M,-12.684,M,1.0,0000*55
$GPGGA,125720.00,3030.67701004,N,11424.10642768,E,5,07,1.9,37.294,M,-12.684,M,1.0,0000*5D
$GPGGA,125721.00,3030.67700911,N,11424.10642027,E,5,06,1.9,37.305,M,-12.684,M,1.0,0000*54
$GPGGA,125722.00,3030.67700960,N,11424.10642267,E,5,07,1.9,37.301,M,-12.684,M,1.0,0000*52
$GPGGA,125723.00,3030.67700651,N,11424.10642447,E,5,06,1.9,37.295,M,-12.684,M,1.0,0000*57
$GPGGA,125724.00,3030.67701006,N,11424.10642273,E,5,06,1.9,37.298,M,-12.684,M,1.0,0000*59
$GPGGA,125725.00,3030.67701024,N,11424.10642166,E,5,07,1.9,37.307,M,-12.684,M,1.0,0000*59
$GPGGA,125726.00,3030.67700903,N,11424.10642004,E,5,06,1.9,37.306,M,-12.684,M,2.0,0000*51
$GPGGA,125727.00,3030.67701011,N,11424.10642184,E,5,06,1.9,37.299,M,-12.684,M,1.0,0000*56
$GPGGA,125728.00,3030.67701030,N,11424.10642585,E,5,07,1.9,37.299,M,-12.684,M,1.0,0000*5E
$GPGGA,125729.00,3030.67700984,N,11424.10642125,E,5,07,1.9,37.290,M,-12.684,M,1.0,0000*5F
$GPGGA,125730.00,3030.67701027,N,11424.10642160,E,5,07,1.9,37.301,M,-12.684,M,2.0,0000*5D
$GPGGA,125731.00,3030.67701020,N,11424.10642365,E,5,07,1.9,37.297,M,-12.684,M,1.0,0000*51
$GPGGA,125732.00,3030.67701031,N,11424.10642305,E,5,07,1.9,37.292,M,-12.684,M,1.0,0000*51
$GPGGA,125733.00,3030.67700843,N,11424.10642030,E,5,07,1.9,37.304,M,-12.684,M,1.0,0000*57
$GPGGA,125734.00,3030.67701028,N,11424.10642574,E,5,06,1.9,37.286,M,-12.684,M,1.0,0000*5B
$GPGGA,125735.00,3030.67701102,N,11424.10642377,E,5,06,1.9,37.297,M,-12.684,M,1.0,0000*56
$GPGGA,125736.00,3030.67700850,N,11424.10642268,E,5,06,1.9,37.297,M,-12.684,M,1.0,0000*55
$GPGGA,125737.00,3030.67700950,N,11424.10642194,E,5,06,1.9,37.295,M,-12.684,M,1.0,0000*57
$GPGGA,125738.00,3030.67701033,N,11424.10642244,E,5,07,1.9,37.295,M,-12.684,M,1.0,0000*5A
$GPGGA,125739.00,3030.67700940,N,11424.10641912,E,5,06,1.9,37.294,M,-12.684,M,1.0,0000*5C
$GPGGA,125740.00,3030.67701074,N,11424.10642315,E,5,07,1.9,37.293,M,-12.684,M,1.0,0000*55
$GPGGA,125741.00,3030.67701018,N,11424.10641665,E,5,07,1.9,37.298,M,-12.684,M,1.0,0000*54
$GPGGA,125742.00,3030.67700665,N,11424.10641305,E,5,06,1.9,37.300,M,-12.684,M,1.0,0000*58
$GPGGA,125743.00,3030.67700754,N,11424.10641849,E,5,07,1.9,37.291,M,-12.684,M,1.0,0000*51
$GPGGA,125744.00,3030.67700938,N,11424.10641958,E,5,06,1.9,37.295,M,-12.684,M,1.0,0000*56
$GPGGA,125745.00,3030.67700789,N,11424.10642209,E,5,06,1.9,37.289,M,-12.684,M,1.0,0000*52
$GPGGA,125746.00,3030.67701133,N,11424.10642072,E,5,06,1.9,37.294,M,-12.684,M,1.0,0000*55
$GPGGA,125747.00,3030.67700511,N,11424.10641640,E,5,07,1.9,37.300,M,-12.684,M,1.0,0000*58
$GPGGA,125748.00,3030.67700923,N,11424.10641600,E,5,06,1.9,37.300,M,-12.684,M,1.0,0000*5F
$GPGGA,125749.00,3030.67700796,N,11424.10641542,E,5,06,1.9,37.299,M,-12.684,M,1.0,0000*5A
$GPGGA,125750.00,3030.67700913,N,11424.10641265,E,5,07,1.9,37.304,M,-12.684,M,1.0,0000*57
$GPGGA,125751.00,3030.67700732,N,11424.10641432,E,5,07,1.9,37.309,M,-12.684,M,1.0,0000*52
$GPGGA,125752.00,3030.67701038,N,11424.10641489,E,5,06,1.9,37.298,M,-12.684,M,1.0,0000*55
$GPGGA,125753.00,3030.67700967,N,11424.10641372,E,5,06,1.9,37.290,M,-12.684,M,1.0,0000*5D
$GPGGA,125754.00,3030.67700906,N,11424.10641922,E,5,07,1.9,37.298,M,-12.684,M,1.0,0000*5B
$GPGGA,125755.00,3030.67700999,N,11424.10641517,E,5,07,1.9,37.296,M,-12.684,M,1.0,0000*58
$GPGGA,125756.00,3030.67700909,N,11424.10641618,E,5,07,1.9,37.299,M,-12.684,M,1.0,0000*51
$GPGGA,125757.00,3030.67700923,N,11424.10641217,E,5,07,1.9,37.305,M,-12.684,M,1.0,0000*57
$GPGGA,125758.00,3030.67700871,N,11424.10640933,E,5,07,1.9,37.294,M,-12.684,M,1.0,0000*5B
$GPGGA,125759.00,3030.67701344,N,11424.10640906,E,5,07,1.9,37.287,M,-12.684,M,1.0,0000*52
$GPGGA,125800.00,3030.67701353,N,11424.10641266,E,5,07,1.9,37.278,M,-12.684,M,1.0,0000*5B
$GPGGA,125801.00,3030.67701553,N,11424.10641020,E,5,07,1.9,37.265,M,-12.684,M,1.0,0000*50
$GPGGA,125802.00,3030.67701888,N,11424.10641402,E,5,07,1.9,37.249,M,-12.684,M,1.0,0000*52
$GPGGA,125803.00,3030.67702132,N,11424.10640846,E,5,07,1.9,37.261,M,-12.684,M,1.0,0000*5F
$GPGGA,125804.00,3030.67702246,N,11424.10640913,E,5,07,1.9,37.247,M,-12.684,M,1.0,0000*5D
$GPGGA,125805.00,3030.67702255,N,11424.10640653,E,5,07,1.9,37.239,M,-12.684,M,1.0,0000*5C
