$GPGGA,122946.00,3030.67633847,N,11424.10686740,E,4,07,2.8,37.245,M,-12.684,M,1.0,0000*56
$GPGGA,122947.00,3030.67633946,N,11424.10686745,E,4,08,2.7,37.231,M,-12.684,M,1.0,0000*51
$GPGGA,122948.00,3030.67634786,N,11424.10686209,E,4,08,2.7,37.238,M,-12.684,M,1.0,0000*5F
$GPGGA,122949.00,3030.67634131,N,11424.10686356,E,4,08,2.7,37.215,M,-12.684,M,1.0,0000*50
$GPGGA,122950.00,3030.67635302,N,11424.10686031,E,4,08,2.7,37.219,M,-12.684,M,1.0,0000*55
$GPGGA,122951.00,3030.67635657,N,11424.10685724,E,4,08,2.7,37.224,M,-12.684,M,1.0,0000*5F
$GPGGA,122952.00,3030.67636037,N,11424.10685670,E,4,08,2.7,37.221,M,-12.684,M,1.0,0000*5A
$GPGGA,122953.00,3030.67636065,N,11424.10685847,E,4,08,2.7,37.217,M,-12.684,M,1.0,0000*53
$GPGGA,122954.00,3030.67637379,N,11424.10685372,E,4,08,2.7,37.214,M,-12.684,M,1.0,0000*55
$GPGGA,122955.00,3030.67637148,N,11424.10684982,E,4,08,2.7,37.194,M,-12.684,M,1.0,0000*5B
$GPGGA,122956.00,3030.67637171,N,11424.10685291,E,4,08,2.7,37.203,M,-12.684,M,1.0,0000*57
$GPGGA,122957.00,3030.67637334,N,11424.10684960,E,4,08,2.7,37.192,M,-12.684,M,1.0,0000*5A
$GPGGA,122958.00,3030.67637721,N,11424.10684740,E,4,08,2.7,37.185,M,-12.684,M,1.0,0000*5F
$GPGGA,122959.00,3030.67638333,N,11424.10684654,E,4,08,2.7,37.192,M,-12.684,M,1.0,0000*54
$GPGGA,123000.00,3030.67639450,N,11424.10684209,E,4,08,2.7,37.190,M,-12.684,M,1.0,0000*5D
$GPGGA,123001.00,3030.67639884,N,11424.10683995,E,4,08,2.7,37.185,M,-12.684,M,1.0,0000*54
$GPGGA,123002.00,3030.67639963,N,11424.10683877,E,4,08,2.7,37.177,M,-12.684,M,1.0,0000*5F
$GPGGA,123003.00,3030.67640857,N,11424.10683748,E,4,08,2.7,37.181,M,-12.684,M,1.0,0000*5C
$GPGGA,123004.00,3030.67640848,N,11424.10683578,E,4,08,2.7,37.181,M,-12.684,M,1.0,0000*54
$GPGGA,123005.00,3030.67641156,N,11424.10683521,E,4,08,2.7,37.179,M,-12.684,M,1.0,0000*59
$GPGGA,123006.00,3030.67641406,N,11424.10683032,E,4,08,2.7,37.165,M,-12.684,M,1.0,0000*50
$GPGGA,123007.00,3030.67641990,N,11424.10683171,E,4,08,2.7,37.153,M,-12.684,M,1.0,0000*50
$GPGGA,123008.00,3030.67641399,N,11424.10682787,E,4,08,2.7,37.154,M,-12.684,M,1.0,0000*55
$GPGGA,123009.00,3030.67642379,N,11424.10682653,E,4,08,2.7,37.150,M,-12.684,M,1.0,0000*55
$GPGGA,123010.00,3030.67643591,N,11424.10682360,E,4,08,2.7,37.158,M,-12.684,M,1.0,0000*51
$GPGGA,123011.00,3030.67643757,N,11424.10682412,E,4,08,2.7,37.159,M,-12.684,M,1.0,0000*5B
$GPGGA,123012.00,3030.67643448,N,11424.10681907,E,4,08,2.7,37.144,M,-12.684,M,1.0,0000*53
$GPGGA,123013.00,3030.67644227,N,11424.10682068,E,4,08,2.7,37.141,M,-12.684,M,1.0,0000*5C
$GPGGA,123014.00,3030.67644701,N,11424.10681629,E,4,08,2.7,37.134,M,-12.684,M,1.0,0000*58
$GPGGA,123015.00,3030.67645117,N,11424.10681489,E,4,08,2.7,37.136,M,-12.684,M,1.0,0000*53
$GPGGA,123016.00,3030.67618384,N,11424.10693844,E,4,08,2.7,37.408,M,-12.684,M,1.0,0000*56
$GPGGA,123017.00,3030.67618917,N,11424.10693604,E,4,08,2.7,37.414,M,-12.684,M,1.0,0000*50
$GPGGA,123018.00,3030.67618206,N,11424.10693784,E,4,08,2.7,37.413,M,-12.684,M,1.0,0000*5A
$GPGGA,123019.00,3030.67618292,N,11424.10693531,E,4,08,2.7,37.415,M,-12.684,M,1.0,0000*5C
$GPGGA,123020.00,3030.67617748,N,11424.10693569,E,4,07,2.7,37.395,M,-12.684,M,1.0,0000*56
$GPGGA,123021.00,3030.67620541,N,11424.10692995,E,4,08,2.7,37.366,M,-12.684,M,1.0,0000*55
$GPGGA,123022.00,3030.67619831,N,11424.10692984,E,4,08,2.7,37.368,M,-12.684,M,1.0,0000*58
$GPGGA,123023.00,3030.67619140,N,11424.10693035,E,4,08,2.7,37.348,M,-12.684,M,1.0,0000*56
$GPGGA,123024.00,3030.67620011,N,11424.10693041,E,4,08,2.7,37.363,M,-12.684,M,1.0,0000*54
$GPGGA,123025.00,3030.67619081,N,11424.10693105,E,4,08,2.7,37.349,M,-12.684,M,1.0,0000*5F
$GPGGA,123026.00,3030.67620049,N,11424.10693335,E,4,08,2.7,37.350,M,-12.684,M,1.0,0000*5B
$GPGGA,123027.00,3030.67619670,N,11424.10693029,E,4,08,2.7,37.360,M,-12.684,M,1.0,0000*51
$GPGGA,123028.00,3030.67619813,N,11424.10692945,E,4,08,2.7,37.357,M,-12.684,M,1.0,0000*53
$GPGGA,123029.00,3030.67619845,N,11424.10693223,E,4,08,2.7,37.353,M,-12.684,M,1.0,0000*5F
$GPGGA,123030.00,3030.67619668,N,11424.10692966,E,4,08,2.7,37.353,M,-12.684,M,1.0,0000*5D
$GPGGA,123031.00,3030.67619105,N,11424.10693411,E,4,08,2.7,37.352,M,-12.684,M,1.0,0000*5D
$GPGGA,123032.00,3030.67618725,N,11424.10693480,E,4,08,2.7,37.344,M,-12.684,M,2.0,0000*57
$GPGGA,123033.00,3030.67618790,N,11424.10693352,E,4,08,2.7,37.347,M,-12.684,M,2.0,0000*53
$GPGGA,123034.00,3030.67619193,N,11424.10693244,E,4,08,2.7,37.352,M,-12.684,M,2.0,0000*52
$GPGGA,123035.00,3030.67619654,N,11424.10693054,E,4,07,2.7,37.362,M,-12.684,M,1.0,0000*53
$GPGGA,123036.00,3030.67619167,N,11424.10693194,E,4,08,2.7,37.346,M,-12.684,M,1.0,0000*53
$GPGGA,123037.00,3030.67619140,N,11424.10693084,E,4,08,2.7,37.346,M,-12.684,M,1.0,0000*57
$GPGGA,123038.00,3030.67619725,N,11424.10693434,E,4,08,2.7,37.359,M,-12.684,M,1.0,0000*5C
$GPGGA,123039.00,3030.67617714,N,11424.10692996,E,4,08,2.7,37.344,M,-12.684,M,1.0,0000*59
$GPGGA,123040.00,3030.67619587,N,11424.10693317,E,4,08,2.7,37.356,M,-12.684,M,1.0,0000*50
$GPGGA,123041.00,3030.67618707,N,11424.10692771,E,4,08,2.7,37.349,M,-12.684,M,1.0,0000*51
$GPGGA,123042.00,3030.67618873,N,11424.10693185,E,4,08,2.7,37.344,M,-12.684,M,1.0,0000*5F
$GPGGA,123043.00,3030.67618941,N,11424.10693164,E,4,08,2.7,37.366,M,-12.684,M,1.0,0000*51
$GPGGA,123044.00,3030.67618717,N,11424.10692946,E,4,08,2.7,37.352,M,-12.684,M,1.0,0000*55
$GPGGA,123045.00,3030.67618651,N,11424.10693345,E,4,08,2.7,37.351,M,-12.684,M,1.0,0000*5C
$GPGGA,123046.00,3030.67618325,N,11424.10692936,E,4,08,2.7,37.350,M,-12.684,M,1.0,0000*57
$GPGGA,123047.00,3030.67619072,N,11424.10693182,E,4,08,2.7,37.356,M,-12.684,M,1.0,0000*56
$GPGGA,123048.00,3030.67619308,N,11424.10693280,E,4,08,2.7,37.352,M,-12.684,M,1.0,0000*52
$GPGGA,123049.00,3030.67618550,N,11424.10693034,E,4,08,2.7,37.350,M,-12.684,M,1.0,0000*56
$GPGGA,123050.00,3030.67619153,N,11424.10693048,E,4,08,2.7,37.349,M,-12.684,M,1.0,0000*5B
$GPGGA,123051.00,3030.67618765,N,11424.10693205,E,4,08,2.7,37.350,M,-12.684,M,1.0,0000*5B
$GPGGA,123052.00,3030.67618867,N,11424.10693265,E,4,08,2.7,37.357,M,-12.684,M,1.0,0000*54
$GPGGA,123053.00,3030.67619264,N,11424.10693139,E,4,08,2.7,37.348,M,-12.684,M,1.0,0000*59
$GPGGA,123054.00,3030.67619045,N,11424.10693076,E,4,08,2.7,37.350,M,-12.684,M,1.0,0000*5C
$GPGGA,123055.00,3030.67618614,N,11424.10693107,E,4,08,2.7,37.343,M,-12.684,M,1.0,0000*5B
$GPGGA,123056.00,3030.67619259,N,11424.10693170,E,4,08,2.7,37.361,M,-12.684,M,1.0,0000*54
$GPGGA,123057.00,3030.67619773,N,11424.10692884,E,4,07,2.7,37.354,M,-12.684,M,1.0,0000*52
$GPGGA,123058.00,3030.67618919,N,11424.10693322,E,4,08,2.7,37.360,M,-12.684,M,1.0,0000*50
$GPGGA,123059.00,3030.67617586,N,11424.10692975,E,4,08,2.7,37.353,M,-12.684,M,1.0,0000*5D
$GPGGA,123100.00,3030.67619998,N,11424.10693267,E,4,08,2.7,37.362,M,-12.684,M,1.0,0000*56
$GPGGA,123101.00,3030.67619320,N,11424.10692977,E,4,08,2.7,37.355,M,-12.684,M,1.0,0000*51
$GPGGA,123102.00,3030.67618273,N,11424.10692992,E,4,08,2.7,37.356,M,-12.684,M,1.0,0000*5C
$GPGGA,123103.00,3030.67619363,N,11424.10693426,E,4,08,2.7,37.357,M,-12.684,M,1.0,0000*5E
$GPGGA,123104.00,3030.67619588,N,11424.10693201,E,4,08,2.7,37.363,M,-12.684,M,1.0,0000*5E
$GPGGA,123105.00,3030.67619293,N,11424.10693055,E,4,08,2.7,37.364,M,-12.684,M,1.0,0000*56
$GPGGA,123106.00,3030.67618245,N,11424.10693315,E,4,08,2.7,37.345,M,-12.684,M,1.0,0000*5B
$GPGGA,123107.00,3030.67619674,N,11424.10693114,E,4,08,2.7,37.365,M,-12.684,M,1.0,0000*5C
$GPGGA,123108.00,3030.67619680,N,11424.10693341,E,4,08,2.7,37.365,M,-12.684,M,1.0,0000*5A
$GPGGA,123109.00,3030.67618466,N,11424.10692923,E,4,08,2.7,37.363,M,-12.684,M,1.0,0000*59
$GPGGA,123110.00,3030.67619615,N,11424.10693585,E,4,08,2.7,37.361,M,-12.684,M,1.0,0000*55
$GPGGA,123111.00,3030.67619697,N,11424.10693119,E,4,08,2.7,37.376,M,-12.684,M,1.0,0000*59
$GPGGA,123112.00,3030.67618886,N,11424.10692989,E,4,08,2.7,37.367,M,-12.684,M,1.0,0000*55
$GPGGA,123113.00,3030.67619636,N,11424.10693286,E,4,08,2.7,37.374,M,-12.684,M,1.0,0000*57
$GPGGA,123114.00,3030.67618579,N,11424.10693182,E,4,08,2.7,37.365,M,-12.684,M,1.0,0000*5E
$GPGGA,123115.00,3030.67619669,N,11424.10693284,E,4,08,2.7,37.378,M,-12.684,M,1.0,0000*55
$GPGGA,123116.00,3030.67618559,N,11424.10693163,E,4,08,2.7,37.375,M,-12.684,M,1.0,0000*50
$GPGGA,123117.00,3030.67618449,N,11424.10693668,E,4,08,2.7,37.371,M,-12.684,M,1.0,0000*59
$GPGGA,123118.00,3030.67618726,N,11424.10693255,E,4,08,2.8,37.378,M,-12.684,M,1.0,0000*50
$GPGGA,123119.00,3030.67618944,N,11424.10693264,E,4,08,2.8,37.366,M,-12.684,M,1.0,0000*56
$GPGGA,123120.00,3030.67618631,N,11424.10693160,E,4,08,2.8,37.380,M,-12.684,M,1.0,0000*5E
$GPGGA,123121.00,3030.67618934,N,11424.10693254,E,4,08,2.8,37.370,M,-12.684,M,1.0,0000*5E
$GPGGA,123122.00,3030.67618141,N,11424.10693281,E,4,08,2.8,37.383,M,-12.684,M,1.0,0000*53
$GPGGA,123123.00,3030.67618442,N,11424.10693347,E,4,07,2.8,37.377,M,-12.684,M,1.0,0000*5B
$GPGGA,123124.00,3030.67618313,N,11424.10693029,E,4,08,2.8,37.375,M,-12.684,M,1.0,0000*59
$GPGGA,123125.00,3030.67619398,N,11424.10693195,E,4,08,2.8,37.379,M,-12.684,M,1.0,0000*50
$GPGGA,123126.00,3030.67618856,N,11424.10693278,E,4,08,2.8,37.386,M,-12.684,M,1.0,0000*5B
$GPGGA,123127.00,3030.67618595,N,11424.10693238,E,4,08,2.8,37.373,M,-12.684,M,1.0,0000*56
$GPGGA,123128.00,3030.67618955,N,11424.10692956,E,4,08,2.8,37.389,M,-12.684,M,1.0,0000*5E
$GPGGA,123129.00,3030.67619062,N,11424.10693300,E,4,08,2.8,37.372,M,-12.684,M,1.0,0000*5F
$GPGGA,123130.00,3030.67619288,N,11424.10693107,E,4,07,2.8,37.384,M,-12.684,M,1.0,0000*52
$GPGGA,123131.00,3030.67617839,N,11424.10693078,E,4,08,2.8,37.368,M,-12.684,M,1.0,0000*59
$GPGGA,123132.00,3030.67618314,N,11424.10693043,E,4,08,2.8,37.381,M,-12.684,M,1.0,0000*5E
$GPGGA,123133.00,3030.67618787,N,11424.10693109,E,4,08,2.8,37.384,M,-12.684,M,1.0,0000*5B
$GPGGA,123134.00,3030.67618384,N,11424.10693002,E,4,08,2.8,37.380,M,-12.684,M,1.0,0000*55
$GPGGA,123135.00,3030.67617989,N,11424.10693050,E,4,08,2.8,37.362,M,-12.684,M,1.0,0000*57
$GPGGA,123136.00,3030.67617646,N,11424.10692867,E,4,08,2.8,37.388,M,-12.684,M,1.0,0000*51
$GPGGA,123137.00,3030.67618026,N,11424.10693225,E,4,08,2.8,37.381,M,-12.684,M,1.0,0000*5B
$GPGGA,123138.00,3030.67618656,N,11424.10692897,E,4,08,2.8,37.376,M,-12.684,M,1.0,0000*5F
$GPGGA,123139.00,3030.67619023,N,11424.10693029,E,4,08,2.8,37.392,M,-12.684,M,1.0,0000*5D
$GPGGA,123140.00,3030.67618981,N,11424.10692989,E,4,08,2.8,37.379,M,-12.684,M,1.0,0000*54
$GPGGA,123141.00,3030.67618201,N,11424.10693292,E,4,08,2.8,37.383,M,-12.684,M,1.0,0000*53
$GPGGA,123142.00,3030.67618882,N,11424.10693129,E,4,08,2.8,37.379,M,-12.684,M,1.0,0000*57
$GPGGA,123143.00,3030.67618473,N,11424.10692908,E,4,08,2.8,37.382,M,-12.684,M,1.0,0000*5A
$GPGGA,123144.00,3030.67619140,N,11424.10692935,E,4,08,2.8,37.389,M,-12.684,M,1.0,0000*5C
$GPGGA,123145.00,3030.67618629,N,11424.10693203,E,4,08,2.8,37.394,M,-12.684,M,1.0,0000*57
$GPGGA,123146.00,3030.67617322,N,11424.10693117,E,4,08,2.8,37.379,M,-12.684,M,1.0,0000*50
$GPGGA,123147.00,3030.67619606,N,11424.10692594,E,4,08,2.8,37.395,M,-12.684,M,1.0,0000*50
$GPGGA,123148.00,3030.67618173,N,11424.10693109,E,4,07,2.8,37.375,M,-12.684,M,1.0,0000*5B
$GPGGA,123149.00,3030.67617909,N,11424.10693178,E,4,08,2.8,37.384,M,-12.684,M,1.0,0000*57
$GPGGA,123150.00,3030.67618218,N,11424.10693241,E,4,08,2.8,37.388,M,-12.684,M,1.0,0000*5E
$GPGGA,123151.00,3030.67617922,N,11424.10692962,E,4,08,2.8,37.367,M,-12.684,M,1.0,0000*58
$GPGGA,123152.00,3030.67617846,N,11424.10693050,E,4,08,2.8,37.371,M,-12.684,M,1.0,0000*56
$GPGGA,123153.00,3030.67618433,N,11424.10693171,E,4,08,2.8,37.371,M,-12.684,M,1.0,0000*54
$GPGGA,123154.00,3030.67617330,N,11424.10693029,E,4,08,2.7,37.381,M,-12.684,M,1.0,0000*54
$GPGGA,123155.00,3030.67618771,N,11424.10692675,E,4,08,2.7,37.386,M,-12.684,M,1.0,0000*52
$GPGGA,123156.00,3030.67618917,N,11424.10692851,E,4,08,2.7,37.388,M,-12.684,M,2.0,0000*5A
$GPGGA,123157.00,3030.67618200,N,11424.10692837,E,4,08,2.7,37.376,M,-12.684,M,1.0,0000*54
$GPGGA,123158.00,3030.67617040,N,11424.10692995,E,4,08,2.7,37.391,M,-12.684,M,1.0,0000*52
$GPGGA,123159.00,3030.67617982,N,11424.10692940,E,4,08,2.7,37.373,M,-12.684,M,1.0,0000*50
$GPGGA,123200.00,3030.67618158,N,11424.10692747,E,4,08,2.7,37.382,M,-12.684,M,1.0,0000*58
$GPGGA,123201.00,3030.67616905,N,11424.10692918,E,4,08,2.7,37.373,M,-12.684,M,1.0,0000*5D
$GPGGA,123202.00,3030.67617716,N,11424.10692903,E,4,08,2.8,37.371,M,-12.684,M,1.0,0000*54
$GPGGA,123203.00,3030.67617616,N,11424.10692997,E,4,08,2.8,37.370,M,-12.684,M,1.0,0000*58
$GPGGA,123204.00,3030.67617998,N,11424.10692709,E,4,08,2.8,37.382,M,-12.684,M,1.0,0000*52
$GPGGA,123205.00,3030.67617578,N,11424.10692792,E,4,08,2.8,37.373,M,-12.684,M,1.0,0000*5D
$GPGGA,123206.00,3030.67617976,N,11424.10692678,E,4,08,2.8,37.385,M,-12.684,M,1.0,0000*50
$GPGGA,123207.00,3030.67617325,N,11424.10692755,E,4,08,2.8,37.381,M,-12.684,M,1.0,0000*57
$GPGGA,123208.00,3030.67617663,N,11424.10692760,E,4,08,2.8,37.365,M,-12.684,M,1.0,0000*53
$GPGGA,123209.00,3030.67617116,N,11424.10692640,E,4,08,2.8,37.365,M,-12.684,M,1.0,0000*54
$GPGGA,123210.00,3030.67619072,N,11424.10692288,E,4,08,2.8,37.395,M,-12.684,M,1.0,0000*5E
$GPGGA,123211.00,3030.67617153,N,11424.10692910,E,4,08,2.8,37.388,M,-12.684,M,1.0,0000*55
$GPGGA,123212.00,3030.67617336,N,11424.10692486,E,4,08,2.8,37.370,M,-12.684,M,1.0,0000*52
$GPGGA,123213.00,3030.67617661,N,11424.10692584,E,4,08,2.8,37.384,M,-12.684,M,1.0,0000*5C
$GPGGA,123214.00,3030.67617909,N,11424.10692681,E,4,08,2.8,37.385,M,-12.684,M,1.0,0000*5D
$GPGGA,123215.00,3030.67616889,N,11424.10692666,E,4,08,2.8,37.378,M,-12.684,M,1.0,0000*5F
$GPGGA,123216.00,3030.67615904,N,11424.10692732,E,4,08,2.8,37.367,M,-12.684,M,1.0,0000*55
$GPGGA,123217.00,3030.67617378,N,11424.10692887,E,4,08,2.8,37.373,M,-12.684,M,1.0,0000*53
$GPGGA,123218.00,3030.67617486,N,11424.10693040,E,4,08,2.8,37.373,M,-12.684,M,1.0,0000*58
$GPGGA,123219.00,3030.67616193,N,11424.10692724,E,4,08,2.8,37.365,M,-12.684,M,1.0,0000*5A
$GPGGA,123220.00,3030.67616712,N,11424.10692779,E,4,07,2.8,37.387,M,-12.684,M,1.0,0000*54
$GPGGA,123221.00,3030.67616901,N,11424.10692705,E,4,08,2.8,37.362,M,-12.684,M,1.0,0000*56
$GPGGA,123222.00,3030.67617859,N,11424.10692652,E,4,08,2.8,37.386,M,-12.684,M,1.0,0000*51
$GPGGA,123223.00,3030.67616380,N,11424.10692703,E,4,08,2.8,37.385,M,-12.684,M,1.0,0000*58
$GPGGA,123224.00,3030.67616576,N,11424.10692878,E,4,07,2.8,37.382,M,-12.684,M,1.0,0000*5B
$GPGGA,123225.00,3030.67616838,N,11424.10692619,E,4,08,2.8,37.371,M,-12.684,M,1.0,0000*57
$GPGGA,123226.00,3030.67616615,N,11424.10692585,E,4,08,2.8,37.364,M,-12.684,M,1.0,0000*57
$GPGGA,123227.00,3030.67616581,N,11424.10692596,E,4,08,2.8,37.381,M,-12.684,M,1.0,0000*51
$GPGGA,123228.00,3030.67616419,N,11424.10692736,E,4,08,2.8,37.377,M,-12.684,M,1.0,0000*5F
$GPGGA,123229.00,3030.67616972,N,11424.10692515,E,4,08,2.8,37.382,M,-12.684,M,1.0,0000*57
$GPGGA,123230.00,3030.67616619,N,11424.10692547,E,4,08,2.8,37.369,M,-12.684,M,1.0,0000*5F
$GPGGA,123231.00,3030.67616026,N,11424.10692873,E,4,08,2.8,37.390,M,-12.684,M,1.0,0000*58
$GPGGA,123232.00,3030.67616278,N,11424.10692790,E,4,07,2.8,37.374,M,-12.684,M,1.0,0000*55
$GPGGA,123233.00,3030.67616112,N,11424.10693012,E,4,07,2.8,37.377,M,-12.684,M,2.0,0000*57
$GPGGA,123234.00,3030.67616713,N,11424.10692854,E,4,07,2.8,37.377,M,-12.684,M,2.0,0000*5C
$GPGGA,123235.00,3030.67616757,N,11424.10692545,E,4,08,2.8,37.367,M,-12.684,M,2.0,0000*5E
$GPGGA,123236.00,3030.67616701,N,11424.10692691,E,4,08,2.8,37.378,M,-12.684,M,1.0,0000*59
$GPGGA,123237.00,3030.67616330,N,11424.10692501,E,4,08,2.8,37.377,M,-12.684,M,1.0,0000*5B
$GPGGA,123238.00,3030.67616243,N,11424.10692945,E,4,08,2.8,37.375,M,-12.684,M,1.0,0000*5F
$GPGGA,123239.00,3030.67616848,N,11424.10692481,E,4,08,2.8,37.387,M,-12.684,M,1.0,0000*57
$GPGGA,123240.00,3030.67616185,N,11424.10692960,E,4,08,2.8,37.370,M,-12.684,M,1.0,0000*5B
$GPGGA,123241.00,3030.67616651,N,11424.10692606,E,4,08,2.8,37.384,M,-12.684,M,1.0,0000*50
$GPGGA,123242.00,3030.67616312,N,11424.10692542,E,4,08,2.8,37.367,M,-12.684,M,1.0,0000*5F
$GPGGA,123243.00,3030.67616231,N,11424.10693005,E,4,08,2.8,37.372,M,-12.684,M,1.0,0000*5D
$GPGGA,123244.00,3030.67616796,N,11424.10692928,E,4,08,2.8,37.386,M,-12.684,M,1.0,0000*5E
$GPGGA,123245.00,3030.67616865,N,11424.10692743,E,4,08,2.8,37.380,M,-12.684,M,1.0,0000*59
$GPGGA,123246.00,3030.67616586,N,11424.10692645,E,4,07,2.8,37.386,M,-12.684,M,1.0,0000*54
$GPGGA,123247.00,3030.67616241,N,11424.10692688,E,4,08,2.8,37.376,M,-12.684,M,1.0,0000*58
$GPGGA,123248.00,3030.67617365,N,11424.10692506,E,4,08,2.8,37.397,M,-12.684,M,1.0,0000*5B
$GPGGA,123249.00,3030.67616023,N,11424.10692619,E,4,08,2.8,37.383,M,-12.684,M,1.0,0000*52
$GPGGA,123250.00,3030.67615949,N,11424.10692838,E,4,08,2.8,37.370,M,-12.684,M,1.0,0000*5D
$GPGGA,123251.00,3030.67615964,N,11424.10692885,E,4,08,2.8,37.365,M,-12.684,M,1.0,0000*51
$GPGGA,123252.00,3030.67617180,N,11424.10692768,E,4,07,2.8,37.388,M,-12.684,M,1.0,0000*52
$GPGGA,123253.00,3030.67616584,N,11424.10692693,E,4,08,2.8,37.396,M,-12.684,M,1.0,0000*57
$GPGGA,123254.00,3030.67616207,N,11424.10693204,E,4,08,2.8,37.363,M,-12.684,M,1.0,0000*5D
$GPGGA,123255.00,3030.67616577,N,11424.10692880,E,4,07,2.8,37.378,M,-12.684,M,1.0,0000*5E
$GPGGA,123256.00,3030.67617095,N,11424.10692896,E,4,08,2.8,37.393,M,-12.684,M,1.0,0000*58
$GPGGA,123257.00,3030.67616846,N,11424.10692762,E,4,08,2.8,37.389,M,-12.684,M,1.0,0000*51
$GPGGA,123258.00,3030.67616607,N,11424.10693206,E,4,08,2.8,37.379,M,-12.684,M,1.0,0000*5C
$GPGGA,123259.00,3030.67616730,N,11424.10692875,E,4,08,2.8,37.384,M,-12.684,M,1.0,0000*55
$GPGGA,123300.00,3030.67615944,N,11424.10692965,E,4,08,2.8,37.373,M,-12.684,M,1.0,0000*5E
$GPGGA,123301.00,3030.67616666,N,11424.10693387,E,4,08,2.8,37.386,M,-12.684,M,1.0,0000*5E
$GPGGA,123302.00,3030.67616289,N,11424.10693213,E,4,07,2.8,37.367,M,-12.684,M,1.0,0000*54
$GPGGA,123303.00,3030.67616593,N,11424.10693308,E,4,07,2.8,37.372,M,-12.684,M,1.0,0000*56
$GPGGA,123304.00,3030.67616669,N,11424.10693163,E,4,07,2.8,37.372,M,-12.684,M,1.0,0000*58
$GPGGA,123305.00,3030.67615352,N,11424.10693268,E,4,07,2.8,37.351,M,-12.684,M,1.0,0000*5E
$GPGGA,123306.00,3030.67616562,N,11424.10693011,E,4,07,2.8,37.377,M,-12.684,M,1.0,0000*53
$GPGGA,123307.00,3030.67616305,N,11424.10693080,E,4,07,2.8,37.365,M,-12.684,M,1.0,0000*5E
$GPGGA,123308.00,3030.67616233,N,11424.10693197,E,4,07,2.8,37.371,M,-12.684,M,1.0,0000*57
$GPGGA,123309.00,3030.67616014,N,11424.10693150,E,4,08,2.8,37.372,M,-12.684,M,1.0,0000*56
$GPGGA,123310.00,3030.67617046,N,11424.10693174,E,4,07,2.8,37.369,M,-12.684,M,1.0,0000*5B
$GPGGA,123311.00,3030.67616827,N,11424.10692895,E,4,07,2.8,37.383,M,-12.684,M,1.0,0000*57
$GPGGA,123312.00,3030.67616547,N,11424.10693127,E,4,07,2.8,37.374,M,-12.684,M,1.0,0000*56
$GPGGA,123313.00,3030.67615626,N,11424.10693144,E,4,07,2.8,37.364,M,-12.684,M,1.0,0000*54
$GPGGA,123314.00,3030.67616760,N,11424.10693218,E,4,07,2.8,37.370,M,-12.684,M,1.0,0000*5C
$GPGGA,123315.00,3030.67616694,N,11424.10693008,E,4,07,2.8,37.370,M,-12.684,M,1.0,0000*54
$GPGGA,123316.00,3030.67616106,N,11424.10693205,E,4,07,2.8,37.370,M,-12.684,M,1.0,0000*54
$GPGGA,123317.00,3030.67616561,N,11424.10693057,E,4,07,2.8,37.360,M,-12.684,M,1.0,0000*54
$GPGGA,123318.00,3030.67616149,N,11424.10692947,E,4,07,2.8,37.353,M,-12.684,M,2.0,0000*5F
$GPGGA,123319.00,3030.67616410,N,11424.10693092,E,4,07,2.8,37.378,M,-12.684,M,1.0,0000*5D
$GPGGA,123320.00,3030.67616420,N,11424.10692978,E,4,07,2.8,37.369,M,-12.684,M,1.0,0000*58
$GPGGA,123321.00,3030.67616515,N,11424.10693238,E,4,07,2.8,37.368,M,-12.684,M,1.0,0000*51
$GPGGA,123322.00,3030.67617240,N,11424.10693225,E,4,07,2.8,37.378,M,-12.684,M,1.0,0000*59
$GPGGA,123323.00,3030.67616666,N,11424.10693205,E,4,07,2.8,37.369,M,-12.684,M,1.0,0000*5B
$GPGGA,123324.00,3030.67616661,N,11424.10693097,E,4,07,2.8,37.379,M,-12.684,M,1.0,0000*53
$GPGGA,123325.00,3030.67616453,N,11424.10692917,E,4,07,2.8,37.369,M,-12.684,M,1.0,0000*50
$GPGGA,123326.00,3030.67616773,N,11424.10692890,E,4,07,2.8,37.388,M,-12.684,M,1.0,0000*53
$GPGGA,123327.00,3030.67616605,N,11424.10692899,E,4,07,2.8,37.380,M,-12.684,M,1.0,0000*53
$GPGGA,123328.00,3030.67616279,N,11424.10692983,E,4,07,2.8,37.365,M,-12.684,M,1.0,0000*52
$GPGGA,123329.00,3030.67616433,N,11424.10693082,E,4,07,2.8,37.370,M,-12.684,M,1.0,0000*56
$GPGGA,123330.00,3030.67616766,N,11424.10693062,E,4,07,2.8,37.393,M,-12.684,M,1.0,0000*5E
$GPGGA,123331.00,3030.67616978,N,11424.10693343,E,4,07,2.8,37.385,M,-12.684,M,1.0,0000*59
$GPGGA,123332.00,3030.67616305,N,11424.10693230,E,4,07,2.8,37.364,M,-12.684,M,1.0,0000*50
$GPGGA,123333.00,3030.67616175,N,11424.10692954,E,4,07,2.8,37.370,M,-12.684,M,1.0,0000*59
$GPGGA,123334.00,3030.67616040,N,11424.10693103,E,4,07,2.8,37.368,M,-12.684,M,1.0,0000*5B
$GPGGA,123335.00,3030.67615810,N,11424.10693422,E,4,08,2.8,37.367,M,-12.684,M,1.0,0000*52
$GPGGA,123336.00,3030.67617148,N,11424.10693098,E,4,08,2.8,37.387,M,-12.684,M,1.0,0000*5C
$GPGGA,123337.00,3030.67616406,N,11424.10693154,E,4,07,2.8,37.378,M,-12.684,M,1.0,0000*5D
$GPGGA,123338.00,3030.67616373,N,11424.10693060,E,4,07,2.8,37.373,M,-12.684,M,1.0,0000*5A
$GPGGA,123339.00,3030.67616020,N,11424.10693295,E,4,07,2.8,37.351,M,-12.684,M,1.0,0000*56
$GPGGA,123340.00,3030.67616097,N,11424.10693532,E,4,07,2.8,37.361,M,-12.684,M,1.0,0000*5D
$GPGGA,123341.00,3030.67615697,N,11424.10693533,E,4,07,2.8,37.349,M,-12.684,M,1.0,0000*52
$GPGGA,123342.00,3030.67616207,N,11424.10693169,E,4,07,2.8,37.360,M,-12.684,M,1.0,0000*5F
$GPGGA,123343.00,3030.67616443,N,11424.10693396,E,4,07,2.8,37.357,M,-12.684,M,1.0,0000*5E
$GPGGA,123344.00,3030.67615481,N,11424.10693337,E,4,07,2.8,37.342,M,-12.684,M,1.0,0000*5B
$GPGGA,123345.00,3030.67615696,N,11424.10693379,E,4,07,2.8,37.347,M,-12.684,M,1.0,0000*51
$GPGGA,123346.00,3030.67616802,N,11424.10693660,E,4,07,2.8,37.364,M,-12.684,M,1.0,0000*5E
$GPGGA,123347.00,3030.67616564,N,11424.10693002,E,4,07,2.8,37.367,M,-12.684,M,1.0,0000*53
$GPGGA,123348.00,3030.67617201,N,11424.10693326,E,4,07,2.8,37.380,M,-12.684,M,1.0,0000*55
$GPGGA,123349.00,3030.67616188,N,11424.10693287,E,4,07,2.8,37.356,M,-12.684,M,1.0,0000*56
$GPGGA,123350.00,3030.67616590,N,11424.10693442,E,4,07,2.8,37.364,M,-12.684,M,1.0,0000*5D
$GPGGA,123351.00,3030.67615782,N,11424.10693425,E,4,07,2.8,37.351,M,-12.684,M,1.0,0000*59
$GPGGA,123352.00,3030.67616328,N,11424.10693413,E,4,07,2.8,37.356,M,-12.684,M,1.0,0000*5F
$GPGGA,123353.00,3030.67615788,N,11424.10693688,E,4,07,2.8,37.356,M,-12.684,M,1.0,0000*53
$GPGGA,123354.00,3030.67615665,N,11424.10693310,E,4,07,2.8,37.339,M,-12.684,M,1.0,0000*5B
$GPGGA,123355.00,3030.67616177,N,11424.10693551,E,4,07,2.8,37.353,M,-12.684,M,1.0,0000*52
$GPGGA,123356.00,3030.67615848,N,11424.10693329,E,4,07,2.8,37.353,M,-12.684,M,1.0,0000*5E
$GPGGA,123357.00,3030.67616382,N,11424.10693655,E,4,08,2.8,37.359,M,-12.684,M,1.0,0000*5A
$GPGGA,123358.00,3030.67616276,N,11424.10692936,E,4,07,2.8,37.351,M,-12.684,M,1.0,0000*53
$GPGGA,123359.00,3030.67616095,N,11424.10693279,E,4,07,2.8,37.353,M,-12.684,M,1.0,0000*5E
$GPGGA,123400.00,3030.67617087,N,11424.10693381,E,4,07,2.8,37.371,M,-12.684,M,1.0,0000*51
$GPGGA,123401.00,3030.67616356,N,11424.10693592,E,4,07,2.8,37.352,M,-12.684,M,1.0,0000*5B
$GPGGA,123402.00,3030.67616459,N,11424.10693482,E,4,07,2.8,37.360,M,-12.684,M,1.0,0000*51
$GPGGA,123403.00,3030.67616049,N,11424.10693201,E,4,07,2.8,37.359,M,-12.684,M,1.0,0000*52
$GPGGA,123404.00,3030.67616149,N,11424.10693279,E,4,07,2.8,37.349,M,-12.684,M,1.0,0000*5A
$GPGGA,123405.00,3030.67616697,N,11424.10693703,E,4,07,2.8,37.340,M,-12.684,M,1.0,0000*5E
$GPGGA,123406.00,3030.67616285,N,11424.10693616,E,4,07,2.8,37.351,M,-12.684,M,1.0,0000*5F
$GPGGA,123407.00,3030.67616990,N,11424.10693362,E,4,07,2.8,37.363,M,-12.684,M,1.0,0000*56
$GPGGA,123408.00,3030.67616297,N,11424.10693513,E,4,07,2.8,37.350,M,-12.684,M,1.0,0000*55
$GPGGA,123409.00,3030.67617022,N,11424.10693262,E,4,07,2.8,37.361,M,-12.684,M,1.0,0000*5A
$GPGGA,123410.00,3030.67617092,N,11424.10693144,E,4,07,2.8,37.359,M,-12.684,M,1.0,0000*55
$GPGGA,123411.00,3030.67616980,N,11424.10693367,E,4,07,2.8,37.359,M,-12.684,M,1.0,0000*5C
$GPGGA,123412.00,3030.67616503,N,11424.10693340,E,4,07,2.8,37.350,M,-12.684,M,1.0,0000*54
$GPGGA,123413.00,3030.67617138,N,11424.10692916,E,4,08,2.8,37.369,M,-12.684,M,1.0,0000*55
$GPGGA,123414.00,3030.67617935,N,11424.10692941,E,4,08,2.8,37.361,M,-12.684,M,1.0,0000*5D
$GPGGA,123415.00,3030.67617242,N,11424.10693111,E,4,08,2.8,37.336,M,-12.684,M,1.0,0000*59
$GPGGA,123416.00,3030.67618198,N,11424.10692699,E,4,07,2.8,37.348,M,-12.684,M,1.0,0000*51
$GPGGA,123417.00,3030.67617347,N,11424.10693343,E,4,07,2.8,37.363,M,-12.684,M,1.0,0000*55
$GPGGA,123418.00,3030.67617219,N,11424.10693179,E,4,07,2.8,37.373,M,-12.684,M,1.0,0000*5A
$GPGGA,123419.00,3030.67617518,N,11424.10693316,E,4,07,2.8,37.353,M,-12.684,M,1.0,0000*54
$GPGGA,123420.00,3030.67617418,N,11424.10693282,E,4,07,2.8,37.359,M,-12.684,M,1.0,0000*59
$GPGGA,123421.00,3030.67616807,N,11424.10693401,E,4,07,2.8,37.354,M,-12.684,M,1.0,0000*5B
$GPGGA,123422.00,3030.67617480,N,11424.10693118,E,4,07,2.8,37.362,M,-12.684,M,1.0,0000*52
$GPGGA,123423.00,3030.67616673,N,11424.10693379,E,4,07,2.8,37.352,M,-12.684,M,1.0,0000*5A
$GPGGA,123424.00,3030.67617459,N,11424.10693203,E,4,07,2.8,37.358,M,-12.684,M,1.0,0000*50
$GPGGA,123425.00,3030.67617721,N,11424.10693318,E,4,07,2.8,37.362,M,-12.684,M,1.0,0000*5F
$GPGGA,123426.00,3030.67617113,N,11424.10693270,E,4,07,2.8,37.354,M,-12.684,M,1.0,0000*51
$GPGGA,123427.00,3030.67616802,N,11424.10693444,E,4,07,2.8,37.366,M,-12.684,M,1.0,0000*58
$GPGGA,123428.00,3030.67617403,N,11424.10693149,E,4,07,2.8,37.369,M,-12.684,M,1.0,0000*5C
$GPGGA,123429.00,3030.67618059,N,11424.10693223,E,4,07,2.8,37.366,M,-12.684,M,1.0,0000*59
$GPGGA,123430.00,3030.67616351,N,11424.10693239,E,4,07,2.8,37.350,M,-12.684,M,1.0,0000*5A
$GPGGA,123431.00,3030.67617144,N,11424.10693085,E,4,07,2.8,37.358,M,-12.684,M,1.0,0000*51
$GPGGA,123432.00,3030.67616420,N,11424.10693507,E,4,07,2.8,37.343,M,-12.684,M,1.0,0000*51
$GPGGA,123433.00,3030.67617197,N,11424.10693455,E,4,07,2.8,37.358,M,-12.684,M,1.0,0000*54
$GPGGA,123434.00,3030.67617009,N,11424.10693690,E,4,07,2.8,37.351,M,-12.684,M,2.0,0000*54
$GPGGA,123435.00,3030.67616971,N,11424.10693388,E,4,07,2.8,37.348,M,-12.684,M,2.0,0000*56
$GPGGA,123436.00,3030.67616801,N,11424.10693454,E,4,07,2.8,37.348,M,-12.684,M,2.0,0000*55
$GPGGA,123437.00,3030.67617547,N,11424.10693475,E,4,07,2.8,37.364,M,-12.684,M,1.0,0000*54
$GPGGA,123438.00,3030.67617329,N,11424.10693134,E,4,07,2.8,37.357,M,-12.684,M,1.0,0000*55
$GPGGA,123439.00,3030.67616955,N,11424.10692976,E,4,07,2.8,37.342,M,-12.684,M,1.0,0000*5F
$GPGGA,123440.00,3030.67617046,N,11424.10693097,E,4,07,2.8,37.350,M,-12.684,M,1.0,0000*5F
$GPGGA,123441.00,3030.67618381,N,11424.10693074,E,4,07,2.8,37.370,M,-12.684,M,1.0,0000*56
$GPGGA,123442.00,3030.67617500,N,11424.10693091,E,4,07,2.8,37.348,M,-12.684,M,1.0,0000*55
$GPGGA,123443.00,3030.67617438,N,11424.10693522,E,4,07,2.8,37.347,M,-12.684,M,1.0,0000*5C
$GPGGA,123444.00,3030.67616386,N,11424.10693406,E,4,07,2.8,37.343,M,-12.684,M,1.0,0000*5B
$GPGGA,123445.00,3030.67617420,N,11424.10693186,E,4,07,2.8,37.344,M,-12.684,M,1.0,0000*5A
$GPGGA,123446.00,3030.67617423,N,11424.10693169,E,4,07,2.8,37.363,M,-12.684,M,1.0,0000*5E
$GPGGA,123447.00,3030.67616499,N,11424.10693259,E,4,08,2.8,37.341,M,-12.684,M,1.0,0000*50
$GPGGA,123448.00,3030.67617990,N,11424.10693185,E,4,07,2.8,37.363,M,-12.684,M,1.0,0000*57
$GPGGA,123449.00,3030.67617284,N,11424.10693061,E,4,07,2.8,37.354,M,-12.684,M,1.0,0000*57
$GPGGA,123450.00,3030.67617924,N,11424.10693271,E,4,07,2.8,37.351,M,-12.684,M,1.0,0000*58
$GPGGA,123451.00,3030.67617249,N,11424.10693274,E,4,07,2.8,37.347,M,-12.684,M,1.0,0000*5B
$GPGGA,123452.00,3030.67617895,N,11424.10692995,E,4,07,2.8,37.362,M,-12.684,M,1.0,0000*51
$GPGGA,123453.00,3030.67617784,N,11424.10693271,E,4,07,2.8,37.350,M,-12.684,M,1.0,0000*5E
$GPGGA,123454.00,3030.67618256,N,11424.10692976,E,4,07,2.8,37.355,M,-12.684,M,1.0,0000*54
$GPGGA,123455.00,3030.67617926,N,11424.10693398,E,4,07,2.8,37.356,M,-12.684,M,1.0,0000*5E
$GPGGA,123456.00,3030.67618440,N,11424.10692924,E,4,07,2.8,37.359,M,-12.684,M,1.0,0000*5C
$GPGGA,123457.00,3030.67617992,N,11424.10693086,E,4,07,2.8,37.352,M,-12.684,M,1.0,0000*5B
$GPGGA,123458.00,3030.67617685,N,11424.10692942,E,4,07,2.8,37.366,M,-12.684,M,1.0,0000*5A
$GPGGA,123459.00,3030.67618338,N,11424.10693178,E,4,07,2.8,37.359,M,-12.684,M,1.0,0000*5B
$GPGGA,123500.00,3030.67618880,N,11424.10692972,E,4,07,2.8,37.374,M,-12.684,M,1.0,0000*52
$GPGGA,123501.00,3030.67617727,N,11424.10692884,E,4,07,2.8,37.355,M,-12.684,M,1.0,0000*55
$GPGGA,123502.00,3030.67618251,N,11424.10692991,E,4,07,2.8,37.354,M,-12.684,M,1.0,0000*59
$GPGGA,123503.00,3030.67618991,N,11424.10693244,E,4,08,2.8,37.371,M,-12.684,M,1.0,0000*55
$GPGGA,123504.00,3030.67618484,N,11424.10693114,E,4,08,2.8,37.358,M,-12.684,M,1.0,0000*56
$GPGGA,123505.00,3030.67618734,N,11424.10693134,E,4,08,2.8,37.352,M,-12.684,M,1.0,0000*57
$GPGGA,123506.00,3030.67618691,N,11424.10693144,E,4,08,2.8,37.361,M,-12.684,M,1.0,0000*5D
$GPGGA,123507.00,3030.67619105,N,11424.10693051,E,4,07,2.8,37.369,M,-12.684,M,1.0,0000*55
$GPGGA,123508.00,3030.67619040,N,11424.10693130,E,4,07,2.8,37.370,M,-12.684,M,1.0,0000*54
$GPGGA,123509.00,3030.67619278,N,11424.10693233,E,4,07,2.8,37.374,M,-12.684,M,1.0,0000*58
$GPGGA,123510.00,3030.67618891,N,11424.10693088,E,4,07,2.8,37.363,M,-12.684,M,1.0,0000*58
$GPGGA,123511.00,3030.67619542,N,11424.10693212,E,4,07,2.8,37.361,M,-12.684,M,1.0,0000*58
$GPGGA,123512.00,3030.67618458,N,11424.10693431,E,4,07,2.8,37.355,M,-12.684,M,1.0,0000*50
$GPGGA,123513.00,3030.67618615,N,11424.10693028,E,4,07,2.8,37.354,M,-12.684,M,1.0,0000*57
$GPGGA,123514.00,3030.67618558,N,11424.10693207,E,4,07,2.8,37.351,M,-12.684,M,1.0,0000*50
$GPGGA,123515.00,3030.67619638,N,11424.10693437,E,4,07,2.8,37.351,M,-12.684,M,1.0,0000*50
$GPGGA,123516.00,3030.67619664,N,11424.10693066,E,4,07,2.8,37.355,M,-12.684,M,1.0,0000*5E
$GPGGA,123517.00,3030.67619409,N,11424.10693154,E,4,08,2.8,37.365,M,-12.684,M,1.0,0000*5A
$GPGGA,123518.00,3030.67619879,N,11424.10693211,E,4,08,2.8,37.367,M,-12.684,M,1.0,0000*5E
$GPGGA,123519.00,3030.67619132,N,11424.10693190,E,4,07,2.8,37.356,M,-12.684,M,1.0,0000*5E
$GPGGA,123520.00,3030.67619677,N,11424.10693144,E,4,07,2.8,37.354,M,-12.684,M,1.0,0000*59
$GPGGA,123521.00,3030.67619733,N,11424.10693166,E,4,07,2.8,37.359,M,-12.684,M,1.0,0000*54
$GPGGA,123522.00,3030.67620163,N,11424.10693224,E,4,07,2.8,37.372,M,-12.684,M,1.0,0000*52
$GPGGA,123523.00,3030.67619177,N,11424.10693404,E,4,07,2.8,37.352,M,-12.684,M,1.0,0000*5A
$GPGGA,123524.00,3030.67619260,N,11424.10693176,E,4,07,2.8,37.353,M,-12.684,M,1.0,0000*59
$GPGGA,123525.00,3030.67619329,N,11424.10693142,E,4,07,2.8,37.356,M,-12.684,M,1.0,0000*56
$GPGGA,123526.00,3030.67619909,N,11424.10693369,E,4,07,2.8,37.359,M,-12.684,M,1.0,0000*59
$GPGGA,123527.00,3030.67619539,N,11424.10693343,E,4,07,2.8,37.363,M,-12.684,M,1.0,0000*56
$GPGGA,123528.00,3030.67619444,N,11424.10693344,E,4,07,2.8,37.359,M,-12.684,M,1.0,0000*5C
$GPGGA,123529.00,3030.67619222,N,11424.10693426,E,4,07,2.8,37.348,M,-12.684,M,1.0,0000*58
$GPGGA,123530.00,3030.67619423,N,11424.10693208,E,4,07,2.8,37.357,M,-12.684,M,1.0,0000*53
$GPGGA,123531.00,3030.67619623,N,11424.10693478,E,4,07,2.8,37.362,M,-12.684,M,1.0,0000*57
$GPGGA,123532.00,3030.67619267,N,11424.10693267,E,4,07,2.8,37.351,M,-12.684,M,1.0,0000*58
$GPGGA,123533.00,3030.67619307,N,11424.10693343,E,4,07,2.8,37.358,M,-12.684,M,2.0,0000*53
$GPGGA,123534.00,3030.67619740,N,11424.10693784,E,4,07,2.8,37.356,M,-12.684,M,1.0,0000*51
$GPGGA,123535.00,3030.67620200,N,11424.10693434,E,4,07,2.8,37.369,M,-12.684,M,1.0,0000*5F
$GPGGA,123536.00,3030.67619294,N,11424.10693418,E,4,07,2.8,37.354,M,-12.684,M,1.0,0000*5B
$GPGGA,123537.00,3030.67619670,N,11424.10693002,E,4,07,2.8,37.362,M,-12.684,M,1.0,0000*5E
$GPGGA,123538.00,3030.67619915,N,11424.10693140,E,4,07,2.8,37.369,M,-12.684,M,1.0,0000*51
$GPGGA,123539.00,3030.67619924,N,11424.10693376,E,4,07,2.8,37.367,M,-12.684,M,1.0,0000*5B
$GPGGA,123540.00,3030.67619576,N,11424.10693494,E,4,07,2.8,37.358,M,-12.684,M,1.0,0000*59
$GPGGA,123541.00,3030.67620056,N,11424.10693163,E,4,07,2.8,37.365,M,-12.684,M,1.0,0000*56
$GPGGA,123542.00,3030.67619427,N,11424.10693433,E,4,07,2.8,37.361,M,-12.684,M,1.0,0000*59
$GPGGA,123543.00,3030.67619321,N,11424.10693351,E,4,07,2.8,37.357,M,-12.684,M,1.0,0000*5F
$GPGGA,123544.00,3030.67619806,N,11424.10693509,E,4,07,2.8,37.368,M,-12.684,M,1.0,0000*51
$GPGGA,123545.00,3030.67619833,N,11424.10693310,E,4,07,2.8,37.369,M,-12.684,M,1.0,0000*59
$GPGGA,123546.00,3030.67619498,N,11424.10693402,E,4,07,2.8,37.372,M,-12.684,M,1.0,0000*59
$GPGGA,123547.00,3030.67619911,N,11424.10693712,E,4,07,2.8,37.356,M,-12.684,M,1.0,0000*50
$GPGGA,123548.00,3030.67619181,N,11424.10693601,E,4,07,2.8,37.357,M,-12.684,M,1.0,0000*5C
$GPGGA,123549.00,3030.67619717,N,11424.10693571,E,4,07,2.8,37.371,M,-12.684,M,1.0,0000*54
$GPGGA,123550.00,3030.67619544,N,11424.10693279,E,4,07,2.8,37.370,M,-12.684,M,1.0,0000*56
$GPGGA,123551.00,3030.67619483,N,11424.10693818,E,4,07,2.8,37.363,M,-12.684,M,1.0,0000*52
$GPGGA,123552.00,3030.67619856,N,11424.10693666,E,4,07,2.8,37.364,M,-12.684,M,1.0,0000*55
$GPGGA,123553.00,3030.67619974,N,11424.10693625,E,4,07,2.8,37.379,M,-12.684,M,1.0,0000*5E
$GPGGA,123554.00,3030.67619954,N,11424.10693558,E,4,07,2.8,37.371,M,-12.684,M,1.0,0000*5A
$GPGGA,123555.00,3030.67619545,N,11424.10693566,E,4,07,2.8,37.370,M,-12.684,M,1.0,0000*5B
$GPGGA,123556.00,3030.67618814,N,11424.10693386,E,4,07,2.8,37.358,M,-12.684,M,1.0,0000*52
$GPGGA,123557.00,3030.67619782,N,11424.10693795,E,4,07,2.8,37.383,M,-12.684,M,1.0,0000*52
$GPGGA,123558.00,3030.67619911,N,11424.10693300,E,4,07,2.8,37.374,M,-12.684,M,1.0,0000*59
$GPGGA,123559.00,3030.67619588,N,11424.10693434,E,4,07,2.8,37.377,M,-12.684,M,1.0,0000*57
$GPGGA,123600.00,3030.67619512,N,11424.10693505,E,4,07,2.8,37.370,M,-12.684,M,1.0,0000*5F
$GPGGA,123601.00,3030.67619080,N,11424.10693391,E,4,08,2.8,37.362,M,-12.684,M,1.0,0000*57
$GPGGA,123602.00,3030.67619576,N,11424.10693281,E,4,07,2.8,37.377,M,-12.684,M,1.0,0000*53
$GPGGA,123603.00,3030.67621004,N,11424.10693262,E,4,07,2.8,37.384,M,-12.684,M,1.0,0000*58
$GPGGA,123604.00,3030.67619682,N,11424.10693418,E,4,07,2.8,37.371,M,-12.684,M,1.0,0000*5D
$GPGGA,123605.00,3030.67620045,N,11424.10693490,E,4,08,2.8,37.387,M,-12.684,M,1.0,0000*5D
$GPGGA,123606.00,3030.67618886,N,11424.10693529,E,4,07,2.8,37.363,M,-12.684,M,1.0,0000*54
$GPGGA,123607.00,3030.67619853,N,11424.10693205,E,4,07,2.8,37.360,M,-12.684,M,1.0,0000*56
$GPGGA,123608.00,3030.67620156,N,11424.10693321,E,4,07,2.8,37.377,M,-12.684,M,1.0,0000*5E
$GPGGA,123609.00,3030.67619940,N,11424.10693493,E,4,08,2.8,37.372,M,-12.684,M,1.0,0000*5E
$GPGGA,123610.00,3030.67619807,N,11424.10693549,E,4,08,2.8,37.373,M,-12.684,M,1.0,0000*53
$GPGGA,123611.00,3030.67619879,N,11424.10693397,E,4,07,2.8,37.384,M,-12.684,M,1.0,0000*59
$GPGGA,123612.00,3030.67619401,N,11424.10693392,E,4,08,2.8,37.374,M,-12.684,M,1.0,0000*5C
$GPGGA,123613.00,3030.67619637,N,11424.10693090,E,4,08,2.8,37.374,M,-12.684,M,1.0,0000*5B
$GPGGA,123614.00,3030.67620173,N,11424.10693679,E,4,08,2.8,37.391,M,-12.684,M,1.0,0000*5B
$GPGGA,123615.00,3030.67619628,N,11424.10693454,E,4,08,2.8,37.385,M,-12.684,M,1.0,0000*51
$GPGGA,123616.00,3030.67619951,N,11424.10693337,E,4,07,2.8,37.381,M,-12.684,M,1.0,0000*5A
$GPGGA,123617.00,3030.67619474,N,11424.10693436,E,4,08,2.8,37.383,M,-12.684,M,1.0,0000*5A
$GPGGA,123618.00,3030.67620009,N,11424.10693134,E,4,08,2.8,37.393,M,-12.684,M,1.0,0000*57
$GPGGA,123619.00,3030.67619667,N,11424.10693144,E,4,08,2.8,37.389,M,-12.684,M,1.0,0000*5E
$GPGGA,123620.00,3030.67619251,N,11424.10693276,E,4,07,2.8,37.372,M,-12.684,M,1.0,0000*5C
$GPGGA,123621.00,3030.67620340,N,11424.10693612,E,4,07,2.8,37.388,M,-12.684,M,1.0,0000*55
$GPGGA,123622.00,3030.67619827,N,11424.10693733,E,4,07,2.8,37.375,M,-12.684,M,1.0,0000*56
$GPGGA,123623.00,3030.67620045,N,11424.10693588,E,4,07,2.8,37.388,M,-12.684,M,1.0,0000*51
$GPGGA,123624.00,3030.67620272,N,11424.10693548,E,4,07,2.8,37.389,M,-12.684,M,1.0,0000*5D
$GPGGA,123625.00,3030.67619958,N,11424.10693387,E,4,07,2.8,37.385,M,-12.684,M,1.0,0000*5C
$GPGGA,123626.00,3030.67619735,N,11424.10693350,E,4,07,2.8,37.382,M,-12.684,M,1.0,0000*57
$GPGGA,123627.00,3030.67619865,N,11424.10693528,E,4,07,2.8,37.373,M,-12.684,M,1.0,0000*5B
$GPGGA,123628.00,3030.67619418,N,11424.10693393,E,4,07,2.8,37.365,M,-12.684,M,1.0,0000*53
$GPGGA,123629.00,3030.67619539,N,11424.10693408,E,4,07,2.8,37.364,M,-12.684,M,1.0,0000*54
$GPGGA,123630.00,3030.67618790,N,11424.10693456,E,4,07,2.8,37.376,M,-12.684,M,1.0,0000*54
$GPGGA,123631.00,3030.67619657,N,11424.10693601,E,4,07,2.8,37.378,M,-12.684,M,1.0,0000*50
$GPGGA,123632.00,3030.67619968,N,11424.10693362,E,4,07,2.8,37.382,M,-12.684,M,1.0,0000*55
$GPGGA,123633.00,3030.67620060,N,11424.10693273,E,4,07,2.8,37.383,M,-12.684,M,1.0,0000*5F
$GPGGA,123634.00,3030.67619302,N,11424.10693296,E,4,07,2.8,37.379,M,-12.684,M,1.0,0000*5B
$GPGGA,123635.00,3030.67619532,N,11424.10693394,E,4,07,2.9,37.385,M,-12.684,M,2.0,0000*5D
$GPGGA,123636.00,3030.67619682,N,11424.10693285,E,4,07,2.9,37.374,M,-12.684,M,2.0,0000*59
$GPGGA,123637.00,3030.67619118,N,11424.10693428,E,4,07,2.9,37.365,M,-12.684,M,2.0,0000*5D
$GPGGA,123638.00,3030.67619081,N,11424.10693328,E,4,07,2.9,37.377,M,-12.684,M,1.0,0000*54
$GPGGA,123639.00,3030.67619488,N,11424.10693129,E,4,07,2.9,37.369,M,-12.684,M,1.0,0000*54
$GPGGA,123640.00,3030.67618707,N,11424.10693363,E,4,07,2.9,37.364,M,-12.684,M,1.0,0000*5E
$GPGGA,123641.00,3030.67619705,N,11424.10693173,E,4,07,2.9,37.383,M,-12.684,M,1.0,0000*56
$GPGGA,123642.00,3030.67619719,N,11424.10693227,E,4,07,2.9,37.371,M,-12.684,M,1.0,0000*57
$GPGGA,123643.00,3030.67619253,N,11424.10693150,E,4,07,2.9,37.382,M,-12.684,M,1.0,0000*52
$GPGGA,123644.00,3030.67618861,N,11424.10693148,E,4,07,2.9,37.367,M,-12.684,M,1.0,0000*5D
$GPGGA,123645.00,3030.67619102,N,11424.10693258,E,4,07,2.9,37.376,M,-12.684,M,1.0,0000*53
$GPGGA,123646.00,3030.67619468,N,11424.10693336,E,4,07,2.9,37.375,M,-12.684,M,1.0,0000*53
$GPGGA,123647.00,3030.67619375,N,11424.10693196,E,4,07,2.9,37.369,M,-12.684,M,1.0,0000*5C
$GPGGA,123648.00,3030.67618264,N,11424.10693171,E,4,07,2.9,37.361,M,-12.684,M,1.0,0000*52
$GPGGA,123649.00,3030.67619225,N,11424.10693191,E,4,07,2.9,37.392,M,-12.684,M,1.0,0000*55
$GPGGA,123650.00,3030.67619200,N,11424.10693040,E,4,07,2.9,37.369,M,-12.684,M,1.0,0000*53
$GPGGA,123651.00,3030.67618599,N,11424.10693045,E,4,07,2.9,37.368,M,-12.684,M,1.0,0000*50
$GPGGA,123652.00,3030.67618336,N,11424.10693122,E,4,07,2.9,37.365,M,-12.684,M,1.0,0000*5D
$GPGGA,123653.00,3030.67618695,N,11424.10693294,E,4,07,2.9,37.369,M,-12.684,M,1.0,0000*52
$GPGGA,123654.00,3030.67618598,N,11424.10693237,E,4,07,2.9,37.361,M,-12.684,M,1.0,0000*5A
$GPGGA,123655.00,3030.67618415,N,11424.10693044,E,4,07,2.9,37.362,M,-12.684,M,1.0,0000*5A
$GPGGA,123656.00,3030.67618558,N,11424.10693240,E,4,07,2.9,37.364,M,-12.684,M,1.0,0000*51
$GPGGA,123657.00,3030.67618402,N,11424.10693084,E,4,07,2.9,37.356,M,-12.684,M,1.0,0000*55
$GPGGA,123658.00,3030.67618376,N,11424.10692816,E,4,07,2.9,37.365,M,-12.684,M,1.0,0000*5C
$GPGGA,123659.00,3030.67618555,N,11424.10692898,E,4,07,2.9,37.363,M,-12.684,M,1.0,0000*5A
$GPGGA,123700.00,3030.67618995,N,11424.10693034,E,4,07,2.9,37.372,M,-12.684,M,1.0,0000*58
$GPGGA,123701.00,3030.67618578,N,11424.10693019,E,4,07,2.9,37.372,M,-12.684,M,1.0,0000*59
$GPGGA,123702.00,3030.67619184,N,11424.10693071,E,4,07,2.9,37.374,M,-12.684,M,1.0,0000*54
$GPGGA,123703.00,3030.67618688,N,11424.10692963,E,4,07,2.9,37.363,M,-12.684,M,1.0,0000*52
$GPGGA,123704.00,3030.67618979,N,11424.10692782,E,4,07,2.9,37.369,M,-12.684,M,1.0,0000*5F
$GPGGA,123705.00,3030.67618902,N,11424.10692785,E,4,07,2.9,37.371,M,-12.684,M,1.0,0000*5C
$GPGGA,123706.00,3030.67619925,N,11424.10692903,E,4,07,2.9,37.374,M,-12.684,M,1.0,0000*5E
$GPGGA,123707.00,3030.67619564,N,11424.10692870,E,4,07,2.9,37.379,M,-12.684,M,1.0,0000*5E
$GPGGA,123708.00,3030.67618611,N,11424.10692827,E,4,07,2.9,37.361,M,-12.684,M,1.0,0000*5A
$GPGGA,123709.00,3030.67619437,N,11424.10692642,E,4,07,2.9,37.366,M,-12.684,M,1.0,0000*56
$GPGGA,123710.00,3030.67619310,N,11424.10692826,E,4,07,2.9,37.378,M,-12.684,M,1.0,0000*5F
$GPGGA,123711.00,3030.67619356,N,11424.10692599,E,4,07,2.9,37.360,M,-12.684,M,1.0,0000*5C
$GPGGA,123712.00,3030.67619295,N,11424.10692858,E,4,07,2.8,37.382,M,-12.684,M,1.0,0000*5C
$GPGGA,123713.00,3030.67618866,N,11424.10692626,E,4,07,2.8,37.363,M,-12.684,M,1.0,0000*52
$GPGGA,123714.00,3030.67619295,N,11424.10692849,E,4,07,2.8,37.365,M,-12.684,M,1.0,0000*53
$GPGGA,123715.00,3030.67618939,N,11424.10692737,E,4,07,2.8,37.355,M,-12.684,M,1.0,0000*5B
$GPGGA,123716.00,3030.67619052,N,11424.10693006,E,4,07,2.8,37.359,M,-12.684,M,1.0,0000*55
$GPGGA,123717.00,3030.67618742,N,11424.10692641,E,4,07,2.8,37.349,M,-12.684,M,1.0,0000*56
$GPGGA,123718.00,3030.67618528,N,11424.10692912,E,4,07,2.8,37.358,M,-12.684,M,1.0,0000*5E
$GPGGA,123719.00,3030.67618973,N,11424.10692915,E,4,07,2.8,37.366,M,-12.684,M,1.0,0000*57
$GPGGA,123720.00,3030.67618430,N,11424.10692916,E,4,07,2.8,37.355,M,-12.684,M,1.0,0000*54
$GPGGA,123721.00,3030.67619623,N,11424.10692714,E,4,07,2.8,37.366,M,-12.684,M,1.0,0000*58
$GPGGA,123722.00,3030.67618445,N,11424.10692570,E,4,07,2.8,37.353,M,-12.684,M,1.0,0000*5E
$GPGGA,123723.00,3030.67619601,N,11424.10692498,E,4,07,2.8,37.362,M,-12.684,M,1.0,0000*59
$GPGGA,123724.00,3030.67618650,N,11424.10692397,E,4,07,2.8,37.355,M,-12.684,M,1.0,0000*57
$GPGGA,123725.00,3030.67618553,N,11424.10692436,E,4,07,2.8,37.349,M,-12.684,M,1.0,0000*57
$GPGGA,123726.00,3030.67618345,N,11424.10692453,E,4,07,2.8,37.354,M,-12.684,M,1.0,0000*5A
$GPGGA,123727.00,3030.67619168,N,11424.10692520,E,4,07,2.9,37.370,M,-12.684,M,1.0,0000*55
$GPGGA,123728.00,3030.67619002,N,11424.10692570,E,4,07,2.9,37.354,M,-12.684,M,1.0,0000*54
$GPGGA,123729.00,3030.67618965,N,11424.10692456,E,4,07,3.8,37.353,M,-12.684,M,1.0,0000*5E
$GPGGA,123730.00,3030.67619066,N,11424.10692573,E,5,07,3.8,37.364,M,-12.684,M,1.0,0000*5E
$GPGGA,123731.00,3030.67619081,N,11424.10692728,E,4,07,3.8,37.362,M,-12.684,M,1.0,0000*5D
$GPGGA,123732.00,3030.67619639,N,11424.10692781,E,4,07,3.8,37.370,M,-12.684,M,1.0,0000*5B
$GPGGA,123733.00,3030.67620065,N,11424.10692736,E,4,07,3.8,37.386,M,-12.684,M,1.0,0000*5A
$GPGGA,123734.00,3030.67620027,N,11424.10692656,E,4,07,3.8,37.383,M,-12.684,M,1.0,0000*59
