$GPGGA,120358.00,3030.70807210,N,11424.40787390,E,2,27,0.6,39.238,M,-12.666,M,6.0,0137*58
$GPGGA,120359.00,3030.70807527,N,11424.40787396,E,2,28,0.6,39.195,M,-12.666,M,7.0,0137*56
$GPGGA,120400.00,3030.70807488,N,11424.40787203,E,2,28,0.6,39.144,M,-12.666,M,7.0,0137*58
$GPGGA,120401.00,3030.70807314,N,11424.40787099,E,2,28,0.6,39.096,M,-12.666,M,3.0,0137*50
$GPGGA,120402.00,3030.70807000,N,11424.40786886,E,2,27,0.6,39.038,M,-12.666,M,4.0,0137*5E
$GPGGA,120403.00,3030.70806600,N,11424.40786389,E,2,27,0.6,38.988,M,-12.666,M,5.0,0137*5E
$GPGGA,120404.00,3030.70806100,N,11424.40785821,E,2,27,0.6,38.944,M,-12.666,M,6.0,0137*57
$GPGGA,120405.00,3030.70805568,N,11424.40785289,E,2,28,0.6,38.899,M,-12.666,M,7.0,0137*58
$GPGGA,120406.00,3030.70805055,N,11424.40784733,E,2,28,0.6,38.853,M,-12.666,M,7.0,0137*53
$GPGGA,120407.00,3030.70804613,N,11424.40784133,E,2,29,0.5,38.803,M,-12.666,M,3.0,0137*52
$GPGGA,120408.00,3030.70804281,N,11424.40783597,E,2,29,0.5,38.760,M,-12.666,M,4.0,0137*52
$GPGGA,120409.00,3030.70804160,N,11424.40783280,E,2,29,0.5,38.715,M,-12.666,M,5.0,0137*5D
$GPGGA,120410.00,3030.70803763,N,11424.40782481,E,2,29,0.5,38.665,M,-12.666,M,6.0,0137*54
$GPGGA,120411.00,3030.70803239,N,11424.40781924,E,2,28,0.5,38.626,M,-12.666,M,7.0,0137*59
$GPGGA,120412.00,3030.70802887,N,11424.40781196,E,2,28,0.6,38.582,M,-12.666,M,7.0,0137*5B
$GPGGA,120413.00,3030.70802576,N,11424.40780833,E,2,27,0.6,38.524,M,-12.666,M,3.0,0137*59
$GPGGA,120414.00,3030.70802754,N,11424.40780929,E,2,27,0.6,38.480,M,-12.666,M,4.0,0137*5E
$GPGGA,120415.00,3030.70802309,N,11424.40779983,E,2,26,0.6,38.419,M,-12.666,M,5.0,0137*55
$GPGGA,120416.00,3030.70800023,N,11424.40775704,E,2,26,0.6,38.442,M,-12.666,M,6.0,0137*5F
$GPGGA,120417.00,3030.70798243,N,11424.40771394,E,2,26,0.6,38.475,M,-12.666,M,7.0,0137*58
$GPGGA,120418.00,3030.70796536,N,11424.40767479,E,2,26,0.6,38.514,M,-12.666,M,7.0,0137*59
$GPGGA,120419.00,3030.70794237,N,11424.40762885,E,2,25,0.6,38.565,M,-12.666,M,3.0,0137*57
$GPGGA,120420.00,3030.70791931,N,11424.40758191,E,2,25,0.6,38.615,M,-12.666,M,4.0,0137*53
$GPGGA,120421.00,3030.70789703,N,11424.40753833,E,2,25,0.6,38.655,M,-12.666,M,5.0,0137*5B
$GPGGA,120422.00,3030.70787977,N,11424.40750069,E,2,25,0.6,38.679,M,-12.666,M,6.0,0137*52
$GPGGA,120423.00,3030.70786501,N,11424.40746643,E,2,25,0.6,38.686,M,-12.666,M,7.0,0137*57
$GPGGA,120424.00,3030.70785118,N,11424.40743678,E,2,25,0.6,38.698,M,-12.666,M,7.0,0137*5D
$GPGGA,120425.00,3030.70783925,N,11424.40741025,E,2,26,0.6,38.707,M,-12.666,M,3.0,0137*50
$GPGGA,120426.00,3030.70783124,N,11424.40738835,E,2,26,0.6,38.700,M,-12.666,M,4.0,0137*5D
$GPGGA,120427.00,3030.70781946,N,11424.40736719,E,2,26,0.6,38.700,M,-12.666,M,5.0,0137*5C
$GPGGA,120428.00,3030.70781045,N,11424.40734820,E,2,26,0.6,38.702,M,-12.666,M,6.0,0137*5F
$GPGGA,120429.00,3030.70780555,N,11424.40733985,E,2,26,0.6,38.695,M,-12.666,M,7.0,0137*5C
$GPGGA,120430.00,3030.70780536,N,11424.40733752,E,2,26,0.6,38.671,M,-12.666,M,7.0,0137*5F
$GPGGA,120431.00,3030.70780469,N,11424.40733539,E,2,26,0.6,38.646,M,-12.666,M,3.0,0137*5A
$GPGGA,120432.00,3030.70780097,N,11424.40733335,E,2,26,0.6,38.632,M,-12.666,M,4.0,0137*52
$GPGGA,120433.00,3030.70779437,N,11424.40733075,E,2,26,0.6,38.628,M,-12.666,M,5.0,0137*56
$GPGGA,120434.00,3030.70778801,N,11424.40732853,E,2,26,0.6,38.596,M,-12.666,M,6.0,0137*51
$GPGGA,120435.00,3030.70778300,N,11424.40733081,E,2,26,0.6,38.567,M,-12.666,M,7.0,0137*53
$GPGGA,120436.00,3030.70778466,N,11424.40733796,E,2,26,0.6,38.529,M,-12.666,M,7.0,0137*5C
$GPGGA,120437.00,3030.70778671,N,11424.40734610,E,2,26,0.6,38.480,M,-12.666,M,3.0,0137*57
$GPGGA,120438.00,3030.70779088,N,11424.40735761,E,2,26,0.6,38.444,M,-12.666,M,4.0,0137*50
$GPGGA,120439.00,3030.70779251,N,11424.40736684,E,2,26,0.6,38.420,M,-12.666,M,5.0,0137*5D
$GPGGA,120440.00,3030.70780337,N,11424.40737733,E,2,26,0.6,38.383,M,-12.666,M,6.0,0137*55
$GPGGA,120441.00,3030.70781366,N,11424.40737582,E,2,26,0.6,38.306,M,-12.666,M,7.0,0137*55
$GPGGA,120442.00,3030.70783293,N,11424.40736529,E,2,26,0.6,38.177,M,-12.666,M,7.0,0137*5B
$GPGGA,120443.00,3030.70784632,N,11424.40736267,E,2,26,0.6,38.088,M,-12.666,M,3.0,0137*5A
$GPGGA,120444.00,3030.70786575,N,11424.40734786,E,2,26,0.6,37.955,M,-12.666,M,4.0,0137*56
$GPGGA,120445.00,3030.70788812,N,11424.40732838,E,2,26,0.6,37.807,M,-12.666,M,5.0,0137*5E
$GPGGA,120446.00,3030.70791276,N,11424.40730667,E,2,26,0.6,37.647,M,-12.666,M,6.0,0137*52
$GPGGA,120447.00,3030.70793561,N,11424.40728051,E,2,25,0.7,37.481,M,-12.666,M,7.0,0137*51
$GPGGA,120448.00,3030.70795841,N,11424.40725039,E,2,25,0.7,37.313,M,-12.666,M,2.0,0137*5D
$GPGGA,120449.00,3030.70798151,N,11424.40722172,E,2,25,0.7,37.157,M,-12.666,M,3.0,0137*53
$GPGGA,120450.00,3030.70800481,N,11424.40719147,E,2,25,0.7,36.992,M,-12.666,M,4.0,0137*54
$GPGGA,120451.00,3030.70802698,N,11424.40716054,E,2,24,0.7,36.831,M,-12.666,M,5.0,0137*59
$GPGGA,120452.00,3030.70805008,N,11424.40712840,E,2,24,0.7,36.666,M,-12.666,M,6.0,0137*54
$GPGGA,120453.00,3030.70807451,N,11424.40709629,E,2,24,0.7,36.489,M,-12.666,M,7.0,0137*56
$GPGGA,120454.00,3030.70809836,N,11424.40706449,E,2,24,0.7,36.316,M,-12.666,M,2.0,0137*5D
$GPGGA,120455.00,3030.70812248,N,11424.40703496,E,2,24,0.7,36.149,M,-12.666,M,3.0,0137*5B
$GPGGA,120456.00,3030.70814837,N,11424.40700511,E,2,23,0.7,35.970,M,-12.666,M,4.0,0137*50
$GPGGA,120457.00,3030.70816950,N,11424.40697965,E,2,22,0.8,35.818,M,-12.666,M,5.0,0137*53
$GPGGA,120458.00,3030.70818663,N,11424.40695684,E,2,22,0.8,35.681,M,-12.666,M,6.0,0137*52
$GPGGA,120459.00,3030.70820113,N,11424.40693047,E,2,22,0.8,35.530,M,-12.666,M,7.0,0137*5F
$GPGGA,120500.00,3030.70821764,N,11424.40690644,E,2,22,0.8,35.386,M,-12.666,M,2.0,0137*5D
$GPGGA,120501.00,3030.70823083,N,11424.40688294,E,2,22,0.8,35.242,M,-12.666,M,3.0,0137*58
$GPGGA,120502.00,3030.70824298,N,11424.40686273,E,2,22,0.8,35.109,M,-12.666,M,4.0,0137*58
$GPGGA,120503.00,3030.70825451,N,11424.40684589,E,2,22,0.8,34.992,M,-12.666,M,5.0,0137*51
$GPGGA,120504.00,3030.70826670,N,11424.40682925,E,2,22,0.8,34.871,M,-12.666,M,6.0,0137*57
$GPGGA,120505.00,3030.70827564,N,11424.40681047,E,2,22,0.8,34.750,M,-12.666,M,7.0,0137*52
$GPGGA,120506.00,3030.70827882,N,11424.40679135,E,2,22,0.8,34.619,M,-12.666,M,7.0,0137*5B
$GPGGA,120507.00,3030.70827840,N,11424.40676974,E,2,23,0.7,34.475,M,-12.666,M,3.0,0137*54
$GPGGA,120508.00,3030.70828034,N,11424.40675007,E,2,23,0.7,34.336,M,-12.666,M,4.0,0137*56
$GPGGA,120509.00,3030.70828166,N,11424.40673205,E,2,23,0.7,34.203,M,-12.666,M,5.0,0137*51
$GPGGA,120510.00,3030.70828329,N,11424.40671642,E,2,22,0.7,34.066,M,-12.666,M,6.0,0137*56
$GPGGA,120511.00,3030.70828516,N,11424.40670215,E,2,22,0.7,33.939,M,-12.666,M,7.0,0137*5F
$GPGGA,120512.00,3030.70829043,N,11424.40669218,E,2,22,0.7,33.805,M,-12.666,M,7.0,0137*53
$GPGGA,120513.00,3030.70829958,N,11424.40668588,E,2,22,0.7,33.657,M,-12.666,M,3.0,0137*53
$GPGGA,120514.00,3030.70831090,N,11424.40668345,E,2,23,0.7,33.511,M,-12.666,M,4.0,0137*50
$GPGGA,120515.00,3030.70832451,N,11424.40669019,E,2,24,0.7,33.355,M,-12.666,M,5.0,0137*50
$GPGGA,120516.00,3030.70833295,N,11424.40669882,E,2,24,0.7,33.230,M,-12.666,M,6.0,0137*57
$GPGGA,120517.00,3030.70833906,N,11424.40670489,E,2,24,0.7,33.114,M,-12.666,M,7.0,0137*5C
$GPGGA,120518.00,3030.70834199,N,11424.40670277,E,2,24,0.7,33.031,M,-12.666,M,7.0,0137*5B
$GPGGA,120519.00,3030.70834153,N,11424.40669872,E,2,24,0.7,32.965,M,-12.666,M,3.0,0137*56
$GPGGA,120520.00,3030.70834277,N,11424.40669441,E,2,24,0.7,32.917,M,-12.666,M,4.0,0137*57
$GPGGA,120521.00,3030.70834609,N,11424.40669099,E,2,24,0.7,32.875,M,-12.666,M,5.0,0137*5E
$GPGGA,120522.00,3030.70834737,N,11424.40668806,E,2,24,0.7,32.848,M,-12.666,M,6.0,0137*53
$GPGGA,120523.00,3030.70834861,N,11424.40668720,E,2,25,0.7,32.830,M,-12.666,M,7.0,0137*5A
$GPGGA,120524.00,3030.70835101,N,11424.40668626,E,2,25,0.7,32.802,M,-12.666,M,2.0,0137*50
$GPGGA,120525.00,3030.70835620,N,11424.40668890,E,2,25,0.7,32.762,M,-12.666,M,3.0,0137*5E
$GPGGA,120526.00,3030.70836385,N,11424.40669599,E,2,25,0.7,32.717,M,-12.666,M,4.0,0137*54
$GPGGA,120527.00,3030.70837206,N,11424.40670561,E,2,26,0.7,32.667,M,-12.666,M,5.0,0137*55
$GPGGA,120528.00,3030.70837840,N,11424.40671594,E,2,24,0.7,32.602,M,-12.666,M,6.0,0137*5B
$GPGGA,120529.00,3030.70838520,N,11424.40672277,E,2,24,0.7,32.552,M,-12.666,M,7.0,0137*50
$GPGGA,120530.00,3030.70839425,N,11424.40673358,E,2,24,0.7,32.479,M,-12.666,M,2.0,0137*5D
$GPGGA,120531.00,3030.70840405,N,11424.40674416,E,2,24,0.7,32.417,M,-12.666,M,3.0,0137*53
$GPGGA,120532.00,3030.70841165,N,11424.40675582,E,2,24,0.7,32.362,M,-12.666,M,4.0,0137*5D
$GPGGA,120533.00,3030.70842056,N,11424.40676589,E,2,24,0.7,32.305,M,-12.666,M,5.0,0137*56
$GPGGA,120534.00,3030.70842559,N,11424.40677559,E,2,24,0.7,32.264,M,-12.666,M,6.0,0137*52
$GPGGA,120535.00,3030.70842828,N,11424.40678047,E,2,24,0.7,32.204,M,-12.666,M,7.0,0137*5A
$GPGGA,120536.00,3030.70843527,N,11424.40679416,E,2,24,0.7,32.192,M,-12.666,M,2.0,0137*52
$GPGGA,120537.00,3030.70844360,N,11424.40680679,E,2,24,0.7,32.182,M,-12.666,M,3.0,0137*5C
$GPGGA,120538.00,3030.70845076,N,11424.40681618,E,2,24,0.7,32.178,M,-12.666,M,4.0,0137*52
$GPGGA,120539.00,3030.70845913,N,11424.40682403,E,2,24,0.7,32.176,M,-12.666,M,5.0,0137*5D
$GPGGA,120540.00,3030.70846457,N,11424.40683070,E,2,24,0.7,32.181,M,-12.666,M,6.0,0137*57
$GPGGA,120541.00,3030.70847137,N,11424.40683829,E,2,24,0.7,32.184,M,-12.666,M,7.0,0137*54
$GPGGA,120542.00,3030.70847789,N,11424.40684348,E,2,24,0.7,32.198,M,-12.666,M,2.0,0137*57
$GPGGA,120543.00,3030.70848263,N,11424.40684941,E,2,24,0.7,32.214,M,-12.666,M,3.0,0137*5D
$GPGGA,120544.00,3030.70848590,N,11424.40685478,E,2,24,0.7,32.240,M,-12.666,M,4.0,0137*51
$GPGGA,120545.00,3030.70849047,N,11424.40685784,E,2,25,0.7,32.258,M,-12.666,M,5.0,0137*57
$GPGGA,120546.00,3030.70849368,N,11424.40685711,E,2,25,0.7,32.251,M,-12.666,M,6.0,0137*5C
$GPGGA,120547.00,3030.70849213,N,11424.40685805,E,2,25,0.7,32.250,M,-12.666,M,7.0,0137*5A
$GPGGA,120548.00,3030.70849434,N,11424.40686332,E,2,25,0.7,32.280,M,-12.666,M,2.0,0137*52
$GPGGA,120549.00,3030.70850032,N,11424.40686755,E,2,26,0.6,32.304,M,-12.666,M,3.0,0137*52
$GPGGA,120550.00,3030.70850349,N,11424.40687122,E,2,26,0.6,32.322,M,-12.666,M,4.0,0137*51
$GPGGA,120551.00,3030.70850611,N,11424.40687502,E,2,26,0.6,32.350,M,-12.666,M,5.0,0137*5A
$GPGGA,120552.00,3030.70851184,N,11424.40688087,E,2,26,0.6,32.385,M,-12.666,M,6.0,0137*5F
$GPGGA,120553.00,3030.70851850,N,11424.40688573,E,2,26,0.6,32.425,M,-12.666,M,7.0,0137*5C
$GPGGA,120554.00,3030.70852658,N,11424.40689151,E,2,26,0.6,32.463,M,-12.666,M,2.0,0137*5C
$GPGGA,120555.00,3030.70853590,N,11424.40689819,E,2,25,0.6,32.505,M,-12.666,M,3.0,0137*5D
$GPGGA,120556.00,3030.70854406,N,11424.40690342,E,2,25,0.6,32.554,M,-12.666,M,4.0,0137*59
$GPGGA,120557.00,3030.70855393,N,11424.40690944,E,2,25,0.6,32.607,M,-12.666,M,5.0,0137*5A
$GPGGA,120558.00,3030.70856451,N,11424.40691416,E,2,25,0.6,32.661,M,-12.666,M,6.0,0137*57
$GPGGA,120559.00,3030.70857616,N,11424.40691895,E,2,24,0.7,32.742,M,-12.666,M,7.0,0137*50
$GPGGA,120600.00,3030.70859295,N,11424.40692600,E,2,24,0.7,32.838,M,-12.666,M,2.0,0137*58
$GPGGA,120601.00,3030.70860982,N,11424.40693212,E,2,24,0.7,32.934,M,-12.666,M,3.0,0137*54
$GPGGA,120602.00,3030.70862709,N,11424.40694074,E,2,24,0.7,33.035,M,-12.666,M,4.0,0137*53
$GPGGA,120603.00,3030.70864516,N,11424.40694897,E,2,23,0.7,33.132,M,-12.666,M,5.0,0137*5D
$GPGGA,120604.00,3030.70866272,N,11424.40695989,E,2,23,0.7,33.236,M,-12.666,M,6.0,0137*56
$GPGGA,120605.00,3030.70867839,N,11424.40697206,E,2,23,0.7,33.325,M,-12.666,M,7.0,0137*5F
$GPGGA,120606.00,3030.70869406,N,11424.40698396,E,2,24,0.7,33.412,M,-12.666,M,2.0,0137*54
$GPGGA,120607.00,3030.70871093,N,11424.40699900,E,2,24,0.7,33.492,M,-12.666,M,3.0,0137*59
$GPGGA,120608.00,3030.70872430,N,11424.40701075,E,2,23,0.7,33.565,M,-12.666,M,4.0,0137*5A
$GPGGA,120609.00,3030.70873829,N,11424.40702521,E,2,23,0.7,33.636,M,-12.666,M,5.0,0137*5D
$GPGGA,120610.00,3030.70875241,N,11424.40704138,E,2,23,0.7,33.703,M,-12.666,M,6.0,0137*59
$GPGGA,120611.00,3030.70876404,N,11424.40705566,E,2,23,0.7,33.772,M,-12.666,M,7.0,0137*55
$GPGGA,120612.00,3030.70877379,N,11424.40706772,E,2,24,0.7,33.833,M,-12.666,M,2.0,0137*56
$GPGGA,120613.00,3030.70877992,N,11424.40707779,E,2,24,0.7,33.890,M,-12.666,M,3.0,0137*5A
$GPGGA,120614.00,3030.70878535,N,11424.40708778,E,2,24,0.7,33.945,M,-12.666,M,4.0,0137*53
$GPGGA,120615.00,3030.70878933,N,11424.40709585,E,2,24,0.7,33.994,M,-12.666,M,5.0,0137*54
$GPGGA,120616.00,3030.70879258,N,11424.40710458,E,2,24,0.7,34.048,M,-12.666,M,6.0,0137*55
$GPGGA,120617.00,3030.70879359,N,11424.40711198,E,2,23,0.7,34.098,M,-12.666,M,7.0,0137*57
$GPGGA,120618.00,3030.70879469,N,11424.40711938,E,2,23,0.7,34.141,M,-12.666,M,2.0,0137*5E
$GPGGA,120619.00,3030.70879327,N,11424.40712651,E,2,23,0.7,34.192,M,-12.666,M,3.0,0137*5E
$GPGGA,120620.00,3030.70879415,N,11424.40713287,E,2,23,0.7,34.231,M,-12.666,M,4.0,0137*51
$GPGGA,120621.00,3030.70878921,N,11424.40714198,E,2,23,0.7,34.307,M,-12.666,M,5.0,0137*54
$GPGGA,120622.00,3030.70879143,N,11424.40714911,E,2,24,0.7,34.351,M,-12.666,M,6.0,0137*54
$GPGGA,120623.00,3030.70879464,N,11424.40715296,E,2,24,0.7,34.365,M,-12.666,M,7.0,0137*56
$GPGGA,120624.00,3030.70879923,N,11424.40715485,E,2,24,0.7,34.358,M,-12.666,M,2.0,0137*50
$GPGGA,120625.00,3030.70880714,N,11424.40715620,E,2,24,0.7,34.326,M,-12.666,M,3.0,0137*58
$GPGGA,120626.00,3030.70881235,N,11424.40715745,E,2,24,0.7,34.313,M,-12.666,M,4.0,0137*5F
$GPGGA,120627.00,3030.70881781,N,11424.40716089,E,2,24,0.7,34.300,M,-12.666,M,5.0,0137*53
$GPGGA,120628.00,3030.70882018,N,11424.40716245,E,2,24,0.7,34.289,M,-12.666,M,6.0,0137*59
$GPGGA,120629.00,3030.70882318,N,11424.40716429,E,2,24,0.7,34.280,M,-12.666,M,7.0,0137*5F
$GPGGA,120630.00,3030.70882736,N,11424.40716515,E,2,24,0.7,34.249,M,-12.666,M,2.0,0137*51
$GPGGA,120631.00,3030.70883211,N,11424.40716301,E,2,24,0.7,34.197,M,-12.666,M,3.0,0137*53
$GPGGA,120632.00,3030.70883586,N,11424.40716213,E,2,23,0.7,34.151,M,-12.666,M,4.0,0137*51
$GPGGA,120633.00,3030.70883898,N,11424.40716150,E,2,23,0.7,34.107,M,-12.666,M,5.0,0137*54
$GPGGA,120634.00,3030.70884044,N,11424.40716147,E,2,23,0.7,34.068,M,-12.666,M,6.0,0137*50
$GPGGA,120635.00,3030.70884474,N,11424.40716431,E,2,23,0.7,34.027,M,-12.666,M,7.0,0137*58
$GPGGA,120636.00,3030.70884538,N,11424.40716750,E,2,23,0.7,33.998,M,-12.666,M,2.0,0137*59
$GPGGA,120637.00,3030.70884596,N,11424.40717393,E,2,23,0.7,33.984,M,-12.666,M,3.0,0137*5A
$GPGGA,120638.00,3030.70884676,N,11424.40718166,E,2,23,0.7,33.977,M,-12.666,M,4.0,0137*54
$GPGGA,120639.00,3030.70884610,N,11424.40718819,E,2,23,0.7,33.974,M,-12.666,M,5.0,0137*56
$GPGGA,120640.00,3030.70884733,N,11424.40719796,E,2,23,0.7,33.971,M,-12.666,M,6.0,0137*57
$GPGGA,120641.00,3030.70884873,N,11424.40720771,E,2,23,0.7,33.969,M,-12.666,M,7.0,0137*56
$GPGGA,120642.00,3030.70884735,N,11424.40721572,E,2,22,0.7,33.970,M,-12.666,M,2.0,0137*54
$GPGGA,120643.00,3030.70884721,N,11424.40722447,E,2,21,0.7,33.970,M,-12.666,M,3.0,0137*56
$GPGGA,120644.00,3030.70884584,N,11424.40723202,E,2,21,0.7,33.981,M,-12.666,M,4.0,0137*53
$GPGGA,120645.00,3030.70884346,N,11424.40723749,E,2,22,0.6,33.996,M,-12.666,M,5.0,0137*55
$GPGGA,120646.00,3030.70883938,N,11424.40724152,E,2,23,0.6,34.019,M,-12.666,M,6.0,0137*52
$GPGGA,120647.00,3030.70883610,N,11424.40724182,E,2,23,0.6,34.029,M,-12.666,M,7.0,0137*59
$GPGGA,120648.00,3030.70883205,N,11424.40724063,E,2,22,0.7,34.034,M,-12.666,M,2.0,0137*51
$GPGGA,120649.00,3030.70786369,N,11424.40736249,E,1,22,0.7,39.252,M,-12.666,M,,*7D
$GPGGA,120650.00,3030.70776167,N,11424.40744874,E,1,22,0.7,39.538,M,-12.666,M,,*7C
$GPGGA,120651.00,3030.70771814,N,11424.40745508,E,1,22,0.7,39.516,M,-12.666,M,,*7C
$GPGGA,120652.00,3030.70768642,N,11424.40744308,E,1,20,0.7,39.438,M,-12.666,M,,*72
$GPGGA,120653.00,3030.70766196,N,11424.40745179,E,1,20,0.7,39.421,M,-12.666,M,,*7E
$GPGGA,120654.00,3030.70764496,N,11424.40744033,E,1,20,0.7,39.333,M,-12.666,M,,*74
$GPGGA,120655.00,3030.70762735,N,11424.40739801,E,1,20,0.7,39.164,M,-12.666,M,,*7A
$GPGGA,120656.00,3030.70761719,N,11424.40736679,E,1,21,0.7,39.046,M,-12.666,M,,*7A
$GPGGA,120657.00,3030.70761300,N,11424.40733970,E,1,21,0.7,38.930,M,-12.666,M,,*7D
$GPGGA,120658.00,3030.70761137,N,11424.40729657,E,1,22,0.7,38.751,M,-12.666,M,,*7F
$GPGGA,120659.00,3030.70761589,N,11424.40727958,E,1,22,0.7,38.666,M,-12.666,M,,*74
$GPGGA,120700.00,3030.70762378,N,11424.40726969,E,1,22,0.7,38.586,M,-12.666,M,,*7C
$GPGGA,120701.00,3030.70763091,N,11424.40726071,E,1,22,0.7,38.506,M,-12.666,M,,*70
$GPGGA,120702.00,3030.70763822,N,11424.40725339,E,1,22,0.7,38.427,M,-12.666,M,,*7D
$GPGGA,120703.00,3030.70764815,N,11424.40725445,E,1,22,0.7,38.371,M,-12.666,M,,*77
$GPGGA,120704.00,3030.70765811,N,11424.40726715,E,1,22,0.7,38.359,M,-12.666,M,,*7A
$GPGGA,120705.00,3030.70767018,N,11424.40728412,E,1,23,0.7,38.354,M,-12.666,M,,*7E
$GPGGA,120706.00,3030.70768567,N,11424.40731776,E,1,24,0.7,38.409,M,-12.666,M,,*7E
$GPGGA,120707.00,3030.70770097,N,11424.40735060,E,1,24,0.7,38.460,M,-12.666,M,,*77
$GPGGA,120708.00,3030.70771636,N,11424.40737959,E,1,24,0.7,38.478,M,-12.666,M,,*7C
$GPGGA,120709.00,3030.70772311,N,11424.40739577,E,1,23,0.7,38.477,M,-12.666,M,,*78
$GPGGA,120710.00,3030.70772809,N,11424.40740844,E,1,23,0.7,38.470,M,-12.666,M,,*76
$GPGGA,120711.00,3030.70773786,N,11424.40743436,E,1,23,0.7,38.502,M,-12.666,M,,*70
$GPGGA,120712.00,3030.70774451,N,11424.40745182,E,1,23,0.7,38.496,M,-12.666,M,,*7D
$GPGGA,120713.00,3030.70774604,N,11424.40745381,E,1,21,0.8,38.449,M,-12.666,M,,*70
$GPGGA,120714.00,3030.70774548,N,11424.40744866,E,1,21,0.8,38.394,M,-12.666,M,,*78
$GPGGA,120715.00,3030.70774664,N,11424.40744579,E,1,21,0.8,38.341,M,-12.666,M,,*7F
$GPGGA,120716.00,3030.70774596,N,11424.40745666,E,1,21,0.8,38.354,M,-12.666,M,,*7A
$GPGGA,120717.00,3030.70774686,N,11424.40747301,E,1,21,0.8,38.395,M,-12.666,M,,*72
$GPGGA,120718.00,3030.70774724,N,11424.40749322,E,1,22,0.8,38.439,M,-12.666,M,,*79
$GPGGA,120719.00,3030.70774724,N,11424.40751333,E,1,22,0.8,38.490,M,-12.666,M,,*72
$GPGGA,120720.00,3030.70774701,N,11424.40753624,E,1,22,0.8,38.561,M,-12.666,M,,*71
$GPGGA,120721.00,3030.70774755,N,11424.40755925,E,1,23,0.8,38.642,M,-12.666,M,,*7A
$GPGGA,120722.00,3030.70774807,N,11424.40758417,E,1,24,0.7,38.728,M,-12.666,M,,*75
$GPGGA,120723.00,3030.70774771,N,11424.40760996,E,1,24,0.7,38.817,M,-12.666,M,,*76
$GPGGA,120724.00,3030.70774964,N,11424.40763565,E,1,25,0.7,38.919,M,-12.666,M,,*76
$GPGGA,120725.00,3030.70774701,N,11424.40766406,E,1,23,0.8,39.012,M,-12.666,M,,*71
$GPGGA,120726.00,3030.70774606,N,11424.40769214,E,1,22,0.8,39.094,M,-12.666,M,,*71
$GPGGA,120727.00,3030.70774665,N,11424.40772179,E,1,22,0.8,39.165,M,-12.666,M,,*78
$GPGGA,120728.00,3030.70775003,N,11424.40771799,E,2,23,0.8,39.156,M,-12.666,M,6.0,0137*54
$GPGGA,120729.00,3030.70775066,N,11424.40770933,E,2,22,0.8,39.132,M,-12.666,M,7.0,0137*5B
$GPGGA,120730.00,3030.70775112,N,11424.40769855,E,2,22,0.8,39.101,M,-12.666,M,2.0,0137*5D
$GPGGA,120731.00,3030.70774744,N,11424.40768320,E,2,24,0.7,39.056,M,-12.666,M,3.0,0137*5B
$GPGGA,120732.00,3030.70774372,N,11424.40766697,E,2,24,0.7,39.010,M,-12.666,M,4.0,0137*5B
$GPGGA,120733.00,3030.70773837,N,11424.40764795,E,2,24,0.7,38.962,M,-12.666,M,5.0,0137*5A
$GPGGA,120734.00,3030.70773239,N,11424.40762664,E,2,24,0.7,38.902,M,-12.666,M,6.0,0137*55
$GPGGA,120735.00,3030.70772481,N,11424.40760180,E,2,24,0.7,38.837,M,-12.666,M,7.0,0137*59
$GPGGA,120736.00,3030.70771627,N,11424.40757682,E,2,24,0.7,38.777,M,-12.666,M,7.0,0137*5D
$GPGGA,120737.00,3030.70770481,N,11424.40754890,E,2,24,0.7,38.713,M,-12.666,M,3.0,0137*5B
$GPGGA,120738.00,3030.70769332,N,11424.40751895,E,2,24,0.7,38.640,M,-12.666,M,4.0,0137*53
$GPGGA,120739.00,3030.70768206,N,11424.40748770,E,2,24,0.7,38.569,M,-12.666,M,5.0,0137*50
$GPGGA,120740.00,3030.70766844,N,11424.40745502,E,2,24,0.7,38.494,M,-12.666,M,6.0,0137*56
$GPGGA,120741.00,3030.70765366,N,11424.40741856,E,2,23,0.8,38.413,M,-12.666,M,7.0,0137*51
$GPGGA,120742.00,3030.70763661,N,11424.40737990,E,2,23,0.8,38.327,M,-12.666,M,2.0,0137*59
$GPGGA,120743.00,3030.70762157,N,11424.40734156,E,2,23,0.7,38.245,M,-12.666,M,3.0,0137*51
$GPGGA,120744.00,3030.70760546,N,11424.40730138,E,2,23,0.7,38.156,M,-12.666,M,4.0,0137*5A
$GPGGA,120745.00,3030.70758739,N,11424.40725792,E,2,23,0.7,38.068,M,-12.666,M,5.0,0137*55
$GPGGA,120746.00,3030.70756714,N,11424.40721322,E,2,23,0.7,37.977,M,-12.666,M,6.0,0137*57
$GPGGA,120747.00,3030.70754861,N,11424.40716993,E,2,23,0.7,37.894,M,-12.666,M,7.0,0137*50
$GPGGA,120748.00,3030.70753442,N,11424.40713262,E,2,23,0.7,37.828,M,-12.666,M,2.0,0137*57
$GPGGA,120749.00,3030.70752380,N,11424.40709426,E,2,23,0.7,37.753,M,-12.666,M,3.0,0137*51
$GPGGA,120750.00,3030.70751410,N,11424.40705592,E,2,23,0.7,37.684,M,-12.666,M,4.0,0137*5A
$GPGGA,120751.00,3030.70750876,N,11424.40702156,E,2,23,0.7,37.624,M,-12.666,M,5.0,0137*56
$GPGGA,120752.00,3030.70750225,N,11424.40698478,E,2,23,0.7,37.562,M,-12.666,M,6.0,0137*50
$GPGGA,120753.00,3030.70749698,N,11424.40694872,E,2,24,0.7,37.501,M,-12.666,M,7.0,0137*52
$GPGGA,120754.00,3030.70749517,N,11424.40691849,E,2,25,0.6,37.451,M,-12.666,M,2.0,0137*5D
$GPGGA,120755.00,3030.70749741,N,11424.40689291,E,2,25,0.6,37.413,M,-12.666,M,3.0,0137*5C
$GPGGA,120756.00,3030.70750201,N,11424.40686966,E,2,25,0.6,37.378,M,-12.666,M,4.0,0137*57
$GPGGA,120757.00,3030.70749937,N,11424.40683680,E,2,25,0.7,37.325,M,-12.666,M,5.0,0137*5A
$GPGGA,120758.00,3030.70749923,N,11424.40680821,E,2,25,0.7,37.286,M,-12.666,M,6.0,0137*5D
$GPGGA,120759.00,3030.70750432,N,11424.40678668,E,2,25,0.7,37.261,M,-12.666,M,7.0,0137*55
$GPGGA,120800.00,3030.70750671,N,11424.40675901,E,2,25,0.7,37.229,M,-12.666,M,2.0,0137*57
$GPGGA,120801.00,3030.70749493,N,11424.40671409,E,2,25,0.7,37.175,M,-12.666,M,3.0,0137*5A
$GPGGA,120802.00,3030.70749577,N,11424.40667902,E,2,25,0.7,37.138,M,-12.666,M,4.0,0137*5D
$GPGGA,120803.00,3030.70750136,N,11424.40665271,E,2,25,0.7,37.121,M,-12.666,M,5.0,0137*51
$GPGGA,120804.00,3030.70751165,N,11424.40663083,E,2,24,0.7,37.106,M,-12.666,M,6.0,0137*5F
$GPGGA,120805.00,3030.70752676,N,11424.40661589,E,2,24,0.7,37.098,M,-12.666,M,7.0,0137*52
$GPGGA,120806.00,3030.70753631,N,11424.40659127,E,2,24,0.7,37.082,M,-12.666,M,2.0,0137*56
$GPGGA,120807.00,3030.70754655,N,11424.40656982,E,2,24,0.7,37.074,M,-12.666,M,3.0,0137*52
$GPGGA,120808.00,3030.70755499,N,11424.40654949,E,2,24,0.7,37.066,M,-12.666,M,4.0,0137*5F
$GPGGA,120809.00,3030.70755867,N,11424.40652351,E,2,24,0.7,37.048,M,-12.667,M,5.0,0137*5A
$GPGGA,120810.00,3030.70756504,N,11424.40650505,E,2,24,0.7,37.046,M,-12.667,M,6.0,0137*51
$GPGGA,120811.00,3030.70757401,N,11424.40648877,E,2,24,0.7,37.043,M,-12.667,M,7.0,0137*50
$GPGGA,120812.00,3030.70758062,N,11424.40647115,E,2,24,0.7,37.043,M,-12.667,M,2.0,0137*5A
$GPGGA,120813.00,3030.70758700,N,11424.40645302,E,2,24,0.7,37.036,M,-12.667,M,3.0,0137*5D
$GPGGA,120814.00,3030.70759293,N,11424.40643333,E,2,25,0.7,37.031,M,-12.667,M,4.0,0137*51
$GPGGA,120815.00,3030.70759916,N,11424.40641682,E,2,24,0.7,37.027,M,-12.667,M,5.0,0137*5C
$GPGGA,120816.00,3030.70760257,N,11424.40639720,E,2,24,0.7,37.021,M,-12.667,M,6.0,0137*58
$GPGGA,120817.00,3030.70760514,N,11424.40637427,E,2,24,0.7,37.013,M,-12.667,M,7.0,0137*53
$GPGGA,120818.00,3030.70760980,N,11424.40635582,E,2,24,0.7,37.009,M,-12.667,M,2.0,0137*5F
$GPGGA,120819.00,3030.70762134,N,11424.40634607,E,2,23,0.8,37.018,M,-12.667,M,3.0,0137*5D
$GPGGA,120820.00,3030.70763305,N,11424.40633825,E,2,23,0.8,37.021,M,-12.667,M,4.0,0137*52
$GPGGA,120821.00,3030.70762703,N,11424.40630035,E,2,23,0.8,37.002,M,-12.667,M,5.0,0137*5A
$GPGGA,120822.00,3030.70760657,N,11424.40624540,E,2,23,0.8,36.971,M,-12.667,M,6.0,0137*56
$GPGGA,120823.00,3030.70758370,N,11424.40618358,E,2,24,0.7,36.926,M,-12.667,M,7.0,0137*57
$GPGGA,120824.00,3030.70757425,N,11424.40614415,E,2,24,0.7,36.908,M,-12.667,M,2.0,0137*53
$GPGGA,120825.00,3030.70756304,N,11424.40610181,E,2,24,0.7,36.903,M,-12.667,M,3.0,0137*51
$GPGGA,120826.00,3030.70754663,N,11424.40605186,E,2,24,0.7,36.891,M,-12.667,M,4.0,0137*5A
$GPGGA,120827.00,3030.70753038,N,11424.40600311,E,2,24,0.7,36.881,M,-12.667,M,5.0,0137*5D
$GPGGA,120828.00,3030.70752569,N,11424.40597095,E,2,24,0.7,36.892,M,-12.667,M,6.0,0137*51
$GPGGA,120829.00,3030.70752156,N,11424.40593850,E,2,24,0.7,36.906,M,-12.667,M,7.0,0137*50
$GPGGA,120830.00,3030.70751478,N,11424.40590277,E,2,24,0.7,36.922,M,-12.667,M,2.0,0137*5D
$GPGGA,120831.00,3030.70749442,N,11424.40584641,E,2,24,0.7,36.927,M,-12.667,M,3.0,0137*5C
$GPGGA,120832.00,3030.70748173,N,11424.40580118,E,2,24,0.7,36.950,M,-12.667,M,4.0,0137*51
$GPGGA,120833.00,3030.70747189,N,11424.40575941,E,2,24,0.7,36.977,M,-12.667,M,5.0,0137*50
$GPGGA,120834.00,3030.70745841,N,11424.40571564,E,2,24,0.7,37.001,M,-12.667,M,6.0,0137*5D
$GPGGA,120835.00,3030.70744163,N,11424.40566564,E,2,24,0.7,37.014,M,-12.667,M,7.0,0137*57
$GPGGA,120836.00,3030.70743333,N,11424.40562878,E,2,23,0.7,37.041,M,-12.667,M,2.0,0137*52
$GPGGA,120837.00,3030.70740893,N,11424.40557074,E,2,23,0.7,37.051,M,-12.667,M,3.0,0137*53
$GPGGA,120838.00,3030.70739669,N,11424.40552866,E,2,24,0.7,37.068,M,-12.667,M,4.0,0137*5D
$GPGGA,120839.00,3030.70738737,N,11424.40549192,E,2,23,0.7,37.106,M,-12.667,M,5.0,0137*50
$GPGGA,120840.00,3030.70737414,N,11424.40544969,E,2,23,0.7,37.127,M,-12.667,M,6.0,0137*52
$GPGGA,120841.00,3030.70735592,N,11424.40540061,E,2,23,0.7,37.151,M,-12.667,M,7.0,0137*5B
$GPGGA,120842.00,3030.70733406,N,11424.40534652,E,2,24,0.7,37.147,M,-12.667,M,2.0,0137*52
$GPGGA,120843.00,3030.70732440,N,11424.40530731,E,2,24,0.7,37.153,M,-12.667,M,3.0,0137*54
$GPGGA,120844.00,3030.70730290,N,11424.40525277,E,2,24,0.7,37.143,M,-12.667,M,4.0,0137*5F
$GPGGA,120845.00,3030.70727594,N,11424.40519677,E,2,24,0.7,37.151,M,-12.667,M,5.0,0137*52
$GPGGA,120846.00,3030.70725124,N,11424.40514449,E,2,24,0.7,37.177,M,-12.667,M,6.0,0137*59
$GPGGA,120847.00,3030.70722562,N,11424.40509194,E,2,24,0.7,37.199,M,-12.667,M,7.0,0137*51
$GPGGA,120848.00,3030.70722426,N,11424.40506341,E,2,24,0.7,37.197,M,-12.667,M,2.0,0137*51
$GPGGA,120849.00,3030.70720980,N,11424.40502277,E,2,24,0.7,37.192,M,-12.667,M,3.0,0137*57
$GPGGA,120850.00,3030.70719705,N,11424.40498253,E,2,24,0.7,37.185,M,-12.667,M,4.0,0137*53
$GPGGA,120851.00,3030.70718155,N,11424.40494946,E,2,24,0.7,37.220,M,-12.667,M,5.0,0137*5E
$GPGGA,120852.00,3030.70716752,N,11424.40491533,E,2,24,0.7,37.240,M,-12.667,M,6.0,0137*5C
$GPGGA,120853.00,3030.70715494,N,11424.40488362,E,2,24,0.7,37.262,M,-12.667,M,7.0,0137*5C
$GPGGA,120854.00,3030.70714303,N,11424.40485433,E,2,24,0.7,37.289,M,-12.667,M,2.0,0137*5D
$GPGGA,120855.00,3030.70713199,N,11424.40482620,E,2,24,0.7,37.314,M,-12.667,M,3.0,0137*59
$GPGGA,120856.00,3030.70712305,N,11424.40480236,E,2,24,0.7,37.342,M,-12.667,M,4.0,0137*59
$GPGGA,120857.00,3030.70711474,N,11424.40477962,E,2,25,0.7,37.361,M,-12.667,M,5.0,0137*59
$GPGGA,120858.00,3030.70710704,N,11424.40475830,E,2,24,0.7,37.373,M,-12.667,M,6.0,0137*56
$GPGGA,120859.00,3030.70709813,N,11424.40473723,E,2,24,0.7,37.385,M,-12.667,M,7.0,0137*55
$GPGGA,120900.00,3030.70709219,N,11424.40471945,E,2,24,0.7,37.401,M,-12.667,M,7.0,0137*5F
$GPGGA,120901.00,3030.70708537,N,11424.40470248,E,2,24,0.7,37.423,M,-12.667,M,3.0,0137*57
$GPGGA,120902.00,3030.70707645,N,11424.40468401,E,2,25,0.7,37.451,M,-12.667,M,4.0,0137*5C
$GPGGA,120903.00,3030.70706901,N,11424.40466466,E,2,25,0.7,37.467,M,-12.667,M,5.0,0137*58
$GPGGA,120904.00,3030.70706074,N,11424.40464773,E,2,25,0.7,37.496,M,-12.667,M,6.0,0137*5C
$GPGGA,120905.00,3030.70705305,N,11424.40462996,E,2,25,0.7,37.513,M,-12.667,M,7.0,0137*55
$GPGGA,120906.00,3030.70704374,N,11424.40461181,E,2,25,0.7,37.536,M,-12.667,M,7.0,0137*5B
$GPGGA,120907.00,3030.70703293,N,11424.40459421,E,2,25,0.7,37.561,M,-12.667,M,3.0,0137*57
$GPGGA,120908.00,3030.70702788,N,11424.40458009,E,2,25,0.7,37.573,M,-12.667,M,4.0,0137*5D
$GPGGA,120909.00,3030.70702135,N,11424.40456611,E,2,25,0.7,37.585,M,-12.667,M,5.0,0137*55
$GPGGA,120910.00,3030.70701347,N,11424.40455262,E,2,25,0.7,37.611,M,-12.667,M,6.0,0137*57
$GPGGA,120911.00,3030.70700701,N,11424.40454222,E,2,25,0.7,37.641,M,-12.667,M,7.0,0137*50
$GPGGA,120912.00,3030.70699860,N,11424.40453074,E,2,25,0.7,37.673,M,-12.667,M,7.0,0137*5D
$GPGGA,120913.00,3030.70699370,N,11424.40452138,E,2,25,0.7,37.709,M,-12.667,M,3.0,0137*56
$GPGGA,120914.00,3030.70698666,N,11424.40451202,E,2,24,0.7,37.746,M,-12.667,M,4.0,0137*56
$GPGGA,120915.00,3030.70698017,N,11424.40450313,E,2,24,0.7,37.775,M,-12.667,M,5.0,0137*56
$GPGGA,120916.00,3030.70697595,N,11424.40449844,E,2,24,0.7,37.810,M,-12.667,M,6.0,0137*5B
$GPGGA,120917.00,3030.70697717,N,11424.40449637,E,2,24,0.7,37.822,M,-12.667,M,7.0,0137*58
$GPGGA,120918.00,3030.70698161,N,11424.40449855,E,2,23,0.8,37.826,M,-12.667,M,2.0,0137*5C
$GPGGA,120919.00,3030.70698907,N,11424.40450430,E,2,23,0.8,37.827,M,-12.667,M,3.0,0137*52
$GPGGA,120920.00,3030.70699756,N,11424.40451162,E,2,23,0.8,37.829,M,-12.667,M,4.0,0137*59
$GPGGA,120921.00,3030.70700537,N,11424.40451858,E,2,23,0.8,37.833,M,-12.667,M,5.0,0137*56
$GPGGA,120922.00,3030.70701295,N,11424.40452705,E,2,23,0.8,37.817,M,-12.667,M,6.0,0137*5A
$GPGGA,120923.00,3030.70702333,N,11424.40453397,E,2,23,0.8,37.785,M,-12.667,M,7.0,0137*5E
$GPGGA,120924.00,3030.70703585,N,11424.40454667,E,2,23,0.8,37.765,M,-12.667,M,2.0,0137*55
$GPGGA,120925.00,3030.70704527,N,11424.40456022,E,2,23,0.8,37.732,M,-12.667,M,3.0,0137*5D
$GPGGA,120926.00,3030.70705691,N,11424.40457402,E,2,23,0.8,37.693,M,-12.667,M,4.0,0137*5B
$GPGGA,120927.00,3030.70706821,N,11424.40459035,E,2,23,0.8,37.657,M,-12.667,M,5.0,0137*5B
$GPGGA,120928.00,3030.70708039,N,11424.40460589,E,2,23,0.8,37.615,M,-12.667,M,6.0,0137*56
$GPGGA,120929.00,3030.70709348,N,11424.40462436,E,2,24,0.7,37.579,M,-12.667,M,7.0,0137*54
$GPGGA,120930.00,3030.70710688,N,11424.40464465,E,2,23,0.7,37.535,M,-12.667,M,2.0,0137*57
$GPGGA,120931.00,3030.70712093,N,11424.40466539,E,2,23,0.7,37.489,M,-12.667,M,3.0,0137*55
$GPGGA,120932.00,3030.70713340,N,11424.40468338,E,2,23,0.7,37.457,M,-12.667,M,4.0,0137*57
$GPGGA,120933.00,3030.70714416,N,11424.40470082,E,2,23,0.7,37.425,M,-12.667,M,5.0,0137*5A
$GPGGA,120934.00,3030.70715843,N,11424.40471877,E,2,23,0.7,37.394,M,-12.667,M,6.0,0137*5D
$GPGGA,120935.00,3030.70717442,N,11424.40473793,E,2,23,0.7,37.354,M,-12.667,M,7.0,0137*59
$GPGGA,120936.00,3030.70718834,N,11424.40475682,E,2,23,0.7,37.329,M,-12.667,M,2.0,0137*50
$GPGGA,120937.00,3030.70720449,N,11424.40477772,E,2,23,0.7,37.295,M,-12.667,M,3.0,0137*57
$GPGGA,120938.00,3030.70856559,N,11424.40745536,E,1,22,0.7,38.485,M,-12.667,M,,*74
$GPGGA,120939.00,3030.70847680,N,11424.40794413,E,1,22,0.7,40.080,M,-12.667,M,,*76
$GPGGA,120940.00,3030.70844090,N,11424.40801401,E,2,23,0.7,40.260,M,-12.667,M,6.0,0137*5F
$GPGGA,120941.00,3030.70852849,N,11424.40796720,E,2,23,0.7,39.847,M,-12.667,M,7.0,0137*54
$GPGGA,120942.00,3030.70859163,N,11424.40793358,E,2,24,0.7,39.547,M,-12.666,M,2.0,0137*5D
$GPGGA,120943.00,3030.70864672,N,11424.40790479,E,2,24,0.7,39.273,M,-12.666,M,3.0,0137*53
$GPGGA,120944.00,3030.70868896,N,11424.40787631,E,2,24,0.7,39.000,M,-12.666,M,4.0,0137*55
$GPGGA,120945.00,3030.70872677,N,11424.40785074,E,2,24,0.7,38.753,M,-12.666,M,5.0,0137*5A
$GPGGA,120946.00,3030.70875812,N,11424.40782945,E,2,25,0.6,38.535,M,-12.666,M,6.0,0137*5E
$GPGGA,120947.00,3030.70878409,N,11424.40781341,E,2,25,0.6,38.361,M,-12.666,M,7.0,0137*5F
$GPGGA,120948.00,3030.70880362,N,11424.40779923,E,2,24,0.7,38.213,M,-12.666,M,2.0,0137*55
$GPGGA,120949.00,3030.70881985,N,11424.40778846,E,2,25,0.6,38.080,M,-12.666,M,3.0,0137*5C
$GPGGA,120950.00,3030.70883564,N,11424.40778032,E,2,26,0.6,37.953,M,-12.666,M,4.0,0137*52
$GPGGA,120951.00,3030.70885102,N,11424.40777260,E,2,26,0.6,37.829,M,-12.666,M,5.0,0137*56
$GPGGA,120952.00,3030.70886509,N,11424.40776796,E,2,25,0.6,37.720,M,-12.666,M,6.0,0137*52
$GPGGA,120953.00,3030.70887726,N,11424.40776383,E,2,25,0.6,37.617,M,-12.666,M,7.0,0137*59
$GPGGA,120954.00,3030.70888809,N,11424.40775842,E,2,25,0.6,37.516,M,-12.666,M,7.0,0137*54
$GPGGA,120955.00,3030.70889586,N,11424.40775149,E,2,25,0.6,37.428,M,-12.666,M,3.0,0137*54
$GPGGA,120956.00,3030.70890493,N,11424.40774356,E,2,25,0.6,37.343,M,-12.666,M,4.0,0137*5A
$GPGGA,120957.00,3030.70891025,N,11424.40773448,E,2,26,0.6,37.272,M,-12.666,M,5.0,0137*5D
$GPGGA,120958.00,3030.70891655,N,11424.40772750,E,2,26,0.6,37.206,M,-12.666,M,6.0,0137*58
$GPGGA,120959.00,3030.70891814,N,11424.40771827,E,2,26,0.6,37.156,M,-12.666,M,7.0,0137*59
$GPGGA,121000.00,3030.70892030,N,11424.40770608,E,2,26,0.6,37.110,M,-12.666,M,7.0,0137*50
$GPGGA,121001.00,3030.70892100,N,11424.40769290,E,2,26,0.6,37.075,M,-12.666,M,3.0,0137*58
$GPGGA,121002.00,3030.70892417,N,11424.40767891,E,2,26,0.6,37.050,M,-12.666,M,4.0,0137*5D
$GPGGA,121003.00,3030.70893109,N,11424.40766474,E,2,26,0.6,37.044,M,-12.666,M,5.0,0137*55
$GPGGA,121004.00,3030.70893706,N,11424.40764836,E,2,25,0.6,37.040,M,-12.666,M,6.0,0137*57
$GPGGA,121005.00,3030.70894186,N,11424.40763180,E,2,25,0.6,37.066,M,-12.666,M,7.0,0137*59
$GPGGA,121006.00,3030.70894453,N,11424.40761480,E,2,25,0.6,37.100,M,-12.666,M,7.0,0137*51
$GPGGA,121007.00,3030.70894551,N,11424.40759751,E,2,25,0.6,37.133,M,-12.666,M,3.0,0137*53
$GPGGA,121008.00,3030.70894884,N,11424.40758384,E,2,25,0.6,37.161,M,-12.666,M,4.0,0137*54
$GPGGA,121009.00,3030.70894895,N,11424.40757053,E,2,25,0.6,37.185,M,-12.666,M,5.0,0137*58
$GPGGA,121010.00,3030.70894902,N,11424.40755787,E,2,25,0.6,37.196,M,-12.666,M,6.0,0137*52
$GPGGA,121011.00,3030.70894936,N,11424.40754589,E,2,24,0.6,37.213,M,-12.666,M,7.0,0137*57
$GPGGA,121012.00,3030.70895015,N,11424.40753800,E,2,24,0.6,37.227,M,-12.666,M,7.0,0137*51
$GPGGA,121013.00,3030.70895257,N,11424.40753159,E,2,24,0.6,37.242,M,-12.666,M,3.0,0137*56
$GPGGA,121014.00,3030.70895340,N,11424.40752506,E,2,24,0.6,37.255,M,-12.666,M,4.0,0137*58
$GPGGA,121015.00,3030.70895589,N,11424.40752066,E,2,24,0.6,37.260,M,-12.666,M,5.0,0137*5E
$GPGGA,121016.00,3030.70895789,N,11424.40751702,E,2,24,0.6,37.278,M,-12.666,M,6.0,0137*53
$GPGGA,121017.00,3030.70895975,N,11424.40751647,E,2,22,0.7,37.294,M,-12.666,M,7.0,0137*5B
$GPGGA,121018.00,3030.70896052,N,11424.40751431,E,2,22,0.7,37.315,M,-12.666,M,7.0,0137*50
$GPGGA,121019.00,3030.70896071,N,11424.40751080,E,2,21,0.7,37.339,M,-12.666,M,3.0,0137*57
$GPGGA,121020.00,3030.70896230,N,11424.40750754,E,2,21,0.7,37.355,M,-12.666,M,4.0,0137*58
$GPGGA,121021.00,3030.70896400,N,11424.40750676,E,2,21,0.7,37.380,M,-12.666,M,5.0,0137*54
$GPGGA,121022.00,3030.70896502,N,11424.40750575,E,2,21,0.7,37.402,M,-12.666,M,6.0,0137*5A
$GPGGA,121023.00,3030.70896810,N,11424.40750681,E,2,21,0.7,37.428,M,-12.666,M,7.0,0137*54
$GPGGA,121024.00,3030.70897043,N,11424.40750796,E,2,21,0.7,37.445,M,-12.666,M,7.0,0137*50
$GPGGA,121025.00,3030.70897349,N,11424.40751016,E,2,21,0.7,37.457,M,-12.666,M,3.0,0137*51
$GPGGA,121026.00,3030.70897552,N,11424.40751321,E,2,21,0.7,37.471,M,-12.666,M,4.0,0137*5A
$GPGGA,121027.00,3030.70898095,N,11424.40751673,E,2,21,0.7,37.479,M,-12.666,M,5.0,0137*51
$GPGGA,121028.00,3030.70898308,N,11424.40752030,E,2,21,0.7,37.498,M,-12.666,M,6.0,0137*57
$GPGGA,121029.00,3030.70898374,N,11424.40752060,E,2,22,0.7,37.517,M,-12.666,M,7.0,0137*5C
$GPGGA,121030.00,3030.70898250,N,11424.40752054,E,2,22,0.7,37.528,M,-12.666,M,7.0,0137*58
$GPGGA,121031.00,3030.70898116,N,11424.40751949,E,2,22,0.7,37.538,M,-12.666,M,3.0,0137*5B
$GPGGA,121032.00,3030.70898067,N,11424.40751912,E,2,22,0.7,37.542,M,-12.666,M,4.0,0137*5B
$GPGGA,121033.00,3030.70898013,N,11424.40751903,E,2,22,0.7,37.545,M,-12.666,M,5.0,0137*5F
$GPGGA,121034.00,3030.70897829,N,11424.40751832,E,2,22,0.7,37.549,M,-12.666,M,6.0,0137*5A
$GPGGA,121035.00,3030.70897704,N,11424.40751798,E,2,22,0.7,37.546,M,-12.666,M,7.0,0137*5A
$GPGGA,121036.00,3030.70897898,N,11424.40752191,E,2,22,0.7,37.547,M,-12.666,M,7.0,0137*5E
$GPGGA,121037.00,3030.70897753,N,11424.40752204,E,2,22,0.7,37.542,M,-12.666,M,3.0,0137*59
$GPGGA,121038.00,3030.70897623,N,11424.40752410,E,2,22,0.7,37.544,M,-12.666,M,4.0,0137*52
$GPGGA,121039.00,3030.70897564,N,11424.40752523,E,2,22,0.7,37.536,M,-12.666,M,5.0,0137*56
$GPGGA,121040.00,3030.70897455,N,11424.40752888,E,2,22,0.7,37.525,M,-12.666,M,6.0,0137*56
$GPGGA,121041.00,3030.70897168,N,11424.40752948,E,2,22,0.7,37.513,M,-12.666,M,7.0,0137*55
$GPGGA,121042.00,3030.70897130,N,11424.40753166,E,2,23,0.7,37.504,M,-12.666,M,7.0,0137*59
$GPGGA,121043.00,3030.70897149,N,11424.40753334,E,2,23,0.7,37.497,M,-12.666,M,3.0,0137*5C
$GPGGA,121044.00,3030.70897000,N,11424.40753379,E,2,23,0.7,37.492,M,-12.666,M,4.0,0137*5C
$GPGGA,121045.00,3030.70896847,N,11424.40753604,E,2,23,0.7,37.483,M,-12.666,M,5.0,0137*59
$GPGGA,121046.00,3030.70896690,N,11424.40753863,E,2,23,0.7,37.474,M,-12.666,M,6.0,0137*5A
$GPGGA,121047.00,3030.70896452,N,11424.40753996,E,2,23,0.7,37.462,M,-12.666,M,7.0,0137*5A
$GPGGA,121048.00,3030.70896330,N,11424.40754087,E,2,23,0.7,37.451,M,-12.666,M,7.0,0137*58
$GPGGA,121049.00,3030.70896325,N,11424.40754242,E,2,24,0.6,37.441,M,-12.666,M,3.0,0137*55
$GPGGA,121050.00,3030.70896110,N,11424.40754270,E,2,23,0.6,37.437,M,-12.666,M,4.0,0137*59
$GPGGA,121051.00,3030.70896004,N,11424.40754453,E,2,23,0.6,37.422,M,-12.666,M,5.0,0137*5E
$GPGGA,121052.00,3030.70895862,N,11424.40754639,E,2,23,0.6,37.422,M,-12.666,M,6.0,0137*5B
$GPGGA,121053.00,3030.70895573,N,11424.40754837,E,2,23,0.6,37.412,M,-12.666,M,7.0,0137*55
$GPGGA,121054.00,3030.70872158,N,11424.40756703,E,1,21,0.8,37.704,M,-12.666,M,,*7B
$GPGGA,121055.00,3030.70856472,N,11424.40772034,E,1,21,0.8,38.276,M,-12.666,M,,*7B
$GPGGA,121056.00,3030.70851809,N,11424.40776137,E,1,21,0.8,38.456,M,-12.666,M,,*7D
$GPGGA,121057.00,3030.70850052,N,11424.40778299,E,1,21,0.8,38.570,M,-12.666,M,,*77
$GPGGA,121058.00,3030.70848995,N,11424.40780516,E,1,21,0.8,38.678,M,-12.666,M,,*7F
$GPGGA,121059.00,3030.70848971,N,11424.40783413,E,1,21,0.8,38.788,M,-12.666,M,,*7D
$GPGGA,121100.00,3030.70848685,N,11424.40784903,E,1,21,0.8,38.844,M,-12.666,M,,*70
$GPGGA,121101.00,3030.70848131,N,11424.40786186,E,1,21,0.8,38.895,M,-12.666,M,,*72
$GPGGA,121102.00,3030.70849000,N,11424.40789697,E,1,21,0.8,38.976,M,-12.666,M,,*77
$GPGGA,121103.00,3030.70850736,N,11424.40793851,E,1,21,0.8,39.060,M,-12.666,M,,*7C
$GPGGA,121104.00,3030.70850165,N,11424.40794032,E,1,21,0.8,39.067,M,-12.666,M,,*76
$GPGGA,121105.00,3030.70850925,N,11424.40795675,E,1,22,0.7,39.097,M,-12.666,M,,*7C
$GPGGA,121106.00,3030.70850875,N,11424.40796153,E,1,21,0.7,39.121,M,-12.666,M,,*74
$GPGGA,121107.00,3030.70850113,N,11424.40796475,E,1,20,0.8,39.138,M,-12.666,M,,*7B
$GPGGA,121108.00,3030.70849083,N,11424.40796907,E,1,21,0.8,39.169,M,-12.666,M,,*79
$GPGGA,121109.00,3030.70847816,N,11424.40797483,E,1,21,0.8,39.214,M,-12.666,M,,*7B
$GPGGA,121110.00,3030.70847243,N,11424.40797861,E,2,22,0.8,39.237,M,-12.666,M,6.0,0137*55
$GPGGA,121111.00,3030.70849321,N,11424.40796589,E,2,22,0.8,39.157,M,-12.666,M,7.0,0137*51
